{
  "generatedAt": "2025-11-25T07:09:10.269Z",
  "timeZone": "Asia/Tokyo",
  "hourPath": "2025/11/25/16",
  "source": "http://www.data.jma.go.jp/developer/xml/feed/extra.xml",
  "totalItems": 58,
  "items": [
    {
      "originId": "https://www.data.jma.go.jp/developer/xml/data/20251125070741_0_VPWW53_360000.xml",
      "title": "気象特別警報・警報・注意報",
      "content": "【徳島県気象警報・注意報】徳島県では、２６日夕方まで強風に、２５日夜のはじめ頃まで竜巻などの激しい突風や急な強い雨、落雷に注意してください。",
      "observedAt": "2025-11-25T07:07:41.000Z",
      "placeCountry": "日本",
      "placePref": "徳島県",
      "placeCity": null,
      "latitude": 33.9196418,
      "longitude": 134.2509634
    },
    {
      "originId": "https://www.data.jma.go.jp/developer/xml/data/20251125070719_0_VPWW53_130000.xml",
      "title": "気象特別警報・警報・注意報",
      "content": "【東京都気象警報・注意報】伊豆諸島北部、伊豆諸島南部では強風や高波に、伊豆諸島北部、伊豆諸島南部、小笠原諸島では竜巻などの激しい突風や急な強い雨、落雷に、東京地方では濃霧による視程障害に注意してください。",
      "observedAt": "2025-11-25T07:07:18.000Z",
      "placeCountry": "日本",
      "placePref": "東京都",
      "placeCity": null,
      "latitude": 35.6828387,
      "longitude": 139.7594549
    },
    {
      "originId": "https://www.data.jma.go.jp/developer/xml/data/20251125070622_0_VPWW53_430000.xml",
      "title": "気象特別警報・警報・注意報",
      "content": "【熊本県気象警報・注意報】熊本地方では２５日夜遅くまで、天草・芦北地方では２６日明け方まで、強風や高波に注意してください。",
      "observedAt": "2025-11-25T07:06:22.000Z",
      "placeCountry": "日本",
      "placePref": "熊本県",
      "placeCity": null,
      "latitude": 32.6450475,
      "longitude": 130.6341345
    },
    {
      "originId": "https://www.data.jma.go.jp/developer/xml/data/20251125070616_0_VPWW53_440000.xml",
      "title": "気象特別警報・警報・注意報",
      "content": "【大分県気象警報・注意報】中部、北部、南部では、２６日朝まで強風や高波に注意してください。大分県では、２６日朝は霜に対する農作物の管理に注意してください。",
      "observedAt": "2025-11-25T07:06:15.000Z",
      "placeCountry": "日本",
      "placePref": "大分県",
      "placeCity": null,
      "latitude": 33.1819875,
      "longitude": 131.4270217
    },
    {
      "originId": "https://www.data.jma.go.jp/developer/xml/data/20251125070531_0_VPWW53_120000.xml",
      "title": "気象特別警報・警報・注意報",
      "content": "【千葉県気象警報・注意報】千葉県では、２５日夜遅くから２６日昼前まで濃霧による視程障害に注意してください。",
      "observedAt": "2025-11-25T07:05:30.000Z",
      "placeCountry": "日本",
      "placePref": "千葉県",
      "placeCity": null,
      "latitude": 35.549399,
      "longitude": 140.2647303
    },
    {
      "originId": "https://www.data.jma.go.jp/developer/xml/data/20251125064833_0_VPWW53_070000.xml",
      "title": "気象特別警報・警報・注意報",
      "content": "【福島県気象警報・注意報】会津では、２６日未明から２６日夕方まで急な強い雨や落雷に注意してください。福島県では、２６日朝は霜に対する農作物の管理に注意してください。",
      "observedAt": "2025-11-25T06:48:32.000Z",
      "placeCountry": "日本",
      "placePref": "福島県",
      "placeCity": null,
      "latitude": 37.3662591,
      "longitude": 140.2511854
    },
    {
      "originId": "https://www.data.jma.go.jp/developer/xml/data/20251125064714_0_VPWW53_260000.xml",
      "title": "気象特別警報・警報・注意報",
      "content": "【京都府気象警報・注意報】北部では、強風や高波、高潮に注意してください。京都府では、竜巻などの激しい突風や急な強い雨、落雷に注意してください。",
      "observedAt": "2025-11-25T06:47:14.000Z",
      "placeCountry": "日本",
      "placePref": "京都府",
      "placeCity": null,
      "latitude": 35.242552,
      "longitude": 135.454601
    },
    {
      "originId": "https://www.data.jma.go.jp/developer/xml/data/20251125063916_0_VPWW53_050000.xml",
      "title": "気象特別警報・警報・注意報",
      "content": "【秋田県気象警報・注意報】沿岸では、２６日昼前まで土砂災害に注意してください。秋田県では、２６日昼前まで竜巻などの激しい突風や落雷に注意してください。",
      "observedAt": "2025-11-25T06:39:16.000Z",
      "placeCountry": "日本",
      "placePref": "秋田県",
      "placeCity": null,
      "latitude": 39.6898802,
      "longitude": 140.342608
    },
    {
      "originId": "https://www.data.jma.go.jp/developer/xml/data/20251125063626_0_VPWW53_020000.xml",
      "title": "気象特別警報・警報・注意報",
      "content": "【青森県気象警報・注意報】青森県では、２６日朝まで竜巻などの激しい突風や急な強い雨、落雷に、２６日昼前まで濃霧による視程障害に注意してください。",
      "observedAt": "2025-11-25T06:36:26.000Z",
      "placeCountry": "日本",
      "placePref": "青森県",
      "placeCity": null,
      "latitude": 40.886943,
      "longitude": 140.590121
    },
    {
      "originId": "https://www.data.jma.go.jp/developer/xml/data/20251125063232_0_VPWW53_280000.xml",
      "title": "気象特別警報・警報・注意報",
      "content": "【兵庫県気象警報・注意報】兵庫県では、強風や高波、竜巻などの激しい突風、急な強い雨、落雷に注意してください。北部では、高潮に注意してください。",
      "observedAt": "2025-11-25T06:32:31.000Z",
      "placeCountry": "日本",
      "placePref": "兵庫県",
      "placeCity": null,
      "latitude": 34.914934,
      "longitude": 134.860666
    },
    {
      "originId": "https://www.data.jma.go.jp/developer/xml/data/20251125063108_0_VPWW53_310000.xml",
      "title": "気象特別警報・警報・注意報",
      "content": "【鳥取県気象警報・注意報】鳥取県では、２６日昼前まで強風や竜巻などの激しい突風、急な強い雨、落雷に、２５日夜遅くから２６日昼前まで高波に注意してください。",
      "observedAt": "2025-11-25T06:31:07.000Z",
      "placeCountry": "日本",
      "placePref": "鳥取県",
      "placeCity": null,
      "latitude": 35.3555075,
      "longitude": 133.8678525
    },
    {
      "originId": "https://www.data.jma.go.jp/developer/xml/data/20251125062943_0_VPWW53_030000.xml",
      "title": "気象特別警報・警報・注意報",
      "content": "【岩手県気象警報・注意報】岩手県では、２５日夜のはじめ頃から２６日昼前まで急な強い雨や落雷に、２６日昼前まで濃霧による視程障害に注意してください。",
      "observedAt": "2025-11-25T06:29:43.000Z",
      "placeCountry": "日本",
      "placePref": "岩手県",
      "placeCity": null,
      "latitude": 39.5713763,
      "longitude": 141.4253574
    },
    {
      "originId": "https://www.data.jma.go.jp/developer/xml/data/20251125061414_0_VPWW53_040000.xml",
      "title": "気象特別警報・警報・注意報",
      "content": "【宮城県気象警報・注意報】宮城県では、２５日夜のはじめ頃から２６日夕方まで急な強い雨や落雷に注意してください。",
      "observedAt": "2025-11-25T06:14:14.000Z",
      "placeCountry": "日本",
      "placePref": "宮城県",
      "placeCity": null,
      "latitude": 38.3880155,
      "longitude": 140.9761025
    },
    {
      "originId": "https://www.data.jma.go.jp/developer/xml/data/20251125060411_0_VPWW53_200000.xml",
      "title": "気象特別警報・警報・注意報",
      "content": "【長野県気象警報・注意報】中部、南部では２５日夜のはじめ頃から２６日明け方まで、北部では２５日夜のはじめ頃から２６日夕方まで、急な強い雨や落雷に注意してください。",
      "observedAt": "2025-11-25T06:04:10.000Z",
      "placeCountry": "日本",
      "placePref": "長野県",
      "placeCity": null,
      "latitude": 36.1143945,
      "longitude": 138.0319015
    },
    {
      "originId": "https://www.data.jma.go.jp/developer/xml/data/20251125055717_0_VPWW53_460100.xml",
      "title": "気象特別警報・警報・注意報",
      "content": "【鹿児島県（奄美地方を除く）気象警報・注意報】薩摩、大隅、種子島・屋久島地方では、強風や高波に注意してください。薩摩、大隅地方では、急な強い雨や落雷、霜に対する農作物の管理に注意してください。",
      "observedAt": "2025-11-25T05:57:16.000Z",
      "placeCountry": "日本",
      "placePref": "鹿児島県",
      "placeCity": null,
      "latitude": 31.521587,
      "longitude": 130.5474077
    },
    {
      "originId": "https://www.data.jma.go.jp/developer/xml/data/20251125055552_0_VPWW53_450000.xml",
      "title": "気象特別警報・警報・注意報",
      "content": "【宮崎県気象警報・注意報】南部平野部では、２５日夜のはじめ頃まで強風に注意してください。",
      "observedAt": "2025-11-25T05:55:51.000Z",
      "placeCountry": "日本",
      "placePref": "宮崎県",
      "placeCity": null,
      "latitude": 32.097681,
      "longitude": 131.294542
    },
    {
      "originId": "https://www.data.jma.go.jp/developer/xml/data/20251125054740_0_VPWW53_080000.xml",
      "title": "気象特別警報・警報・注意報",
      "content": "【茨城県気象警報・注意報】茨城県では、２５日夜遅くから２６日昼前まで濃霧による視程障害に、２６日朝は霜に対する農作物の管理に注意してください。",
      "observedAt": "2025-11-25T05:47:39.000Z",
      "placeCountry": "日本",
      "placePref": "茨城県",
      "placeCity": null,
      "latitude": 36.2869536,
      "longitude": 140.4703384
    },
    {
      "originId": "https://www.data.jma.go.jp/developer/xml/data/20251125045312_0_VPWW53_420000.xml",
      "title": "気象特別警報・警報・注意報",
      "content": "【長崎県気象警報・注意報】五島の海上では、２５日夕方まで暴風に警戒してください。",
      "observedAt": "2025-11-25T04:53:11.000Z",
      "placeCountry": "日本",
      "placePref": "長崎県",
      "placeCity": null,
      "latitude": 33.1154683,
      "longitude": 129.7874339
    },
    {
      "originId": "https://www.data.jma.go.jp/developer/xml/data/20251125042150_0_VPWW53_260000.xml",
      "title": "気象特別警報・警報・注意報",
      "content": "【京都府気象警報・注意報】北部では、強風や高波に注意してください。京都府では、竜巻などの激しい突風や急な強い雨、落雷に注意してください。",
      "observedAt": "2025-11-25T04:21:49.000Z",
      "placeCountry": "日本",
      "placePref": "京都府",
      "placeCity": null,
      "latitude": 35.242552,
      "longitude": 135.454601
    },
    {
      "originId": "https://www.data.jma.go.jp/developer/xml/data/20251125041708_0_VPWW53_320000.xml",
      "title": "気象特別警報・警報・注意報",
      "content": "【島根県気象警報・注意報】島根県では、２６日明け方まで強風に、２５日夕方から２６日昼前まで高波に、２６日昼前まで竜巻などの激しい突風や急な強い雨、落雷に注意してください。",
      "observedAt": "2025-11-25T04:17:07.000Z",
      "placeCountry": "日本",
      "placePref": "島根県",
      "placeCity": null,
      "latitude": 34.9418212,
      "longitude": 132.537439
    },
    {
      "originId": "https://www.data.jma.go.jp/developer/xml/data/20251125031832_0_VPWW53_320000.xml",
      "title": "気象特別警報・警報・注意報",
      "content": "【島根県気象警報・注意報】東部、隠岐では、低い土地の浸水に注意してください。島根県では、強風や高波、竜巻などの激しい突風、落雷に注意してください。",
      "observedAt": "2025-11-25T03:18:32.000Z",
      "placeCountry": "日本",
      "placePref": "島根県",
      "placeCity": null,
      "latitude": 34.9418212,
      "longitude": 132.537439
    },
    {
      "originId": "https://www.data.jma.go.jp/developer/xml/data/20251125024836_0_VPWW53_050000.xml",
      "title": "気象特別警報・警報・注意報",
      "content": "【秋田県気象警報・注意報】秋田県では、２６日昼前まで竜巻などの激しい突風や急な強い雨、落雷に注意してください。",
      "observedAt": "2025-11-25T02:48:35.000Z",
      "placeCountry": "日本",
      "placePref": "秋田県",
      "placeCity": null,
      "latitude": 39.6898802,
      "longitude": 140.342608
    },
    {
      "originId": "https://www.data.jma.go.jp/developer/xml/data/20251125024510_0_VPWW53_070000.xml",
      "title": "気象特別警報・警報・注意報",
      "content": "【福島県気象警報・注意報】福島県では、２６日朝は霜に対する農作物の管理に注意してください。",
      "observedAt": "2025-11-25T02:45:09.000Z",
      "placeCountry": "日本",
      "placePref": "福島県",
      "placeCity": null,
      "latitude": 37.3662591,
      "longitude": 140.2511854
    },
    {
      "originId": "https://www.data.jma.go.jp/developer/xml/data/20251125023721_0_VPWW53_060000.xml",
      "title": "気象特別警報・警報・注意報",
      "content": "【山形県気象警報・注意報】山形県では、竜巻などの激しい突風や急な強い雨、落雷に注意してください。",
      "observedAt": "2025-11-25T02:37:21.000Z",
      "placeCountry": "日本",
      "placePref": "山形県",
      "placeCity": null,
      "latitude": 38.4746705,
      "longitude": 140.083237
    },
    {
      "originId": "https://www.data.jma.go.jp/developer/xml/data/20251125015452_0_VPWW53_150000.xml",
      "title": "気象特別警報・警報・注意報",
      "content": "【新潟県気象警報・注意報】新潟県では、竜巻などの激しい突風や急な強い雨、落雷に注意してください。",
      "observedAt": "2025-11-25T01:54:51.000Z",
      "placeCountry": "日本",
      "placePref": "新潟県",
      "placeCity": null,
      "latitude": 37.6452283,
      "longitude": 138.7669125
    },
    {
      "originId": "https://www.data.jma.go.jp/developer/xml/data/20251125011753_0_VPWW53_460040.xml",
      "title": "気象特別警報・警報・注意報",
      "content": "【奄美地方（鹿児島県）気象警報・注意報】奄美地方では、２５日夕方から２６日明け方まで強風に、２５日昼過ぎから２６日昼前まで高波に注意してください。",
      "observedAt": "2025-11-25T01:17:52.000Z",
      "placeCountry": "日本",
      "placePref": "鹿児島県",
      "placeCity": null,
      "latitude": 31.521587,
      "longitude": 130.5474077
    },
    {
      "originId": "https://www.data.jma.go.jp/developer/xml/data/20251125011606_0_VPWW53_070000.xml",
      "title": "気象特別警報・警報・注意報",
      "content": "【福島県気象警報・注意報】福島県では、２５日昼前まで濃霧による視程障害に、２６日朝は霜に対する農作物の管理に注意してください。",
      "observedAt": "2025-11-25T01:16:05.000Z",
      "placeCountry": "日本",
      "placePref": "福島県",
      "placeCity": null,
      "latitude": 37.3662591,
      "longitude": 140.2511854
    },
    {
      "originId": "https://www.data.jma.go.jp/developer/xml/data/20251125011533_0_VPWW53_460100.xml",
      "title": "気象特別警報・警報・注意報",
      "content": "【鹿児島県（奄美地方を除く）気象警報・注意報】薩摩、大隅、種子島・屋久島地方では、強風や高波に注意してください。薩摩、大隅地方では、急な強い雨や落雷、霜に対する農作物の管理に注意してください。",
      "observedAt": "2025-11-25T01:15:32.000Z",
      "placeCountry": "日本",
      "placePref": "鹿児島県",
      "placeCity": null,
      "latitude": 31.521587,
      "longitude": 130.5474077
    },
    {
      "originId": "https://www.data.jma.go.jp/developer/xml/data/20251125011512_0_VPWW53_220000.xml",
      "title": "気象特別警報・警報・注意報",
      "content": "【静岡県気象警報・注意報】静岡県では、２５日夕方から２５日夜遅くまで竜巻などの激しい突風や急な強い雨、落雷に注意してください。",
      "observedAt": "2025-11-25T01:15:12.000Z",
      "placeCountry": "日本",
      "placePref": "静岡県",
      "placeCity": null,
      "latitude": 34.9332488,
      "longitude": 138.0955398
    },
    {
      "originId": "https://www.data.jma.go.jp/developer/xml/data/20251125011417_0_VPWW53_230000.xml",
      "title": "気象特別警報・警報・注意報",
      "content": "【愛知県気象警報・注意報】愛知県では、２５日夕方から２５日夜遅くまで竜巻などの激しい突風や急な強い雨、落雷に注意してください。",
      "observedAt": "2025-11-25T01:14:16.000Z",
      "placeCountry": "日本",
      "placePref": "愛知県",
      "placeCity": null,
      "latitude": 34.9991645,
      "longitude": 137.254574
    },
    {
      "originId": "https://www.data.jma.go.jp/developer/xml/data/20251125011330_0_VPWW53_300000.xml",
      "title": "気象特別警報・警報・注意報",
      "content": "【和歌山県気象警報・注意報】和歌山県では、２５日夕方から２６日昼前まで強風に、２６日明け方まで竜巻などの激しい突風や急な強い雨、落雷に注意してください。",
      "observedAt": "2025-11-25T01:13:29.000Z",
      "placeCountry": "日本",
      "placePref": "和歌山県",
      "placeCity": null,
      "latitude": 33.8070292,
      "longitude": 135.5930743
    },
    {
      "originId": "https://www.data.jma.go.jp/developer/xml/data/20251125011244_0_VPWW53_240000.xml",
      "title": "気象特別警報・警報・注意報",
      "content": "【三重県気象警報・注意報】三重県では、２５日夕方から２５日夜遅くまで竜巻などの激しい突風や急な強い雨、落雷に注意してください。",
      "observedAt": "2025-11-25T01:12:44.000Z",
      "placeCountry": "日本",
      "placePref": "三重県",
      "placeCity": null,
      "latitude": 34.7339685,
      "longitude": 136.5154489
    },
    {
      "originId": "https://www.data.jma.go.jp/developer/xml/data/20251125011133_0_VPWW53_320000.xml",
      "title": "気象特別警報・警報・注意報",
      "content": "【島根県気象警報・注意報】島根県では、２６日明け方まで強風に、２５日夕方から２６日昼前まで高波に、２６日昼前まで竜巻などの激しい突風や急な強い雨、落雷に注意してください。",
      "observedAt": "2025-11-25T01:11:32.000Z",
      "placeCountry": "日本",
      "placePref": "島根県",
      "placeCity": null,
      "latitude": 34.9418212,
      "longitude": 132.537439
    },
    {
      "originId": "https://www.data.jma.go.jp/developer/xml/data/20251125011035_0_VPWW53_210000.xml",
      "title": "気象特別警報・警報・注意報",
      "content": "【岐阜県気象警報・注意報】岐阜県では、２５日夕方から２６日昼前まで竜巻などの激しい突風や急な強い雨、落雷に注意してください。",
      "observedAt": "2025-11-25T01:10:35.000Z",
      "placeCountry": "日本",
      "placePref": "岐阜県",
      "placeCity": null,
      "latitude": 35.7867449,
      "longitude": 137.0460777
    },
    {
      "originId": "https://www.data.jma.go.jp/developer/xml/data/20251125010812_0_VPWW53_130000.xml",
      "title": "気象特別警報・警報・注意報",
      "content": "【東京都気象警報・注意報】伊豆諸島南部では、強風や高波に注意してください。伊豆諸島北部、伊豆諸島南部、小笠原諸島では、竜巻などの激しい突風や急な強い雨、落雷に注意してください。",
      "observedAt": "2025-11-25T01:08:12.000Z",
      "placeCountry": "日本",
      "placePref": "東京都",
      "placeCity": null,
      "latitude": 35.6828387,
      "longitude": 139.7594549
    },
    {
      "originId": "https://www.data.jma.go.jp/developer/xml/data/20251125010737_0_VPWW53_170000.xml",
      "title": "気象特別警報・警報・注意報",
      "content": "【石川県気象警報・注意報】能登では、２５日夕方から２６日昼前まで高潮に注意してください。石川県では、２６日昼前まで竜巻などの激しい突風や急な強い雨、落雷に注意してください。",
      "observedAt": "2025-11-25T01:07:37.000Z",
      "placeCountry": "日本",
      "placePref": "石川県",
      "placeCity": null,
      "latitude": 36.9888678,
      "longitude": 136.8163563
    },
    {
      "originId": "https://www.data.jma.go.jp/developer/xml/data/20251125010408_0_VPWW53_020000.xml",
      "title": "気象特別警報・警報・注意報",
      "content": "【青森県気象警報・注意報】青森県では、竜巻などの激しい突風や急な強い雨、落雷に注意してください。津軽、三八上北では、なだれに注意してください。",
      "observedAt": "2025-11-25T01:04:07.000Z",
      "placeCountry": "日本",
      "placePref": "青森県",
      "placeCity": null,
      "latitude": 40.886943,
      "longitude": 140.590121
    },
    {
      "originId": "https://www.data.jma.go.jp/developer/xml/data/20251125005315_0_VPWW53_030000.xml",
      "title": "気象特別警報・警報・注意報",
      "content": "【岩手県気象警報・注意報】岩手県では、２５日夕方まで濃霧による視程障害に注意してください。",
      "observedAt": "2025-11-25T00:53:15.000Z",
      "placeCountry": "日本",
      "placePref": "岩手県",
      "placeCity": null,
      "latitude": 39.5713763,
      "longitude": 141.4253574
    },
    {
      "originId": "https://www.data.jma.go.jp/developer/xml/data/20251125005059_0_VPWW53_440000.xml",
      "title": "気象特別警報・警報・注意報",
      "content": "【大分県気象警報・注意報】中部、北部、南部では、強風や高波に注意してください。大分県では、竜巻などの激しい突風や急な強い雨、落雷、霜に対する農作物の管理に注意してください。",
      "observedAt": "2025-11-25T00:50:58.000Z",
      "placeCountry": "日本",
      "placePref": "大分県",
      "placeCity": null,
      "latitude": 33.1819875,
      "longitude": 131.4270217
    },
    {
      "originId": "https://www.data.jma.go.jp/developer/xml/data/20251125004333_0_VPWW53_040000.xml",
      "title": "気象特別警報・警報・注意報",
      "content": "【宮城県気象警報・注意報】注意報を解除します。",
      "observedAt": "2025-11-25T00:43:32.000Z",
      "placeCountry": "日本",
      "placePref": "宮城県",
      "placeCity": null,
      "latitude": 38.3880155,
      "longitude": 140.9761025
    },
    {
      "originId": "https://www.data.jma.go.jp/developer/xml/data/20251125003822_0_VPWW53_270000.xml",
      "title": "気象特別警報・警報・注意報",
      "content": "【大阪府気象警報・注意報】大阪府では、２５日夕方から２６日明け方まで強風や高波に、２６日明け方まで竜巻などの激しい突風や急な強い雨、落雷に注意してください。",
      "observedAt": "2025-11-25T00:38:21.000Z",
      "placeCountry": "日本",
      "placePref": "大阪府",
      "placeCity": null,
      "latitude": 34.6198813,
      "longitude": 135.490357
    },
    {
      "originId": "https://www.data.jma.go.jp/developer/xml/data/20251125003817_0_VPWW53_280000.xml",
      "title": "気象特別警報・警報・注意報",
      "content": "【兵庫県気象警報・注意報】兵庫県では、強風や竜巻などの激しい突風、急な強い雨、落雷に注意してください。南部では、高波に注意してください。",
      "observedAt": "2025-11-25T00:38:16.000Z",
      "placeCountry": "日本",
      "placePref": "兵庫県",
      "placeCity": null,
      "latitude": 34.914934,
      "longitude": 134.860666
    },
    {
      "originId": "https://www.data.jma.go.jp/developer/xml/data/20251125003707_0_VPWW53_250000.xml",
      "title": "気象特別警報・警報・注意報",
      "content": "【滋賀県気象警報・注意報】滋賀県では、２５日昼過ぎから２６日昼前まで竜巻などの激しい突風や急な強い雨、落雷に注意してください。",
      "observedAt": "2025-11-25T00:37:07.000Z",
      "placeCountry": "日本",
      "placePref": "滋賀県",
      "placeCity": null,
      "latitude": 35.247154,
      "longitude": 136.109385
    },
    {
      "originId": "https://www.data.jma.go.jp/developer/xml/data/20251125003239_0_VPWW53_260000.xml",
      "title": "気象特別警報・警報・注意報",
      "content": "【京都府気象警報・注意報】京都府では、２６日昼前まで竜巻などの激しい突風や急な強い雨、落雷に注意してください。",
      "observedAt": "2025-11-25T00:32:38.000Z",
      "placeCountry": "日本",
      "placePref": "京都府",
      "placeCity": null,
      "latitude": 35.242552,
      "longitude": 135.454601
    },
    {
      "originId": "https://www.data.jma.go.jp/developer/xml/data/20251124232118_0_VPWW53_200000.xml",
      "title": "気象特別警報・警報・注意報",
      "content": "【長野県気象警報・注意報】注意報を解除します。",
      "observedAt": "2025-11-24T23:21:18.000Z",
      "placeCountry": "日本",
      "placePref": "長野県",
      "placeCity": null,
      "latitude": 36.1143945,
      "longitude": 138.0319015
    },
    {
      "originId": "https://www.data.jma.go.jp/developer/xml/data/20251124231934_0_VPWW53_130000.xml",
      "title": "気象特別警報・警報・注意報",
      "content": "【東京都気象警報・注意報】伊豆諸島南部では、２５日昼過ぎから強風に注意してください。小笠原諸島では２５日夕方まで、伊豆諸島南部では２６日未明まで、竜巻などの激しい突風や急な強い雨、落雷に注意してください。",
      "observedAt": "2025-11-24T23:19:33.000Z",
      "placeCountry": "日本",
      "placePref": "東京都",
      "placeCity": null,
      "latitude": 35.6828387,
      "longitude": 139.7594549
    },
    {
      "originId": "https://www.data.jma.go.jp/developer/xml/data/20251124224807_0_VPWW53_280000.xml",
      "title": "気象特別警報・警報・注意報",
      "content": "【兵庫県気象警報・注意報】兵庫県では、２５日昼前から竜巻などの激しい突風や急な強い雨、落雷に注意してください。",
      "observedAt": "2025-11-24T22:48:06.000Z",
      "placeCountry": "日本",
      "placePref": "兵庫県",
      "placeCity": null,
      "latitude": 34.914934,
      "longitude": 134.860666
    },
    {
      "originId": "https://www.data.jma.go.jp/developer/xml/data/20251124224216_0_VPWW53_080000.xml",
      "title": "気象特別警報・警報・注意報",
      "content": "【茨城県気象警報・注意報】注意報を解除します。",
      "observedAt": "2025-11-24T22:42:16.000Z",
      "placeCountry": "日本",
      "placePref": "茨城県",
      "placeCity": null,
      "latitude": 36.2869536,
      "longitude": 140.4703384
    },
    {
      "originId": "https://www.data.jma.go.jp/developer/xml/data/20251124224023_0_VPWW53_150000.xml",
      "title": "気象特別警報・警報・注意報",
      "content": "【新潟県気象警報・注意報】新潟県では、竜巻などの激しい突風や急な強い雨、落雷に注意してください。中越では、濃霧による視程障害に注意してください。",
      "observedAt": "2025-11-24T22:40:23.000Z",
      "placeCountry": "日本",
      "placePref": "新潟県",
      "placeCity": null,
      "latitude": 37.6452283,
      "longitude": 138.7669125
    },
    {
      "originId": "https://www.data.jma.go.jp/developer/xml/data/20251124222518_0_VPWW53_370000.xml",
      "title": "気象特別警報・警報・注意報",
      "content": "【香川県気象警報・注意報】香川県では、２５日昼過ぎから２６日朝まで強風や高波に、２５日昼前から２５日夜のはじめ頃まで竜巻などの激しい突風や急な強い雨、落雷に注意してください。",
      "observedAt": "2025-11-24T22:25:18.000Z",
      "placeCountry": "日本",
      "placePref": "香川県",
      "placeCity": null,
      "latitude": 34.2480104,
      "longitude": 134.0586579
    },
    {
      "originId": "https://www.data.jma.go.jp/developer/xml/data/20251124222508_0_VPWW53_380000.xml",
      "title": "気象特別警報・警報・注意報",
      "content": "【愛媛県気象警報・注意報】愛媛県では、強風や高波、竜巻などの激しい突風、急な強い雨、落雷に注意してください。",
      "observedAt": "2025-11-24T22:25:07.000Z",
      "placeCountry": "日本",
      "placePref": "愛媛県",
      "placeCity": null,
      "latitude": 33.6013646,
      "longitude": 132.8185275
    },
    {
      "originId": "https://www.data.jma.go.jp/developer/xml/data/20251124222224_0_VPWW53_200000.xml",
      "title": "気象特別警報・警報・注意報",
      "content": "【長野県気象警報・注意報】北部では、２５日昼前まで濃霧による視程障害に注意してください。",
      "observedAt": "2025-11-24T22:22:23.000Z",
      "placeCountry": "日本",
      "placePref": "長野県",
      "placeCity": null,
      "latitude": 36.1143945,
      "longitude": 138.0319015
    },
    {
      "originId": "https://www.data.jma.go.jp/developer/xml/data/20251124221625_0_VPWW53_390000.xml",
      "title": "気象特別警報・警報・注意報",
      "content": "【高知県気象警報・注意報】高知県では、強風や竜巻などの激しい突風、急な強い雨、落雷に注意してください。",
      "observedAt": "2025-11-24T22:16:24.000Z",
      "placeCountry": "日本",
      "placePref": "高知県",
      "placeCity": null,
      "latitude": 33.6569018,
      "longitude": 133.5606241
    },
    {
      "originId": "https://www.data.jma.go.jp/developer/xml/data/20251124221504_0_VPWW53_330000.xml",
      "title": "気象特別警報・警報・注意報",
      "content": "【岡山県気象警報・注意報】南部では、２５日昼過ぎから２５日夜遅くまで強風や高波に注意してください。岡山県では、２６日明け方まで竜巻などの激しい突風や急な強い雨、落雷に注意してください。",
      "observedAt": "2025-11-24T22:15:03.000Z",
      "placeCountry": "日本",
      "placePref": "岡山県",
      "placeCity": null,
      "latitude": 34.8581334,
      "longitude": 133.7759256
    },
    {
      "originId": "https://www.data.jma.go.jp/developer/xml/data/20251124221209_0_VPWW53_060000.xml",
      "title": "気象特別警報・警報・注意報",
      "content": "【山形県気象警報・注意報】山形県では、竜巻などの激しい突風や急な強い雨、落雷、濃霧による視程障害に注意してください。",
      "observedAt": "2025-11-24T22:12:09.000Z",
      "placeCountry": "日本",
      "placePref": "山形県",
      "placeCity": null,
      "latitude": 38.4746705,
      "longitude": 140.083237
    },
    {
      "originId": "https://www.data.jma.go.jp/developer/xml/data/20251124214623_0_VPWW53_170000.xml",
      "title": "気象特別警報・警報・注意報",
      "content": "【石川県気象警報・注意報】石川県では、竜巻などの激しい突風や急な強い雨、落雷に注意してください。",
      "observedAt": "2025-11-24T21:46:22.000Z",
      "placeCountry": "日本",
      "placePref": "石川県",
      "placeCity": null,
      "latitude": 36.9888678,
      "longitude": 136.8163563
    },
    {
      "originId": "https://www.data.jma.go.jp/developer/xml/data/20251124214528_0_VPWW53_340000.xml",
      "title": "気象特別警報・警報・注意報",
      "content": "【広島県気象警報・注意報】南部では、２５日昼過ぎから２５日夜遅くまで強風や高波に注意してください。広島県では、２６日明け方まで竜巻などの激しい突風や急な強い雨、落雷に注意してください。",
      "observedAt": "2025-11-24T21:45:28.000Z",
      "placeCountry": "日本",
      "placePref": "広島県",
      "placeCity": null,
      "latitude": 34.5666725,
      "longitude": 132.753565
    },
    {
      "originId": "https://www.data.jma.go.jp/developer/xml/data/20251124211604_0_VPWW53_450000.xml",
      "title": "気象特別警報・警報・注意報",
      "content": "【宮崎県気象警報・注意報】南部平野部では、２５日昼過ぎから２５日夜のはじめ頃まで強風に注意してください。宮崎県では、２５日昼過ぎまで急な強い雨や落雷に注意してください。",
      "observedAt": "2025-11-24T21:16:04.000Z",
      "placeCountry": "日本",
      "placePref": "宮崎県",
      "placeCity": null,
      "latitude": 32.097681,
      "longitude": 131.294542
    }
  ]
}