{
  "generatedAt": "2026-03-20T15:21:37.291Z",
  "timeZone": "Asia/Tokyo",
  "hourPath": "2026/03/21/00",
  "source": "http://www.data.jma.go.jp/developer/xml/feed/extra.xml",
  "totalItems": 52,
  "items": [
    {
      "originId": "https://www.data.jma.go.jp/developer/xml/data/20260320150826_0_VPWW53_070000.xml",
      "title": "気象特別警報・警報・注意報",
      "content": "【福島県気象警報・注意報】中通り、浜通りでは強風と、空気の乾燥した状態が続くため火の取り扱いに、会津では風雪や落雷に、中通り、会津ではなだれに、福島県では霜に対する農作物の管理に注意してください。",
      "observedAt": "2026-03-20T15:08:25.000Z",
      "placeCountry": "日本",
      "placePref": "福島県",
      "placeCity": null,
      "latitude": 37.3662591,
      "longitude": 140.2511854
    },
    {
      "originId": "https://www.data.jma.go.jp/developer/xml/data/20260320145510_0_VPWW53_180000.xml",
      "title": "気象特別警報・警報・注意報",
      "content": "【福井県気象警報・注意報】福井県では、２１日朝は霜に対する農作物の管理に注意してください。",
      "observedAt": "2026-03-20T14:55:09.000Z",
      "placeCountry": "日本",
      "placePref": "福井県",
      "placeCity": null,
      "latitude": 35.9263502,
      "longitude": 136.6068127
    },
    {
      "originId": "https://www.data.jma.go.jp/developer/xml/data/20260320145416_0_VPWW53_170000.xml",
      "title": "気象特別警報・警報・注意報",
      "content": "【石川県気象警報・注意報】石川県では、高波や霜に対する農作物の管理に注意してください。加賀では、なだれに注意してください。",
      "observedAt": "2026-03-20T14:54:16.000Z",
      "placeCountry": "日本",
      "placePref": "石川県",
      "placeCity": null,
      "latitude": 36.9888678,
      "longitude": 136.8163563
    },
    {
      "originId": "https://www.data.jma.go.jp/developer/xml/data/20260320145311_0_VPWW53_150000.xml",
      "title": "気象特別警報・警報・注意報",
      "content": "【新潟県気象警報・注意報】新潟県では、強風や高波に注意してください。下越、中越、上越では、なだれに注意してください。",
      "observedAt": "2026-03-20T14:53:10.000Z",
      "placeCountry": "日本",
      "placePref": "新潟県",
      "placeCity": null,
      "latitude": 37.6452283,
      "longitude": 138.7669125
    },
    {
      "originId": "https://www.data.jma.go.jp/developer/xml/data/20260320145205_0_VPWW53_260000.xml",
      "title": "気象特別警報・警報・注意報",
      "content": "【京都府気象警報・注意報】南部では、２２日まで空気の乾燥した状態が続くため、火の取り扱いに注意してください。京都府では、２１日朝は霜に対する農作物の管理に注意してください。",
      "observedAt": "2026-03-20T14:52:05.000Z",
      "placeCountry": "日本",
      "placePref": "京都府",
      "placeCity": null,
      "latitude": 35.242552,
      "longitude": 135.454601
    },
    {
      "originId": "https://www.data.jma.go.jp/developer/xml/data/20260320144008_0_VPWW53_160000.xml",
      "title": "気象特別警報・警報・注意報",
      "content": "【富山県気象警報・注意報】東部では、２１日昼前まで高波に注意してください。富山県では、２２日までなだれに注意してください。",
      "observedAt": "2026-03-20T14:40:08.000Z",
      "placeCountry": "日本",
      "placePref": "富山県",
      "placeCity": null,
      "latitude": 36.6468015,
      "longitude": 137.2183531
    },
    {
      "originId": "https://www.data.jma.go.jp/developer/xml/data/20260320141028_0_VPWW53_430000.xml",
      "title": "気象特別警報・警報・注意報",
      "content": "【熊本県気象警報・注意報】天草・芦北地方では、２１日まで高潮に注意してください。熊本県では、２１日まで空気の乾燥した状態が続くため、火の取り扱いに、２１日朝は霜に対する農作物の管理に注意してください。",
      "observedAt": "2026-03-20T14:10:27.000Z",
      "placeCountry": "日本",
      "placePref": "熊本県",
      "placeCity": null,
      "latitude": 32.6450475,
      "longitude": 130.6341345
    },
    {
      "originId": "https://www.data.jma.go.jp/developer/xml/data/20260320131810_0_VPWW53_420000.xml",
      "title": "気象特別警報・警報・注意報",
      "content": "【長崎県気象警報・注意報】南部、壱岐・対馬では、高潮に注意してください。南部、北部では、空気の乾燥した状態が続くため、火の取り扱いに注意してください。長崎県では、霜に対する農作物の管理に注意してください。",
      "observedAt": "2026-03-20T13:18:09.000Z",
      "placeCountry": "日本",
      "placePref": "長崎県",
      "placeCity": null,
      "latitude": 33.1154683,
      "longitude": 129.7874339
    },
    {
      "originId": "https://www.data.jma.go.jp/developer/xml/data/20260320131337_0_VPWW53_060000.xml",
      "title": "気象特別警報・警報・注意報",
      "content": "【山形県気象警報・注意報】庄内では、風雪や高波に注意してください。山形県では、落雷やなだれ、霜に対する農作物の管理に注意してください。",
      "observedAt": "2026-03-20T13:13:36.000Z",
      "placeCountry": "日本",
      "placePref": "山形県",
      "placeCity": null,
      "latitude": 38.4746705,
      "longitude": 140.083237
    },
    {
      "originId": "https://www.data.jma.go.jp/developer/xml/data/20260320131336_0_VPWW53_050000.xml",
      "title": "気象特別警報・警報・注意報",
      "content": "【秋田県気象警報・注意報】秋田県の海上では、２１日未明まで暴風雪に警戒してください。",
      "observedAt": "2026-03-20T13:13:35.000Z",
      "placeCountry": "日本",
      "placePref": "秋田県",
      "placeCity": null,
      "latitude": 39.6898802,
      "longitude": 140.342608
    },
    {
      "originId": "https://www.data.jma.go.jp/developer/xml/data/20260320131046_0_VPWW53_020000.xml",
      "title": "気象特別警報・警報・注意報",
      "content": "【青森県気象警報・注意報】青森県では、２１日夕方まで風雪に、２１日明け方まで落雷に、ここしばらくなだれに注意してください。下北、三八上北では２１日夕方まで、津軽では２１日夜遅くまで、高波に注意してください。",
      "observedAt": "2026-03-20T13:10:45.000Z",
      "placeCountry": "日本",
      "placePref": "青森県",
      "placeCity": null,
      "latitude": 40.886943,
      "longitude": 140.590121
    },
    {
      "originId": "https://www.data.jma.go.jp/developer/xml/data/20260320130315_0_VPWW53_150000.xml",
      "title": "気象特別警報・警報・注意報",
      "content": "【新潟県気象警報・注意報】佐渡では、２１日未明まで暴風に警戒してください。",
      "observedAt": "2026-03-20T13:03:14.000Z",
      "placeCountry": "日本",
      "placePref": "新潟県",
      "placeCity": null,
      "latitude": 37.6452283,
      "longitude": 138.7669125
    },
    {
      "originId": "https://www.data.jma.go.jp/developer/xml/data/20260320124939_0_VPWW53_440000.xml",
      "title": "気象特別警報・警報・注意報",
      "content": "【大分県気象警報・注意報】南部では、２１日明け方まで強風に注意してください。大分県では、２１日まで空気の乾燥した状態が続くため、火の取り扱いに、２１日朝は霜に対する農作物の管理に注意してください。",
      "observedAt": "2026-03-20T12:49:38.000Z",
      "placeCountry": "日本",
      "placePref": "大分県",
      "placeCity": null,
      "latitude": 33.1819875,
      "longitude": 131.4270217
    },
    {
      "originId": "https://www.data.jma.go.jp/developer/xml/data/20260320121212_0_VPWW53_060000.xml",
      "title": "気象特別警報・警報・注意報",
      "content": "【山形県気象警報・注意報】庄内では、風雪や高波に注意してください。山形県では、竜巻などの激しい突風や落雷、なだれ、霜に対する農作物の管理に注意してください。",
      "observedAt": "2026-03-20T12:12:11.000Z",
      "placeCountry": "日本",
      "placePref": "山形県",
      "placeCity": null,
      "latitude": 38.4746705,
      "longitude": 140.083237
    },
    {
      "originId": "https://www.data.jma.go.jp/developer/xml/data/20260320121014_0_VPWW53_200000.xml",
      "title": "気象特別警報・警報・注意報",
      "content": "【長野県気象警報・注意報】中部、南部では、２２日まで空気の乾燥した状態が続くため、火の取り扱いに注意してください。",
      "observedAt": "2026-03-20T12:10:13.000Z",
      "placeCountry": "日本",
      "placePref": "長野県",
      "placeCity": null,
      "latitude": 36.1143945,
      "longitude": 138.0319015
    },
    {
      "originId": "https://www.data.jma.go.jp/developer/xml/data/20260320114605_0_VPWW53_070000.xml",
      "title": "気象特別警報・警報・注意報",
      "content": "【福島県気象警報・注意報】中通り、浜通りでは強風と、空気の乾燥した状態が続くため火の取り扱いに、会津では落雷に、中通り、会津ではなだれに、福島県では霜に対する農作物の管理に注意してください。",
      "observedAt": "2026-03-20T11:46:04.000Z",
      "placeCountry": "日本",
      "placePref": "福島県",
      "placeCity": null,
      "latitude": 37.3662591,
      "longitude": 140.2511854
    },
    {
      "originId": "https://www.data.jma.go.jp/developer/xml/data/20260320113444_0_VPWW53_170000.xml",
      "title": "気象特別警報・警報・注意報",
      "content": "【石川県気象警報・注意報】能登では、強風に注意してください。石川県では、高波や霜に対する農作物の管理に注意してください。加賀では、なだれに注意してください。",
      "observedAt": "2026-03-20T11:34:44.000Z",
      "placeCountry": "日本",
      "placePref": "石川県",
      "placeCity": null,
      "latitude": 36.9888678,
      "longitude": 136.8163563
    },
    {
      "originId": "https://www.data.jma.go.jp/developer/xml/data/20260320111813_0_VPWW53_390000.xml",
      "title": "気象特別警報・警報・注意報",
      "content": "【高知県気象警報・注意報】中部、西部では、２１日まで空気の乾燥した状態が続くため、火の取り扱いに注意してください。高知県では、２１日朝は霜に対する農作物の管理に注意してください。",
      "observedAt": "2026-03-20T11:18:12.000Z",
      "placeCountry": "日本",
      "placePref": "高知県",
      "placeCity": null,
      "latitude": 33.6569018,
      "longitude": 133.5606241
    },
    {
      "originId": "https://www.data.jma.go.jp/developer/xml/data/20260320095709_0_VPWW53_060000.xml",
      "title": "気象特別警報・警報・注意報",
      "content": "【山形県気象警報・注意報】庄内では風雪や高波に、山形県では竜巻などの激しい突風や落雷、なだれ、霜に対する農作物の管理に、村山、庄内では空気の乾燥した状態が続くため、火の取り扱いに注意してください。",
      "observedAt": "2026-03-20T09:57:09.000Z",
      "placeCountry": "日本",
      "placePref": "山形県",
      "placeCity": null,
      "latitude": 38.4746705,
      "longitude": 140.083237
    },
    {
      "originId": "https://www.data.jma.go.jp/developer/xml/data/20260320091549_0_VPWW53_050000.xml",
      "title": "気象特別警報・警報・注意報",
      "content": "【秋田県気象警報・注意報】秋田県の海上では、２０日夜遅くから２１日未明まで暴風雪に警戒してください。",
      "observedAt": "2026-03-20T09:15:49.000Z",
      "placeCountry": "日本",
      "placePref": "秋田県",
      "placeCity": null,
      "latitude": 39.6898802,
      "longitude": 140.342608
    },
    {
      "originId": "https://www.data.jma.go.jp/developer/xml/data/20260320072147_0_VPWW53_020000.xml",
      "title": "気象特別警報・警報・注意報",
      "content": "【青森県気象警報・注意報】青森県では、風雪や高波、竜巻などの激しい突風、急な強い雨、落雷、なだれに注意してください。",
      "observedAt": "2026-03-20T07:21:46.000Z",
      "placeCountry": "日本",
      "placePref": "青森県",
      "placeCity": null,
      "latitude": 40.886943,
      "longitude": 140.590121
    },
    {
      "originId": "https://www.data.jma.go.jp/developer/xml/data/20260320071824_0_VPWW53_300000.xml",
      "title": "気象特別警報・警報・注意報",
      "content": "【和歌山県気象警報・注意報】和歌山県では、２２日まで空気の乾燥した状態が続くため、火の取り扱いに、２１日朝は霜に対する農作物の管理に注意してください。",
      "observedAt": "2026-03-20T07:18:24.000Z",
      "placeCountry": "日本",
      "placePref": "和歌山県",
      "placeCity": null,
      "latitude": 33.8070292,
      "longitude": 135.5930743
    },
    {
      "originId": "https://www.data.jma.go.jp/developer/xml/data/20260320071442_0_VPWW53_030000.xml",
      "title": "気象特別警報・警報・注意報",
      "content": "【岩手県気象警報・注意報】岩手県では、２０日夜のはじめ頃から２１日夕方まで風雪に注意してください。内陸では、２０日夜のはじめ頃から２１日明け方まで急な強い雨や落雷に注意してください。",
      "observedAt": "2026-03-20T07:14:41.000Z",
      "placeCountry": "日本",
      "placePref": "岩手県",
      "placeCity": null,
      "latitude": 39.5713763,
      "longitude": 141.4253574
    },
    {
      "originId": "https://www.data.jma.go.jp/developer/xml/data/20260320071406_0_VPWW53_150000.xml",
      "title": "気象特別警報・警報・注意報",
      "content": "【新潟県気象警報・注意報】新潟県では、強風や高波、竜巻などの激しい突風、急な強い雨、落雷に注意してください。下越、中越、上越では、なだれに注意してください。",
      "observedAt": "2026-03-20T07:14:05.000Z",
      "placeCountry": "日本",
      "placePref": "新潟県",
      "placeCity": null,
      "latitude": 37.6452283,
      "longitude": 138.7669125
    },
    {
      "originId": "https://www.data.jma.go.jp/developer/xml/data/20260320071136_0_VPWW53_160000.xml",
      "title": "気象特別警報・警報・注意報",
      "content": "【富山県気象警報・注意報】東部では、２０日夜遅くまで強風に、２０日夜遅くから２１日昼前まで高波に注意してください。富山県では、２０日夜遅くまで急な強い雨や落雷に、２２日までなだれに注意してください。",
      "observedAt": "2026-03-20T07:11:36.000Z",
      "placeCountry": "日本",
      "placePref": "富山県",
      "placeCity": null,
      "latitude": 36.6468015,
      "longitude": 137.2183531
    },
    {
      "originId": "https://www.data.jma.go.jp/developer/xml/data/20260320070610_0_VPWW53_130000.xml",
      "title": "気象特別警報・警報・注意報",
      "content": "【東京都気象警報・注意報】東京地方、伊豆諸島北部、伊豆諸島南部では、強風や高波に注意してください。東京地方では、霜に対する農作物の管理に注意してください。",
      "observedAt": "2026-03-20T07:06:09.000Z",
      "placeCountry": "日本",
      "placePref": "東京都",
      "placeCity": null,
      "latitude": 35.6828387,
      "longitude": 139.7594549
    },
    {
      "originId": "https://www.data.jma.go.jp/developer/xml/data/20260320070547_0_VPWW53_140000.xml",
      "title": "気象特別警報・警報・注意報",
      "content": "【神奈川県気象警報・注意報】東部では、２１日未明から２１日朝まで強風に注意してください。神奈川県では、２１日朝は霜に対する農作物の管理に注意してください。",
      "observedAt": "2026-03-20T07:05:46.000Z",
      "placeCountry": "日本",
      "placePref": "神奈川県",
      "placeCity": null,
      "latitude": 35.4342935,
      "longitude": 139.374753
    },
    {
      "originId": "https://www.data.jma.go.jp/developer/xml/data/20260320070519_0_VPWW53_340000.xml",
      "title": "気象特別警報・警報・注意報",
      "content": "【広島県気象警報・注意報】南部では、２２日まで空気の乾燥した状態が続くため、火の取り扱いに注意してください。広島県では、２１日朝は霜に対する農作物の管理に注意してください。",
      "observedAt": "2026-03-20T07:05:18.000Z",
      "placeCountry": "日本",
      "placePref": "広島県",
      "placeCity": null,
      "latitude": 34.5666725,
      "longitude": 132.753565
    },
    {
      "originId": "https://www.data.jma.go.jp/developer/xml/data/20260320070508_0_VPWW53_080000.xml",
      "title": "気象特別警報・警報・注意報",
      "content": "【茨城県気象警報・注意報】茨城県では、２１日未明から２１日朝まで強風や高波に注意してください。",
      "observedAt": "2026-03-20T07:05:07.000Z",
      "placeCountry": "日本",
      "placePref": "茨城県",
      "placeCity": null,
      "latitude": 36.2869536,
      "longitude": 140.4703384
    },
    {
      "originId": "https://www.data.jma.go.jp/developer/xml/data/20260320070313_0_VPWW53_070000.xml",
      "title": "気象特別警報・警報・注意報",
      "content": "【福島県気象警報・注意報】中通り、浜通りでは強風と、空気の乾燥した状態が続くため火の取り扱いに、中通り、会津ではなだれに、福島県では霜に対する農作物の管理に注意してください。",
      "observedAt": "2026-03-20T07:03:11.000Z",
      "placeCountry": "日本",
      "placePref": "福島県",
      "placeCity": null,
      "latitude": 37.3662591,
      "longitude": 140.2511854
    },
    {
      "originId": "https://www.data.jma.go.jp/developer/xml/data/20260320065437_0_VPWW53_180000.xml",
      "title": "気象特別警報・警報・注意報",
      "content": "【福井県気象警報・注意報】嶺南では、２０日夜のはじめ頃から２０日夜遅くまで強風に注意してください。福井県では、２１日朝は霜に対する農作物の管理に注意してください。",
      "observedAt": "2026-03-20T06:54:36.000Z",
      "placeCountry": "日本",
      "placePref": "福井県",
      "placeCity": null,
      "latitude": 35.9263502,
      "longitude": 136.6068127
    },
    {
      "originId": "https://www.data.jma.go.jp/developer/xml/data/20260320065117_0_VPWW53_170000.xml",
      "title": "気象特別警報・警報・注意報",
      "content": "【石川県気象警報・注意報】能登では、強風や急な強い雨、落雷に注意してください。石川県では、高波や霜に対する農作物の管理に注意してください。加賀では、なだれに注意してください。",
      "observedAt": "2026-03-20T06:51:16.000Z",
      "placeCountry": "日本",
      "placePref": "石川県",
      "placeCity": null,
      "latitude": 36.9888678,
      "longitude": 136.8163563
    },
    {
      "originId": "https://www.data.jma.go.jp/developer/xml/data/20260320064630_0_VPWW53_050000.xml",
      "title": "気象特別警報・警報・注意報",
      "content": "【秋田県気象警報・注意報】秋田県では、強風や高波、竜巻などの激しい突風、落雷、なだれ、霜に対する農作物の管理に注意してください。",
      "observedAt": "2026-03-20T06:46:29.000Z",
      "placeCountry": "日本",
      "placePref": "秋田県",
      "placeCity": null,
      "latitude": 39.6898802,
      "longitude": 140.342608
    },
    {
      "originId": "https://www.data.jma.go.jp/developer/xml/data/20260320064337_0_VPWW53_060000.xml",
      "title": "気象特別警報・警報・注意報",
      "content": "【山形県気象警報・注意報】庄内では強風や高波に、山形県では竜巻などの激しい突風や落雷、なだれ、霜に対する農作物の管理に、村山、庄内では空気の乾燥した状態が続くため、火の取り扱いに注意してください。",
      "observedAt": "2026-03-20T06:43:36.000Z",
      "placeCountry": "日本",
      "placePref": "山形県",
      "placeCity": null,
      "latitude": 38.4746705,
      "longitude": 140.083237
    },
    {
      "originId": "https://www.data.jma.go.jp/developer/xml/data/20260320064211_0_VPWW53_040000.xml",
      "title": "気象特別警報・警報・注意報",
      "content": "【宮城県気象警報・注意報】宮城県では、強風や乾燥、霜に対する農作物の管理に注意してください。西部では、なだれに注意してください。",
      "observedAt": "2026-03-20T06:42:10.000Z",
      "placeCountry": "日本",
      "placePref": "宮城県",
      "placeCity": null,
      "latitude": 38.3880155,
      "longitude": 140.9761025
    },
    {
      "originId": "https://www.data.jma.go.jp/developer/xml/data/20260320064015_0_VPWW53_120000.xml",
      "title": "気象特別警報・警報・注意報",
      "content": "【千葉県気象警報・注意報】千葉県では、２１日未明から２１日朝まで強風や高波に、２１日朝は霜に対する農作物の管理に注意してください。",
      "observedAt": "2026-03-20T06:40:14.000Z",
      "placeCountry": "日本",
      "placePref": "千葉県",
      "placeCity": null,
      "latitude": 35.549399,
      "longitude": 140.2647303
    },
    {
      "originId": "https://www.data.jma.go.jp/developer/xml/data/20260320063111_0_VPWW53_310000.xml",
      "title": "気象特別警報・警報・注意報",
      "content": "【鳥取県気象警報・注意報】鳥取県では、２２日までなだれに注意してください。",
      "observedAt": "2026-03-20T06:31:11.000Z",
      "placeCountry": "日本",
      "placePref": "鳥取県",
      "placeCity": null,
      "latitude": 35.3555075,
      "longitude": 133.8678525
    },
    {
      "originId": "https://www.data.jma.go.jp/developer/xml/data/20260320063105_0_VPWW53_430000.xml",
      "title": "気象特別警報・警報・注意報",
      "content": "【熊本県気象警報・注意報】天草・芦北地方では、強風に注意してください。熊本、天草・芦北地方では、高潮に注意してください。熊本県では、乾燥や霜に対する農作物の管理に注意してください。",
      "observedAt": "2026-03-20T06:31:04.000Z",
      "placeCountry": "日本",
      "placePref": "熊本県",
      "placeCity": null,
      "latitude": 32.6450475,
      "longitude": 130.6341345
    },
    {
      "originId": "https://www.data.jma.go.jp/developer/xml/data/20260320061505_0_VPWW53_260000.xml",
      "title": "気象特別警報・警報・注意報",
      "content": "【京都府気象警報・注意報】北部では、強風に注意してください。南部では、空気の乾燥した状態が続くため、火の取り扱いに注意してください。京都府では、霜に対する農作物の管理に注意してください。",
      "observedAt": "2026-03-20T06:15:04.000Z",
      "placeCountry": "日本",
      "placePref": "京都府",
      "placeCity": null,
      "latitude": 35.242552,
      "longitude": 135.454601
    },
    {
      "originId": "https://www.data.jma.go.jp/developer/xml/data/20260320060514_0_VPWW53_090000.xml",
      "title": "気象特別警報・警報・注意報",
      "content": "【栃木県気象警報・注意報】北部では、２０日夜遅くから２１日明け方まで強風に注意してください。栃木県では、２１日朝は霜に対する農作物の管理に注意してください。",
      "observedAt": "2026-03-20T06:05:13.000Z",
      "placeCountry": "日本",
      "placePref": "栃木県",
      "placeCity": null,
      "latitude": 36.6782167,
      "longitude": 139.8096549
    },
    {
      "originId": "https://www.data.jma.go.jp/developer/xml/data/20260320060452_0_VPWW53_190000.xml",
      "title": "気象特別警報・警報・注意報",
      "content": "【山梨県気象警報・注意報】山梨県では、２１日朝は霜に対する農作物の管理に注意してください。",
      "observedAt": "2026-03-20T06:04:51.000Z",
      "placeCountry": "日本",
      "placePref": "山梨県",
      "placeCity": null,
      "latitude": 35.6399328,
      "longitude": 138.6380495
    },
    {
      "originId": "https://www.data.jma.go.jp/developer/xml/data/20260320054631_0_VPWW53_230000.xml",
      "title": "気象特別警報・警報・注意報",
      "content": "【愛知県気象警報・注意報】東部では、強風に注意してください。愛知県では、乾燥や霜に対する農作物の管理に注意してください。",
      "observedAt": "2026-03-20T05:46:29.000Z",
      "placeCountry": "日本",
      "placePref": "愛知県",
      "placeCity": null,
      "latitude": 34.9991645,
      "longitude": 137.254574
    },
    {
      "originId": "https://www.data.jma.go.jp/developer/xml/data/20260320054342_0_VPWW53_300000.xml",
      "title": "気象特別警報・警報・注意報",
      "content": "【和歌山県気象警報・注意報】南部では、２０日夕方まで強風に注意してください。和歌山県では、２２日まで空気の乾燥した状態が続くため、火の取り扱いに、２１日朝は霜に対する農作物の管理に注意してください。",
      "observedAt": "2026-03-20T05:43:41.000Z",
      "placeCountry": "日本",
      "placePref": "和歌山県",
      "placeCity": null,
      "latitude": 33.8070292,
      "longitude": 135.5930743
    },
    {
      "originId": "https://www.data.jma.go.jp/developer/xml/data/20260320054215_0_VPWW53_140000.xml",
      "title": "気象特別警報・警報・注意報",
      "content": "【神奈川県気象警報・注意報】神奈川県では、２１日朝は霜に対する農作物の管理に注意してください。",
      "observedAt": "2026-03-20T05:42:14.000Z",
      "placeCountry": "日本",
      "placePref": "神奈川県",
      "placeCity": null,
      "latitude": 35.4342935,
      "longitude": 139.374753
    },
    {
      "originId": "https://www.data.jma.go.jp/developer/xml/data/20260320053532_0_VPWW53_220000.xml",
      "title": "気象特別警報・警報・注意報",
      "content": "【静岡県気象警報・注意報】中部、伊豆、西部では、２０日夜のはじめ頃から２１日明け方まで強風に注意してください。静岡県では、２１日朝は霜に対する農作物の管理に注意してください。",
      "observedAt": "2026-03-20T05:35:31.000Z",
      "placeCountry": "日本",
      "placePref": "静岡県",
      "placeCity": null,
      "latitude": 34.9332488,
      "longitude": 138.0955398
    },
    {
      "originId": "https://www.data.jma.go.jp/developer/xml/data/20260320053449_0_VPWW53_240000.xml",
      "title": "気象特別警報・警報・注意報",
      "content": "【三重県気象警報・注意報】南部では、強風に注意してください。三重県では、乾燥や霜に対する農作物の管理に注意してください。",
      "observedAt": "2026-03-20T05:34:49.000Z",
      "placeCountry": "日本",
      "placePref": "三重県",
      "placeCity": null,
      "latitude": 34.7339685,
      "longitude": 136.5154489
    },
    {
      "originId": "https://www.data.jma.go.jp/developer/xml/data/20260320053231_0_VPWW53_210000.xml",
      "title": "気象特別警報・警報・注意報",
      "content": "【岐阜県気象警報・注意報】美濃地方では、２２日まで空気の乾燥した状態が続くため、火の取り扱いに注意してください。岐阜県では、２１日朝は霜に対する農作物の管理に注意してください。",
      "observedAt": "2026-03-20T05:32:30.000Z",
      "placeCountry": "日本",
      "placePref": "岐阜県",
      "placeCity": null,
      "latitude": 35.7867449,
      "longitude": 137.0460777
    },
    {
      "originId": "https://www.data.jma.go.jp/developer/xml/data/20260320053229_0_VPWW53_130000.xml",
      "title": "気象特別警報・警報・注意報",
      "content": "【東京都気象警報・注意報】伊豆諸島北部、伊豆諸島南部では、強風や高波に注意してください。東京地方では、霜に対する農作物の管理に注意してください。",
      "observedAt": "2026-03-20T05:32:28.000Z",
      "placeCountry": "日本",
      "placePref": "東京都",
      "placeCity": null,
      "latitude": 35.6828387,
      "longitude": 139.7594549
    },
    {
      "originId": "https://www.data.jma.go.jp/developer/xml/data/20260320053143_0_VPWW53_180000.xml",
      "title": "気象特別警報・警報・注意報",
      "content": "【福井県気象警報・注意報】福井県では、２１日朝は霜に対する農作物の管理に注意してください。",
      "observedAt": "2026-03-20T05:31:42.000Z",
      "placeCountry": "日本",
      "placePref": "福井県",
      "placeCity": null,
      "latitude": 35.9263502,
      "longitude": 136.6068127
    },
    {
      "originId": "https://www.data.jma.go.jp/developer/xml/data/20260320052807_0_VPWW53_170000.xml",
      "title": "気象特別警報・警報・注意報",
      "content": "【石川県気象警報・注意報】能登では、強風や高波、急な強い雨、落雷に注意してください。加賀では、なだれに注意してください。",
      "observedAt": "2026-03-20T05:28:07.000Z",
      "placeCountry": "日本",
      "placePref": "石川県",
      "placeCity": null,
      "latitude": 36.9888678,
      "longitude": 136.8163563
    },
    {
      "originId": "https://www.data.jma.go.jp/developer/xml/data/20260320052706_0_VPWW53_350000.xml",
      "title": "気象特別警報・警報・注意報",
      "content": "【山口県気象警報・注意報】西部、北部では、２０日夜のはじめ頃から２１日明け方まで強風に注意してください。山口県では、２１日朝は霜に対する農作物の管理に注意してください。",
      "observedAt": "2026-03-20T05:27:05.000Z",
      "placeCountry": "日本",
      "placePref": "山口県",
      "placeCity": null,
      "latitude": 34.2379614,
      "longitude": 131.5873845
    },
    {
      "originId": "https://www.data.jma.go.jp/developer/xml/data/20260320051941_0_VPWW53_440000.xml",
      "title": "気象特別警報・警報・注意報",
      "content": "【大分県気象警報・注意報】南部では、強風に注意してください。大分県では、乾燥や霜に対する農作物の管理に注意してください。",
      "observedAt": "2026-03-20T05:19:40.000Z",
      "placeCountry": "日本",
      "placePref": "大分県",
      "placeCity": null,
      "latitude": 33.1819875,
      "longitude": 131.4270217
    }
  ]
}