{
  "generatedAt": "2025-09-14T00:33:31.233Z",
  "timeZone": "Asia/Tokyo",
  "hourPath": "2025/09/14/09",
  "source": "http://www.data.jma.go.jp/developer/xml/feed/extra.xml",
  "totalItems": 101,
  "items": [
    {
      "originId": "https://www.data.jma.go.jp/developer/xml/data/20250913232917_0_VPWW53_410000.xml",
      "title": "気象特別警報・警報・注意報",
      "content": "【佐賀県気象警報・注意報】佐賀県では、土砂災害や低い土地の浸水、竜巻などの激しい突風、落雷に注意してください。",
      "observedAt": "2025-09-13T23:29:16.000Z",
      "placeCountry": "日本",
      "placePref": "佐賀県",
      "placeCity": null,
      "latitude": 33.2185408,
      "longitude": 130.1296585
    },
    {
      "originId": "https://www.data.jma.go.jp/developer/xml/data/20250913231630_0_VPWW53_170000.xml",
      "title": "気象特別警報・警報・注意報",
      "content": "【石川県気象警報・注意報】能登では、１４日昼前まで土砂災害に警戒してください。",
      "observedAt": "2025-09-13T23:16:30.000Z",
      "placeCountry": "日本",
      "placePref": "石川県",
      "placeCity": null,
      "latitude": 36.9888678,
      "longitude": 136.8163563
    },
    {
      "originId": "https://www.data.jma.go.jp/developer/xml/data/20250913231544_0_VPWW53_420000.xml",
      "title": "気象特別警報・警報・注意報",
      "content": "【長崎県気象警報・注意報】南部、北部では、１４日昼前まで土砂災害に警戒してください。",
      "observedAt": "2025-09-13T23:15:43.000Z",
      "placeCountry": "日本",
      "placePref": "長崎県",
      "placeCity": null,
      "latitude": 33.1154683,
      "longitude": 129.7874339
    },
    {
      "originId": "https://www.data.jma.go.jp/developer/xml/data/20250913231531_0_VPWW53_400000.xml",
      "title": "気象特別警報・警報・注意報",
      "content": "【福岡県気象警報・注意報】福岡地方では、土砂災害に注意してください。福岡県では、竜巻などの激しい突風や落雷に注意してください。",
      "observedAt": "2025-09-13T23:15:30.000Z",
      "placeCountry": "日本",
      "placePref": "福岡県",
      "placeCity": null,
      "latitude": 33.6251241,
      "longitude": 130.6180016
    },
    {
      "originId": "https://www.data.jma.go.jp/developer/xml/data/20250913231014_0_VPWW53_320000.xml",
      "title": "気象特別警報・警報・注意報",
      "content": "【島根県気象警報・注意報】東部、西部では、１４日昼前まで土砂災害に警戒してください。東部では、１４日昼前まで河川の増水に警戒してください。",
      "observedAt": "2025-09-13T23:10:13.000Z",
      "placeCountry": "日本",
      "placePref": "島根県",
      "placeCity": null,
      "latitude": 34.9418212,
      "longitude": 132.537439
    },
    {
      "originId": "https://www.data.jma.go.jp/developer/xml/data/20250913225930_0_VPWW53_200000.xml",
      "title": "気象特別警報・警報・注意報",
      "content": "【長野県気象警報・注意報】北部では、１４日昼前まで土砂災害や低い土地の浸水、河川の増水に注意してください。長野県では、１４日夕方まで落雷に注意してください。",
      "observedAt": "2025-09-13T22:59:30.000Z",
      "placeCountry": "日本",
      "placePref": "長野県",
      "placeCity": null,
      "latitude": 36.1143945,
      "longitude": 138.0319015
    },
    {
      "originId": "https://www.data.jma.go.jp/developer/xml/data/20250913225809_0_VPWW53_150000.xml",
      "title": "気象特別警報・警報・注意報",
      "content": "【新潟県気象警報・注意報】中越、上越では土砂災害に、下越、上越では河川の増水に、下越、佐渡では高波に、下越、中越、上越では竜巻などの激しい突風や落雷に注意してください。",
      "observedAt": "2025-09-13T22:58:08.000Z",
      "placeCountry": "日本",
      "placePref": "新潟県",
      "placeCity": null,
      "latitude": 37.6452283,
      "longitude": 138.7669125
    },
    {
      "originId": "https://www.data.jma.go.jp/developer/xml/data/20250913225216_0_VPWW53_070000.xml",
      "title": "気象特別警報・警報・注意報",
      "content": "【福島県気象警報・注意報】福島県では、１４日夕方まで急な強い雨や落雷に注意してください。",
      "observedAt": "2025-09-13T22:52:15.000Z",
      "placeCountry": "日本",
      "placePref": "福島県",
      "placeCity": null,
      "latitude": 37.3662591,
      "longitude": 140.2511854
    },
    {
      "originId": "https://www.data.jma.go.jp/developer/xml/data/20250913225150_0_VPWW53_160000.xml",
      "title": "気象特別警報・警報・注意報",
      "content": "【富山県気象警報・注意報】富山県では、１４日夕方まで土砂災害に警戒してください。",
      "observedAt": "2025-09-13T22:51:49.000Z",
      "placeCountry": "日本",
      "placePref": "富山県",
      "placeCity": null,
      "latitude": 36.6468015,
      "longitude": 137.2183531
    },
    {
      "originId": "https://www.data.jma.go.jp/developer/xml/data/20250913224510_0_VPWW53_240000.xml",
      "title": "気象特別警報・警報・注意報",
      "content": "【三重県気象警報・注意報】三重県では、１４日昼過ぎから１４日夜遅くまで急な強い雨や落雷に注意してください。",
      "observedAt": "2025-09-13T22:45:10.000Z",
      "placeCountry": "日本",
      "placePref": "三重県",
      "placeCity": null,
      "latitude": 34.7339685,
      "longitude": 136.5154489
    },
    {
      "originId": "https://www.data.jma.go.jp/developer/xml/data/20250913224143_0_VPWW53_060000.xml",
      "title": "気象特別警報・警報・注意報",
      "content": "【山形県気象警報・注意報】庄内では、１４日昼前まで高波に注意してください。",
      "observedAt": "2025-09-13T22:41:43.000Z",
      "placeCountry": "日本",
      "placePref": "山形県",
      "placeCity": null,
      "latitude": 38.4746705,
      "longitude": 140.083237
    },
    {
      "originId": "https://www.data.jma.go.jp/developer/xml/data/20250913222534_0_VPWW53_380000.xml",
      "title": "気象特別警報・警報・注意報",
      "content": "【愛媛県気象警報・注意報】愛媛県では、１４日昼過ぎから１４日夜遅くまで急な強い雨や落雷に注意してください。",
      "observedAt": "2025-09-13T22:25:34.000Z",
      "placeCountry": "日本",
      "placePref": "愛媛県",
      "placeCity": null,
      "latitude": 33.6013646,
      "longitude": 132.8185275
    },
    {
      "originId": "https://www.data.jma.go.jp/developer/xml/data/20250913222528_0_VPWW53_370000.xml",
      "title": "気象特別警報・警報・注意報",
      "content": "【香川県気象警報・注意報】香川県では、１４日昼過ぎから１４日夜遅くまで急な強い雨や落雷に注意してください。",
      "observedAt": "2025-09-13T22:25:28.000Z",
      "placeCountry": "日本",
      "placePref": "香川県",
      "placeCity": null,
      "latitude": 34.2480104,
      "longitude": 134.0586579
    },
    {
      "originId": "https://www.data.jma.go.jp/developer/xml/data/20250913222516_0_VPWW53_360000.xml",
      "title": "気象特別警報・警報・注意報",
      "content": "【徳島県気象警報・注意報】徳島県では、１４日昼過ぎから１４日夜のはじめ頃まで急な強い雨や落雷に注意してください。",
      "observedAt": "2025-09-13T22:25:15.000Z",
      "placeCountry": "日本",
      "placePref": "徳島県",
      "placeCity": null,
      "latitude": 33.9196418,
      "longitude": 134.2509634
    },
    {
      "originId": "https://www.data.jma.go.jp/developer/xml/data/20250913222512_0_VPWW53_390000.xml",
      "title": "気象特別警報・警報・注意報",
      "content": "【高知県気象警報・注意報】高知県では、１４日昼過ぎから１４日夜のはじめ頃まで急な強い雨や落雷に注意してください。",
      "observedAt": "2025-09-13T22:25:12.000Z",
      "placeCountry": "日本",
      "placePref": "高知県",
      "placeCity": null,
      "latitude": 33.6569018,
      "longitude": 133.5606241
    },
    {
      "originId": "https://www.data.jma.go.jp/developer/xml/data/20250913222412_0_VPWW53_340000.xml",
      "title": "気象特別警報・警報・注意報",
      "content": "【広島県気象警報・注意報】北部では、河川の増水に注意してください。広島県では、竜巻などの激しい突風や落雷に注意してください。",
      "observedAt": "2025-09-13T22:24:11.000Z",
      "placeCountry": "日本",
      "placePref": "広島県",
      "placeCity": null,
      "latitude": 34.5666725,
      "longitude": 132.753565
    },
    {
      "originId": "https://www.data.jma.go.jp/developer/xml/data/20250913222228_0_VPWW53_410000.xml",
      "title": "気象特別警報・警報・注意報",
      "content": "【佐賀県気象警報・注意報】佐賀県では、土砂災害や竜巻などの激しい突風、落雷に注意してください。南部では、低い土地の浸水に注意してください。",
      "observedAt": "2025-09-13T22:22:27.000Z",
      "placeCountry": "日本",
      "placePref": "佐賀県",
      "placeCity": null,
      "latitude": 33.2185408,
      "longitude": 130.1296585
    },
    {
      "originId": "https://www.data.jma.go.jp/developer/xml/data/20250913221646_0_VPWW53_310000.xml",
      "title": "気象特別警報・警報・注意報",
      "content": "【鳥取県気象警報・注意報】中・西部では、１４日昼前まで土砂災害や低い土地の浸水、河川の増水に警戒してください。",
      "observedAt": "2025-09-13T22:16:46.000Z",
      "placeCountry": "日本",
      "placePref": "鳥取県",
      "placeCity": null,
      "latitude": 35.3555075,
      "longitude": 133.8678525
    },
    {
      "originId": "https://www.data.jma.go.jp/developer/xml/data/20250913221510_0_VPWW53_420000.xml",
      "title": "気象特別警報・警報・注意報",
      "content": "【長崎県気象警報・注意報】南部、北部では、１４日昼前まで土砂災害に警戒してください。",
      "observedAt": "2025-09-13T22:15:09.000Z",
      "placeCountry": "日本",
      "placePref": "長崎県",
      "placeCity": null,
      "latitude": 33.1154683,
      "longitude": 129.7874339
    },
    {
      "originId": "https://www.data.jma.go.jp/developer/xml/data/20250913220521_0_VPWW53_310000.xml",
      "title": "気象特別警報・警報・注意報",
      "content": "【鳥取県気象警報・注意報】中・西部では、１４日昼前まで土砂災害や低い土地の浸水、河川の増水に警戒してください。",
      "observedAt": "2025-09-13T22:05:20.000Z",
      "placeCountry": "日本",
      "placePref": "鳥取県",
      "placeCity": null,
      "latitude": 35.3555075,
      "longitude": 133.8678525
    },
    {
      "originId": "https://www.data.jma.go.jp/developer/xml/data/20250913215634_0_VPWW53_350000.xml",
      "title": "気象特別警報・警報・注意報",
      "content": "【山口県気象警報・注意報】山口県では、土砂災害や竜巻などの激しい突風、落雷に注意してください。西部、中部、北部では、低い土地の浸水に注意してください。中部、北部では、河川の増水に注意してください。",
      "observedAt": "2025-09-13T21:56:33.000Z",
      "placeCountry": "日本",
      "placePref": "山口県",
      "placeCity": null,
      "latitude": 34.2379614,
      "longitude": 131.5873845
    },
    {
      "originId": "https://www.data.jma.go.jp/developer/xml/data/20250913213512_0_VPWW53_310000.xml",
      "title": "気象特別警報・警報・注意報",
      "content": "【鳥取県気象警報・注意報】中・西部では、１４日昼前まで土砂災害や低い土地の浸水、河川の増水に警戒してください。",
      "observedAt": "2025-09-13T21:35:11.000Z",
      "placeCountry": "日本",
      "placePref": "鳥取県",
      "placeCity": null,
      "latitude": 35.3555075,
      "longitude": 133.8678525
    },
    {
      "originId": "https://www.data.jma.go.jp/developer/xml/data/20250913213416_0_VPWW53_150000.xml",
      "title": "気象特別警報・警報・注意報",
      "content": "【新潟県気象警報・注意報】下越、中越、上越では、土砂災害や低い土地の浸水、河川の増水に注意してください。下越、佐渡では、高波に注意してください。新潟県では、竜巻などの激しい突風や落雷に注意してください。",
      "observedAt": "2025-09-13T21:34:15.000Z",
      "placeCountry": "日本",
      "placePref": "新潟県",
      "placeCity": null,
      "latitude": 37.6452283,
      "longitude": 138.7669125
    },
    {
      "originId": "https://www.data.jma.go.jp/developer/xml/data/20250913213014_0_VPWW53_350000.xml",
      "title": "気象特別警報・警報・注意報",
      "content": "【山口県気象警報・注意報】山口県では、土砂災害や竜巻などの激しい突風、落雷に注意してください。西部、中部、北部では、低い土地の浸水に注意してください。北部では、河川の増水に注意してください。",
      "observedAt": "2025-09-13T21:30:13.000Z",
      "placeCountry": "日本",
      "placePref": "山口県",
      "placeCity": null,
      "latitude": 34.2379614,
      "longitude": 131.5873845
    },
    {
      "originId": "https://www.data.jma.go.jp/developer/xml/data/20250913212852_0_VPWW53_230000.xml",
      "title": "気象特別警報・警報・注意報",
      "content": "【愛知県気象警報・注意報】愛知県では、１４日昼過ぎから１４日夜遅くまで急な強い雨や落雷に注意してください。",
      "observedAt": "2025-09-13T21:28:51.000Z",
      "placeCountry": "日本",
      "placePref": "愛知県",
      "placeCity": null,
      "latitude": 34.9991645,
      "longitude": 137.254574
    },
    {
      "originId": "https://www.data.jma.go.jp/developer/xml/data/20250913211826_0_VPWW53_320000.xml",
      "title": "気象特別警報・警報・注意報",
      "content": "【島根県気象警報・注意報】東部、西部では、１４日昼前まで土砂災害に、１４日朝まで低い土地の浸水や河川の増水に警戒してください。",
      "observedAt": "2025-09-13T21:18:26.000Z",
      "placeCountry": "日本",
      "placePref": "島根県",
      "placeCity": null,
      "latitude": 34.9418212,
      "longitude": 132.537439
    },
    {
      "originId": "https://www.data.jma.go.jp/developer/xml/data/20250913211750_0_VPWW53_040000.xml",
      "title": "気象特別警報・警報・注意報",
      "content": "【宮城県気象警報・注意報】注意報を解除します。",
      "observedAt": "2025-09-13T21:17:49.000Z",
      "placeCountry": "日本",
      "placePref": "宮城県",
      "placeCity": null,
      "latitude": 38.3880155,
      "longitude": 140.9761025
    },
    {
      "originId": "https://www.data.jma.go.jp/developer/xml/data/20250913210919_0_VPWW53_320000.xml",
      "title": "気象特別警報・警報・注意報",
      "content": "【島根県気象警報・注意報】東部、西部では、１４日昼前まで土砂災害に、１４日朝まで低い土地の浸水に警戒してください。東部では、１４日朝まで河川の増水に警戒してください。",
      "observedAt": "2025-09-13T21:09:18.000Z",
      "placeCountry": "日本",
      "placePref": "島根県",
      "placeCity": null,
      "latitude": 34.9418212,
      "longitude": 132.537439
    },
    {
      "originId": "https://www.data.jma.go.jp/developer/xml/data/20250913205735_0_VPWW53_310000.xml",
      "title": "気象特別警報・警報・注意報",
      "content": "【鳥取県気象警報・注意報】中・西部では、１４日昼前まで土砂災害や低い土地の浸水、河川の増水に警戒してください。",
      "observedAt": "2025-09-13T20:57:34.000Z",
      "placeCountry": "日本",
      "placePref": "鳥取県",
      "placeCity": null,
      "latitude": 35.3555075,
      "longitude": 133.8678525
    },
    {
      "originId": "https://www.data.jma.go.jp/developer/xml/data/20250913205537_0_VPWW53_330000.xml",
      "title": "気象特別警報・警報・注意報",
      "content": "【岡山県気象警報・注意報】北部では、土砂災害や低い土地の浸水、河川の増水に注意してください。岡山県では、竜巻などの激しい突風や落雷に注意してください。",
      "observedAt": "2025-09-13T20:55:36.000Z",
      "placeCountry": "日本",
      "placePref": "岡山県",
      "placeCity": null,
      "latitude": 34.8581334,
      "longitude": 133.7759256
    },
    {
      "originId": "https://www.data.jma.go.jp/developer/xml/data/20250913205351_0_VPWW53_200000.xml",
      "title": "気象特別警報・警報・注意報",
      "content": "【長野県気象警報・注意報】北部では、土砂災害や低い土地の浸水、河川の増水に注意してください。長野県では、落雷に注意してください。中部では、濃霧による視程障害に注意してください。",
      "observedAt": "2025-09-13T20:53:50.000Z",
      "placeCountry": "日本",
      "placePref": "長野県",
      "placeCity": null,
      "latitude": 36.1143945,
      "longitude": 138.0319015
    },
    {
      "originId": "https://www.data.jma.go.jp/developer/xml/data/20250913205225_0_VPWW53_110000.xml",
      "title": "気象特別警報・警報・注意報",
      "content": "【埼玉県気象警報・注意報】埼玉県では、１４日昼過ぎから１４日夜遅くまで急な強い雨や落雷に注意してください。秩父地方では、１４日昼前まで濃霧による視程障害に注意してください。",
      "observedAt": "2025-09-13T20:52:24.000Z",
      "placeCountry": "日本",
      "placePref": "埼玉県",
      "placeCity": null,
      "latitude": 35.9754168,
      "longitude": 139.4160114
    },
    {
      "originId": "https://www.data.jma.go.jp/developer/xml/data/20250913205105_0_VPWW53_160000.xml",
      "title": "気象特別警報・警報・注意報",
      "content": "【富山県気象警報・注意報】富山県では、１４日夕方まで土砂災害に警戒してください。東部では、１４日朝まで低い土地の浸水や河川の増水に警戒してください。",
      "observedAt": "2025-09-13T20:51:05.000Z",
      "placeCountry": "日本",
      "placePref": "富山県",
      "placeCity": null,
      "latitude": 36.6468015,
      "longitude": 137.2183531
    },
    {
      "originId": "https://www.data.jma.go.jp/developer/xml/data/20250913204019_0_VPWW53_350000.xml",
      "title": "気象特別警報・警報・注意報",
      "content": "【山口県気象警報・注意報】山口県では、土砂災害や竜巻などの激しい突風、落雷に注意してください。西部、中部、北部では、低い土地の浸水に注意してください。",
      "observedAt": "2025-09-13T20:40:18.000Z",
      "placeCountry": "日本",
      "placePref": "山口県",
      "placeCity": null,
      "latitude": 34.2379614,
      "longitude": 131.5873845
    },
    {
      "originId": "https://www.data.jma.go.jp/developer/xml/data/20250913202919_0_VPWW53_320000.xml",
      "title": "気象特別警報・警報・注意報",
      "content": "【島根県気象警報・注意報】東部、西部では、１４日昼前まで土砂災害に警戒してください。西部では、１４日朝まで低い土地の浸水に警戒してください。東部では、１４日朝まで河川の増水に警戒してください。",
      "observedAt": "2025-09-13T20:29:18.000Z",
      "placeCountry": "日本",
      "placePref": "島根県",
      "placeCity": null,
      "latitude": 34.9418212,
      "longitude": 132.537439
    },
    {
      "originId": "https://www.data.jma.go.jp/developer/xml/data/20250913202630_0_VPWW53_330000.xml",
      "title": "気象特別警報・警報・注意報",
      "content": "【岡山県気象警報・注意報】岡山県では、竜巻などの激しい突風や急な強い雨、落雷に注意してください。",
      "observedAt": "2025-09-13T20:26:29.000Z",
      "placeCountry": "日本",
      "placePref": "岡山県",
      "placeCity": null,
      "latitude": 34.8581334,
      "longitude": 133.7759256
    },
    {
      "originId": "https://www.data.jma.go.jp/developer/xml/data/20250913202512_0_VPWW53_200000.xml",
      "title": "気象特別警報・警報・注意報",
      "content": "【長野県気象警報・注意報】北部では、土砂災害や低い土地の浸水、河川の増水に注意してください。長野県では、落雷に注意してください。中部では、濃霧による視程障害に注意してください。",
      "observedAt": "2025-09-13T20:25:11.000Z",
      "placeCountry": "日本",
      "placePref": "長野県",
      "placeCity": null,
      "latitude": 36.1143945,
      "longitude": 138.0319015
    },
    {
      "originId": "https://www.data.jma.go.jp/developer/xml/data/20250913202303_0_VPWW53_310000.xml",
      "title": "気象特別警報・警報・注意報",
      "content": "【鳥取県気象警報・注意報】中・西部では、土砂災害や低い土地の浸水、河川の増水、高潮に注意してください。鳥取県では、竜巻などの激しい突風や落雷に注意してください。",
      "observedAt": "2025-09-13T20:23:03.000Z",
      "placeCountry": "日本",
      "placePref": "鳥取県",
      "placeCity": null,
      "latitude": 35.3555075,
      "longitude": 133.8678525
    },
    {
      "originId": "https://www.data.jma.go.jp/developer/xml/data/20250913202031_0_VPWW53_400000.xml",
      "title": "気象特別警報・警報・注意報",
      "content": "【福岡県気象警報・注意報】福岡地方では、１４日朝から１４日昼前まで土砂災害に警戒してください。",
      "observedAt": "2025-09-13T20:20:30.000Z",
      "placeCountry": "日本",
      "placePref": "福岡県",
      "placeCity": null,
      "latitude": 33.6251241,
      "longitude": 130.6180016
    },
    {
      "originId": "https://www.data.jma.go.jp/developer/xml/data/20250913201721_0_VPWW53_250000.xml",
      "title": "気象特別警報・警報・注意報",
      "content": "【滋賀県気象警報・注意報】滋賀県では、１４日夜遅くまで急な強い雨や落雷に注意してください。",
      "observedAt": "2025-09-13T20:17:20.000Z",
      "placeCountry": "日本",
      "placePref": "滋賀県",
      "placeCity": null,
      "latitude": 35.247154,
      "longitude": 136.109385
    },
    {
      "originId": "https://www.data.jma.go.jp/developer/xml/data/20250913201553_0_VPWW53_170000.xml",
      "title": "気象特別警報・警報・注意報",
      "content": "【石川県気象警報・注意報】能登では、１４日夕方まで土砂災害に警戒してください。加賀では、１４日昼前まで河川の増水に警戒してください。",
      "observedAt": "2025-09-13T20:15:52.000Z",
      "placeCountry": "日本",
      "placePref": "石川県",
      "placeCity": null,
      "latitude": 36.9888678,
      "longitude": 136.8163563
    },
    {
      "originId": "https://www.data.jma.go.jp/developer/xml/data/20250913201534_0_VPWW53_320000.xml",
      "title": "気象特別警報・警報・注意報",
      "content": "【島根県気象警報・注意報】東部、西部では、１４日昼前まで土砂災害に警戒してください。西部では、１４日朝まで低い土地の浸水に警戒してください。東部では、１４日朝まで河川の増水に警戒してください。",
      "observedAt": "2025-09-13T20:15:33.000Z",
      "placeCountry": "日本",
      "placePref": "島根県",
      "placeCity": null,
      "latitude": 34.9418212,
      "longitude": 132.537439
    },
    {
      "originId": "https://www.data.jma.go.jp/developer/xml/data/20250913200927_0_VPWW53_310000.xml",
      "title": "気象特別警報・警報・注意報",
      "content": "【鳥取県気象警報・注意報】中・西部では、土砂災害や低い土地の浸水、河川の増水、高潮に注意してください。鳥取県では、竜巻などの激しい突風や落雷に注意してください。",
      "observedAt": "2025-09-13T20:09:26.000Z",
      "placeCountry": "日本",
      "placePref": "鳥取県",
      "placeCity": null,
      "latitude": 35.3555075,
      "longitude": 133.8678525
    },
    {
      "originId": "https://www.data.jma.go.jp/developer/xml/data/20250913200206_0_VPWW53_200000.xml",
      "title": "気象特別警報・警報・注意報",
      "content": "【長野県気象警報・注意報】北部では、１４日昼前まで土砂災害や河川の増水に注意してください。長野県では、１４日夕方まで落雷に注意してください。中部では、１４日昼前まで濃霧による視程障害に注意してください。",
      "observedAt": "2025-09-13T20:02:05.000Z",
      "placeCountry": "日本",
      "placePref": "長野県",
      "placeCity": null,
      "latitude": 36.1143945,
      "longitude": 138.0319015
    },
    {
      "originId": "https://www.data.jma.go.jp/developer/xml/data/20250913194851_0_VPWW53_320000.xml",
      "title": "気象特別警報・警報・注意報",
      "content": "【島根県気象警報・注意報】東部、西部では、１４日昼前まで土砂災害に警戒してください。西部では、１４日朝まで低い土地の浸水に警戒してください。東部では、１４日朝まで河川の増水に警戒してください。",
      "observedAt": "2025-09-13T19:48:51.000Z",
      "placeCountry": "日本",
      "placePref": "島根県",
      "placeCity": null,
      "latitude": 34.9418212,
      "longitude": 132.537439
    },
    {
      "originId": "https://www.data.jma.go.jp/developer/xml/data/20250913194437_0_VPWW53_160000.xml",
      "title": "気象特別警報・警報・注意報",
      "content": "【富山県気象警報・注意報】富山県では、１４日夕方まで土砂災害に警戒してください。東部では、１４日朝まで低い土地の浸水や河川の増水に警戒してください。",
      "observedAt": "2025-09-13T19:44:36.000Z",
      "placeCountry": "日本",
      "placePref": "富山県",
      "placeCity": null,
      "latitude": 36.6468015,
      "longitude": 137.2183531
    },
    {
      "originId": "https://www.data.jma.go.jp/developer/xml/data/20250913193322_0_VPWW53_460100.xml",
      "title": "気象特別警報・警報・注意報",
      "content": "【鹿児島県（奄美地方を除く）気象警報・注意報】薩摩、大隅、種子島・屋久島地方では、急な強い雨や落雷に注意してください。",
      "observedAt": "2025-09-13T19:33:22.000Z",
      "placeCountry": "日本",
      "placePref": "鹿児島県",
      "placeCity": null,
      "latitude": 31.521587,
      "longitude": 130.5474077
    },
    {
      "originId": "https://www.data.jma.go.jp/developer/xml/data/20250913193149_0_VPWW53_460040.xml",
      "title": "気象特別警報・警報・注意報",
      "content": "【奄美地方（鹿児島県）気象警報・注意報】奄美地方では、１４日夜遅くまで急な強い雨や落雷に注意してください。",
      "observedAt": "2025-09-13T19:31:48.000Z",
      "placeCountry": "日本",
      "placePref": "鹿児島県",
      "placeCity": null,
      "latitude": 31.521587,
      "longitude": 130.5474077
    },
    {
      "originId": "https://www.data.jma.go.jp/developer/xml/data/20250913192829_0_VPWW53_110000.xml",
      "title": "気象特別警報・警報・注意報",
      "content": "【埼玉県気象警報・注意報】埼玉県では、１４日昼過ぎから１４日夜遅くまで急な強い雨や落雷に注意してください。秩父地方では、１４日明け方まで濃霧による視程障害に注意してください。",
      "observedAt": "2025-09-13T19:28:28.000Z",
      "placeCountry": "日本",
      "placePref": "埼玉県",
      "placeCity": null,
      "latitude": 35.9754168,
      "longitude": 139.4160114
    },
    {
      "originId": "https://www.data.jma.go.jp/developer/xml/data/20250913192812_0_VPWW53_430000.xml",
      "title": "気象特別警報・警報・注意報",
      "content": "【熊本県気象警報・注意報】熊本県では、１４日夜遅くまで竜巻などの激しい突風や急な強い雨、落雷に注意してください。",
      "observedAt": "2025-09-13T19:28:12.000Z",
      "placeCountry": "日本",
      "placePref": "熊本県",
      "placeCity": null,
      "latitude": 32.6450475,
      "longitude": 130.6341345
    },
    {
      "originId": "https://www.data.jma.go.jp/developer/xml/data/20250913192803_0_VPWW53_450000.xml",
      "title": "気象特別警報・警報・注意報",
      "content": "【宮崎県気象警報・注意報】宮崎県では、１４日昼前から１４日夜遅くまで急な強い雨や落雷に注意してください。",
      "observedAt": "2025-09-13T19:28:03.000Z",
      "placeCountry": "日本",
      "placePref": "宮崎県",
      "placeCity": null,
      "latitude": 32.097681,
      "longitude": 131.294542
    },
    {
      "originId": "https://www.data.jma.go.jp/developer/xml/data/20250913192540_0_VPWW53_340000.xml",
      "title": "気象特別警報・警報・注意報",
      "content": "【広島県気象警報・注意報】広島県では、竜巻などの激しい突風や急な強い雨、落雷に注意してください。",
      "observedAt": "2025-09-13T19:25:40.000Z",
      "placeCountry": "日本",
      "placePref": "広島県",
      "placeCity": null,
      "latitude": 34.5666725,
      "longitude": 132.753565
    },
    {
      "originId": "https://www.data.jma.go.jp/developer/xml/data/20250913192437_0_VPWW53_170000.xml",
      "title": "気象特別警報・警報・注意報",
      "content": "【石川県気象警報・注意報】能登では、１４日夕方まで土砂災害に警戒してください。加賀では、１４日昼前まで河川の増水に警戒してください。",
      "observedAt": "2025-09-13T19:24:36.000Z",
      "placeCountry": "日本",
      "placePref": "石川県",
      "placeCity": null,
      "latitude": 36.9888678,
      "longitude": 136.8163563
    },
    {
      "originId": "https://www.data.jma.go.jp/developer/xml/data/20250913192415_0_VPWW53_020000.xml",
      "title": "気象特別警報・警報・注意報",
      "content": "【青森県気象警報・注意報】津軽では１４日昼前まで、三八上北では１４日朝から１４日夕方まで、強風に注意してください。青森県では、１４日昼過ぎまで高波に注意してください。",
      "observedAt": "2025-09-13T19:24:14.000Z",
      "placeCountry": "日本",
      "placePref": "青森県",
      "placeCity": null,
      "latitude": 40.886943,
      "longitude": 140.590121
    },
    {
      "originId": "https://www.data.jma.go.jp/developer/xml/data/20250913192346_0_VPWW53_130000.xml",
      "title": "気象特別警報・警報・注意報",
      "content": "【東京都気象警報・注意報】東京地方では、１４日昼前まで強風や高波に注意してください。伊豆諸島南部では１４日昼前まで、東京地方では１４日昼過ぎから１４日夜遅くまで、急な強い雨や落雷に注意してください。",
      "observedAt": "2025-09-13T19:23:45.000Z",
      "placeCountry": "日本",
      "placePref": "東京都",
      "placeCity": null,
      "latitude": 35.6828387,
      "longitude": 139.7594549
    },
    {
      "originId": "https://www.data.jma.go.jp/developer/xml/data/20250913192318_0_VPWW53_060000.xml",
      "title": "気象特別警報・警報・注意報",
      "content": "【山形県気象警報・注意報】山形県では、１４日昼前まで高波に、１４日朝まで竜巻などの激しい突風や急な強い雨、落雷に注意してください。",
      "observedAt": "2025-09-13T19:23:18.000Z",
      "placeCountry": "日本",
      "placePref": "山形県",
      "placeCity": null,
      "latitude": 38.4746705,
      "longitude": 140.083237
    },
    {
      "originId": "https://www.data.jma.go.jp/developer/xml/data/20250913192147_0_VPWW53_180000.xml",
      "title": "気象特別警報・警報・注意報",
      "content": "【福井県気象警報・注意報】嶺北では、１４日昼前まで土砂災害に注意してください。福井県では、１４日昼前まで低い土地の浸水や高潮、竜巻などの激しい突風、落雷に注意してください。",
      "observedAt": "2025-09-13T19:21:47.000Z",
      "placeCountry": "日本",
      "placePref": "福井県",
      "placeCity": null,
      "latitude": 35.9263502,
      "longitude": 136.6068127
    },
    {
      "originId": "https://www.data.jma.go.jp/developer/xml/data/20250913192120_0_VPWW53_050000.xml",
      "title": "気象特別警報・警報・注意報",
      "content": "【秋田県気象警報・注意報】沿岸では、１４日昼過ぎまで高波に注意してください。",
      "observedAt": "2025-09-13T19:21:20.000Z",
      "placeCountry": "日本",
      "placePref": "秋田県",
      "placeCity": null,
      "latitude": 39.6898802,
      "longitude": 140.342608
    },
    {
      "originId": "https://www.data.jma.go.jp/developer/xml/data/20250913192048_0_VPWW53_150000.xml",
      "title": "気象特別警報・警報・注意報",
      "content": "【新潟県気象警報・注意報】下越、中越、上越では土砂災害や低い土地の浸水に、中越、上越では河川の増水に、下越、佐渡では高波に、新潟県では竜巻などの激しい突風や落雷に注意してください。",
      "observedAt": "2025-09-13T19:20:47.000Z",
      "placeCountry": "日本",
      "placePref": "新潟県",
      "placeCity": null,
      "latitude": 37.6452283,
      "longitude": 138.7669125
    },
    {
      "originId": "https://www.data.jma.go.jp/developer/xml/data/20250913191822_0_VPWW53_420000.xml",
      "title": "気象特別警報・警報・注意報",
      "content": "【長崎県気象警報・注意報】南部、北部では、１４日朝から１４日昼前まで土砂災害に警戒してください。",
      "observedAt": "2025-09-13T19:18:21.000Z",
      "placeCountry": "日本",
      "placePref": "長崎県",
      "placeCity": null,
      "latitude": 33.1154683,
      "longitude": 129.7874339
    },
    {
      "originId": "https://www.data.jma.go.jp/developer/xml/data/20250913191724_0_VPWW53_220000.xml",
      "title": "気象特別警報・警報・注意報",
      "content": "【静岡県気象警報・注意報】中部、東部、西部では、１４日昼過ぎから１４日夜遅くまで急な強い雨や落雷に注意してください。",
      "observedAt": "2025-09-13T19:17:23.000Z",
      "placeCountry": "日本",
      "placePref": "静岡県",
      "placeCity": null,
      "latitude": 34.9332488,
      "longitude": 138.0955398
    },
    {
      "originId": "https://www.data.jma.go.jp/developer/xml/data/20250913191515_0_VPWW53_090000.xml",
      "title": "気象特別警報・警報・注意報",
      "content": "【栃木県気象警報・注意報】栃木県では、１４日昼過ぎから１４日夜のはじめ頃まで急な強い雨や落雷に、１４日昼前まで濃霧による視程障害に注意してください。",
      "observedAt": "2025-09-13T19:15:14.000Z",
      "placeCountry": "日本",
      "placePref": "栃木県",
      "placeCity": null,
      "latitude": 36.6782167,
      "longitude": 139.8096549
    },
    {
      "originId": "https://www.data.jma.go.jp/developer/xml/data/20250913191418_0_VPWW53_030000.xml",
      "title": "気象特別警報・警報・注意報",
      "content": "【岩手県気象警報・注意報】岩手県では、１４日夕方まで強風に注意してください。",
      "observedAt": "2025-09-13T19:14:17.000Z",
      "placeCountry": "日本",
      "placePref": "岩手県",
      "placeCity": null,
      "latitude": 39.5713763,
      "longitude": 141.4253574
    },
    {
      "originId": "https://www.data.jma.go.jp/developer/xml/data/20250913191416_0_VPWW53_100000.xml",
      "title": "気象特別警報・警報・注意報",
      "content": "【群馬県気象警報・注意報】北部では１４日夜のはじめ頃まで、南部では１４日昼過ぎから１４日夜のはじめ頃まで、急な強い雨や落雷に注意してください。群馬県では、１４日昼前まで濃霧による視程障害に注意してください。",
      "observedAt": "2025-09-13T19:14:15.000Z",
      "placeCountry": "日本",
      "placePref": "群馬県",
      "placeCity": null,
      "latitude": 36.52198,
      "longitude": 139.033483
    },
    {
      "originId": "https://www.data.jma.go.jp/developer/xml/data/20250913191408_0_VPWW53_120000.xml",
      "title": "気象特別警報・警報・注意報",
      "content": "【千葉県気象警報・注意報】北西部では１４日昼前まで、北東部、南部では１４日夕方まで、強風や高波に注意してください。千葉県では、１４日昼過ぎから１４日夜遅くまで急な強い雨や落雷に注意してください。",
      "observedAt": "2025-09-13T19:14:07.000Z",
      "placeCountry": "日本",
      "placePref": "千葉県",
      "placeCity": null,
      "latitude": 35.549399,
      "longitude": 140.2647303
    },
    {
      "originId": "https://www.data.jma.go.jp/developer/xml/data/20250913191212_0_VPWW53_240000.xml",
      "title": "気象特別警報・警報・注意報",
      "content": "【三重県気象警報・注意報】注意報を解除します。",
      "observedAt": "2025-09-13T19:12:12.000Z",
      "placeCountry": "日本",
      "placePref": "三重県",
      "placeCity": null,
      "latitude": 34.7339685,
      "longitude": 136.5154489
    },
    {
      "originId": "https://www.data.jma.go.jp/developer/xml/data/20250913191209_0_VPWW53_080000.xml",
      "title": "気象特別警報・警報・注意報",
      "content": "【茨城県気象警報・注意報】茨城県では、１４日昼過ぎから１４日夜のはじめ頃まで急な強い雨や落雷に注意してください。",
      "observedAt": "2025-09-13T19:12:09.000Z",
      "placeCountry": "日本",
      "placePref": "茨城県",
      "placeCity": null,
      "latitude": 36.2869536,
      "longitude": 140.4703384
    },
    {
      "originId": "https://www.data.jma.go.jp/developer/xml/data/20250913191047_0_VPWW53_320000.xml",
      "title": "気象特別警報・警報・注意報",
      "content": "【島根県気象警報・注意報】東部、西部では、１４日昼前まで土砂災害に警戒してください。西部では、１４日明け方まで低い土地の浸水に警戒してください。東部では、１４日朝まで河川の増水に警戒してください。",
      "observedAt": "2025-09-13T19:10:46.000Z",
      "placeCountry": "日本",
      "placePref": "島根県",
      "placeCity": null,
      "latitude": 34.9418212,
      "longitude": 132.537439
    },
    {
      "originId": "https://www.data.jma.go.jp/developer/xml/data/20250913191010_0_VPWW53_210000.xml",
      "title": "気象特別警報・警報・注意報",
      "content": "【岐阜県気象警報・注意報】岐阜県では、１４日夜遅くまで急な強い雨や落雷に注意してください。",
      "observedAt": "2025-09-13T19:10:10.000Z",
      "placeCountry": "日本",
      "placePref": "岐阜県",
      "placeCity": null,
      "latitude": 35.7867449,
      "longitude": 137.0460777
    },
    {
      "originId": "https://www.data.jma.go.jp/developer/xml/data/20250913190621_0_VPWW53_140000.xml",
      "title": "気象特別警報・警報・注意報",
      "content": "【神奈川県気象警報・注意報】神奈川県では、１４日夕方まで強風に、１４日昼過ぎから１４日夜遅くまで急な強い雨や落雷に注意してください。東部では、１４日夜のはじめ頃まで高波に注意してください。",
      "observedAt": "2025-09-13T19:06:20.000Z",
      "placeCountry": "日本",
      "placePref": "神奈川県",
      "placeCity": null,
      "latitude": 35.4342935,
      "longitude": 139.374753
    },
    {
      "originId": "https://www.data.jma.go.jp/developer/xml/data/20250913190430_0_VPWW53_200000.xml",
      "title": "気象特別警報・警報・注意報",
      "content": "【長野県気象警報・注意報】北部では、１４日昼前まで河川の増水に注意してください。長野県では、１４日夕方まで落雷に注意してください。中部では、１４日昼前まで濃霧による視程障害に注意してください。",
      "observedAt": "2025-09-13T19:04:29.000Z",
      "placeCountry": "日本",
      "placePref": "長野県",
      "placeCity": null,
      "latitude": 36.1143945,
      "longitude": 138.0319015
    },
    {
      "originId": "https://www.data.jma.go.jp/developer/xml/data/20250913190326_0_VPWW53_160000.xml",
      "title": "気象特別警報・警報・注意報",
      "content": "【富山県気象警報・注意報】富山県では、１４日夕方まで土砂災害に警戒してください。東部では、１４日朝まで低い土地の浸水や河川の増水に警戒してください。",
      "observedAt": "2025-09-13T19:03:25.000Z",
      "placeCountry": "日本",
      "placePref": "富山県",
      "placeCity": null,
      "latitude": 36.6468015,
      "longitude": 137.2183531
    },
    {
      "originId": "https://www.data.jma.go.jp/developer/xml/data/20250913185338_0_VPWW53_160000.xml",
      "title": "気象特別警報・警報・注意報",
      "content": "【富山県気象警報・注意報】富山県では、１４日夕方まで土砂災害に警戒してください。",
      "observedAt": "2025-09-13T18:53:37.000Z",
      "placeCountry": "日本",
      "placePref": "富山県",
      "placeCity": null,
      "latitude": 36.6468015,
      "longitude": 137.2183531
    },
    {
      "originId": "https://www.data.jma.go.jp/developer/xml/data/20250913185231_0_VPWW53_420000.xml",
      "title": "気象特別警報・警報・注意報",
      "content": "【長崎県気象警報・注意報】南部、北部では、１４日朝から１４日昼前まで土砂災害に警戒してください。",
      "observedAt": "2025-09-13T18:52:30.000Z",
      "placeCountry": "日本",
      "placePref": "長崎県",
      "placeCity": null,
      "latitude": 33.1154683,
      "longitude": 129.7874339
    },
    {
      "originId": "https://www.data.jma.go.jp/developer/xml/data/20250913184631_0_VPWW53_320000.xml",
      "title": "気象特別警報・警報・注意報",
      "content": "【島根県気象警報・注意報】東部、西部では、１４日昼前まで土砂災害に警戒してください。西部では、１４日明け方まで低い土地の浸水に警戒してください。東部では、１４日朝まで河川の増水に警戒してください。",
      "observedAt": "2025-09-13T18:46:30.000Z",
      "placeCountry": "日本",
      "placePref": "島根県",
      "placeCity": null,
      "latitude": 34.9418212,
      "longitude": 132.537439
    },
    {
      "originId": "https://www.data.jma.go.jp/developer/xml/data/20250913183148_0_VPWW53_410000.xml",
      "title": "気象特別警報・警報・注意報",
      "content": "【佐賀県気象警報・注意報】佐賀県では、竜巻などの激しい突風や急な強い雨、落雷に注意してください。",
      "observedAt": "2025-09-13T18:31:48.000Z",
      "placeCountry": "日本",
      "placePref": "佐賀県",
      "placeCity": null,
      "latitude": 33.2185408,
      "longitude": 130.1296585
    },
    {
      "originId": "https://www.data.jma.go.jp/developer/xml/data/20250913182444_0_VPWW53_160000.xml",
      "title": "気象特別警報・警報・注意報",
      "content": "【富山県気象警報・注意報】富山県では、１４日夕方まで土砂災害に警戒してください。",
      "observedAt": "2025-09-13T18:24:43.000Z",
      "placeCountry": "日本",
      "placePref": "富山県",
      "placeCity": null,
      "latitude": 36.6468015,
      "longitude": 137.2183531
    },
    {
      "originId": "https://www.data.jma.go.jp/developer/xml/data/20250913175610_0_VPWW53_320000.xml",
      "title": "気象特別警報・警報・注意報",
      "content": "【島根県気象警報・注意報】東部、西部では、１４日昼前まで土砂災害に、１４日明け方まで低い土地の浸水に警戒してください。東部では、１４日明け方まで河川の増水に警戒してください。",
      "observedAt": "2025-09-13T17:56:09.000Z",
      "placeCountry": "日本",
      "placePref": "島根県",
      "placeCity": null,
      "latitude": 34.9418212,
      "longitude": 132.537439
    },
    {
      "originId": "https://www.data.jma.go.jp/developer/xml/data/20250913175514_0_VPWW53_160000.xml",
      "title": "気象特別警報・警報・注意報",
      "content": "【富山県気象警報・注意報】西部では、１４日明け方から１４日夕方まで土砂災害に警戒してください。",
      "observedAt": "2025-09-13T17:55:14.000Z",
      "placeCountry": "日本",
      "placePref": "富山県",
      "placeCity": null,
      "latitude": 36.6468015,
      "longitude": 137.2183531
    },
    {
      "originId": "https://www.data.jma.go.jp/developer/xml/data/20250913175045_0_VPWW53_310000.xml",
      "title": "気象特別警報・警報・注意報",
      "content": "【鳥取県気象警報・注意報】中・西部では、低い土地の浸水や河川の増水、高潮に注意してください。鳥取県では、竜巻などの激しい突風や落雷に注意してください。",
      "observedAt": "2025-09-13T17:50:44.000Z",
      "placeCountry": "日本",
      "placePref": "鳥取県",
      "placeCity": null,
      "latitude": 35.3555075,
      "longitude": 133.8678525
    },
    {
      "originId": "https://www.data.jma.go.jp/developer/xml/data/20250913174519_0_VPWW53_150000.xml",
      "title": "気象特別警報・警報・注意報",
      "content": "【新潟県気象警報・注意報】新潟県では、土砂災害や低い土地の浸水、強風、竜巻などの激しい突風、落雷に注意してください。下越、佐渡では、高波に注意してください。",
      "observedAt": "2025-09-13T17:45:18.000Z",
      "placeCountry": "日本",
      "placePref": "新潟県",
      "placeCity": null,
      "latitude": 37.6452283,
      "longitude": 138.7669125
    },
    {
      "originId": "https://www.data.jma.go.jp/developer/xml/data/20250913174050_0_VPWW53_350000.xml",
      "title": "気象特別警報・警報・注意報",
      "content": "【山口県気象警報・注意報】山口県では、土砂災害や竜巻などの激しい突風、落雷に注意してください。西部、中部、北部では、低い土地の浸水に注意してください。西部、北部では、強風に注意してください。",
      "observedAt": "2025-09-13T17:40:49.000Z",
      "placeCountry": "日本",
      "placePref": "山口県",
      "placeCity": null,
      "latitude": 34.2379614,
      "longitude": 131.5873845
    },
    {
      "originId": "https://www.data.jma.go.jp/developer/xml/data/20250913174049_0_VPWW53_170000.xml",
      "title": "気象特別警報・警報・注意報",
      "content": "【石川県気象警報・注意報】能登では、１４日夕方まで土砂災害に、１４日昼前まで低い土地の浸水や河川の増水に警戒してください。",
      "observedAt": "2025-09-13T17:40:48.000Z",
      "placeCountry": "日本",
      "placePref": "石川県",
      "placeCity": null,
      "latitude": 36.9888678,
      "longitude": 136.8163563
    },
    {
      "originId": "https://www.data.jma.go.jp/developer/xml/data/20250913174049_0_VPWW53_400000.xml",
      "title": "気象特別警報・警報・注意報",
      "content": "【福岡県気象警報・注意報】福岡地方では、土砂災害や河川の増水に注意してください。福岡、北九州地方では、強風や高波に注意してください。福岡県では、竜巻などの激しい突風や落雷に注意してください。",
      "observedAt": "2025-09-13T17:40:48.000Z",
      "placeCountry": "日本",
      "placePref": "福岡県",
      "placeCity": null,
      "latitude": 33.6251241,
      "longitude": 130.6180016
    },
    {
      "originId": "https://www.data.jma.go.jp/developer/xml/data/20250913172833_0_VPWW53_130000.xml",
      "title": "気象特別警報・警報・注意報",
      "content": "【東京都気象警報・注意報】東京地方では、１４日昼前まで強風や高波に注意してください。伊豆諸島北部では１４日明け方まで、伊豆諸島南部では１４日昼前まで、急な強い雨や落雷に注意してください。",
      "observedAt": "2025-09-13T17:28:33.000Z",
      "placeCountry": "日本",
      "placePref": "東京都",
      "placeCity": null,
      "latitude": 35.6828387,
      "longitude": 139.7594549
    },
    {
      "originId": "https://www.data.jma.go.jp/developer/xml/data/20250913172439_0_VPWW53_320000.xml",
      "title": "気象特別警報・警報・注意報",
      "content": "【島根県気象警報・注意報】東部、西部では、１４日昼前まで土砂災害に、１４日明け方まで低い土地の浸水に警戒してください。東部では、１４日明け方まで河川の増水に警戒してください。",
      "observedAt": "2025-09-13T17:24:38.000Z",
      "placeCountry": "日本",
      "placePref": "島根県",
      "placeCity": null,
      "latitude": 34.9418212,
      "longitude": 132.537439
    },
    {
      "originId": "https://www.data.jma.go.jp/developer/xml/data/20250913171647_0_VPWW53_160000.xml",
      "title": "気象特別警報・警報・注意報",
      "content": "【富山県気象警報・注意報】富山県では、土砂災害や低い土地の浸水、高潮、竜巻などの激しい突風、落雷に注意してください。西部では、河川の増水に注意してください。",
      "observedAt": "2025-09-13T17:16:46.000Z",
      "placeCountry": "日本",
      "placePref": "富山県",
      "placeCity": null,
      "latitude": 36.6468015,
      "longitude": 137.2183531
    },
    {
      "originId": "https://www.data.jma.go.jp/developer/xml/data/20250913165456_0_VPWW53_170000.xml",
      "title": "気象特別警報・警報・注意報",
      "content": "【石川県気象警報・注意報】能登では、１４日夕方まで土砂災害に、１４日昼前まで低い土地の浸水や河川の増水に警戒してください。",
      "observedAt": "2025-09-13T16:54:56.000Z",
      "placeCountry": "日本",
      "placePref": "石川県",
      "placeCity": null,
      "latitude": 36.9888678,
      "longitude": 136.8163563
    },
    {
      "originId": "https://www.data.jma.go.jp/developer/xml/data/20250913163510_0_VPWW53_030000.xml",
      "title": "気象特別警報・警報・注意報",
      "content": "【岩手県気象警報・注意報】内陸では、１４日朝まで土砂災害に注意してください。岩手県では、１４日明け方まで強風や竜巻などの激しい突風、落雷、濃霧による視程障害に注意してください。",
      "observedAt": "2025-09-13T16:35:09.000Z",
      "placeCountry": "日本",
      "placePref": "岩手県",
      "placeCity": null,
      "latitude": 39.5713763,
      "longitude": 141.4253574
    },
    {
      "originId": "https://www.data.jma.go.jp/developer/xml/data/20250913163244_0_VPWW53_320000.xml",
      "title": "気象特別警報・警報・注意報",
      "content": "【島根県気象警報・注意報】東部、西部では、１４日昼前まで土砂災害に、１４日明け方まで低い土地の浸水に警戒してください。東部では、１４日明け方まで河川の増水に警戒してください。",
      "observedAt": "2025-09-13T16:32:44.000Z",
      "placeCountry": "日本",
      "placePref": "島根県",
      "placeCity": null,
      "latitude": 34.9418212,
      "longitude": 132.537439
    },
    {
      "originId": "https://www.data.jma.go.jp/developer/xml/data/20250913160627_0_VPWW53_170000.xml",
      "title": "気象特別警報・警報・注意報",
      "content": "【石川県気象警報・注意報】能登では、１４日夕方まで土砂災害に、１４日昼前まで低い土地の浸水や河川の増水に警戒してください。",
      "observedAt": "2025-09-13T16:06:26.000Z",
      "placeCountry": "日本",
      "placePref": "石川県",
      "placeCity": null,
      "latitude": 36.9888678,
      "longitude": 136.8163563
    },
    {
      "originId": "https://www.data.jma.go.jp/developer/xml/data/20250913155232_0_VPWW53_320000.xml",
      "title": "気象特別警報・警報・注意報",
      "content": "【島根県気象警報・注意報】東部、西部では、１４日昼前まで土砂災害に、１４日明け方まで低い土地の浸水に警戒してください。東部では、１４日明け方まで河川の増水に警戒してください。",
      "observedAt": "2025-09-13T15:52:31.000Z",
      "placeCountry": "日本",
      "placePref": "島根県",
      "placeCity": null,
      "latitude": 34.9418212,
      "longitude": 132.537439
    },
    {
      "originId": "https://www.data.jma.go.jp/developer/xml/data/20250913154206_0_VPWW53_310000.xml",
      "title": "気象特別警報・警報・注意報",
      "content": "【鳥取県気象警報・注意報】中・西部では、１４日明け方まで低い土地の浸水や河川の増水に警戒してください。",
      "observedAt": "2025-09-13T15:42:06.000Z",
      "placeCountry": "日本",
      "placePref": "鳥取県",
      "placeCity": null,
      "latitude": 35.3555075,
      "longitude": 133.8678525
    },
    {
      "originId": "https://www.data.jma.go.jp/developer/xml/data/20250913154052_0_VPWW53_060000.xml",
      "title": "気象特別警報・警報・注意報",
      "content": "【山形県気象警報・注意報】庄内では、１４日明け方まで強風や高波に注意してください。山形県では、１４日昼前まで竜巻などの激しい突風や急な強い雨、落雷に注意してください。",
      "observedAt": "2025-09-13T15:40:52.000Z",
      "placeCountry": "日本",
      "placePref": "山形県",
      "placeCity": null,
      "latitude": 38.4746705,
      "longitude": 140.083237
    },
    {
      "originId": "https://www.data.jma.go.jp/developer/xml/data/20250913152814_0_VPWW53_320000.xml",
      "title": "気象特別警報・警報・注意報",
      "content": "【島根県気象警報・注意報】東部、西部では、１４日昼前まで土砂災害に、１４日明け方まで低い土地の浸水に警戒してください。東部では、１４日明け方まで河川の増水に警戒してください。",
      "observedAt": "2025-09-13T15:28:13.000Z",
      "placeCountry": "日本",
      "placePref": "島根県",
      "placeCity": null,
      "latitude": 34.9418212,
      "longitude": 132.537439
    },
    {
      "originId": "https://www.data.jma.go.jp/developer/xml/data/20250913151645_0_VPWW53_320000.xml",
      "title": "気象特別警報・警報・注意報",
      "content": "【島根県気象警報・注意報】東部では、１４日昼前まで土砂災害に、１４日明け方まで低い土地の浸水や河川の増水に警戒してください。",
      "observedAt": "2025-09-13T15:16:44.000Z",
      "placeCountry": "日本",
      "placePref": "島根県",
      "placeCity": null,
      "latitude": 34.9418212,
      "longitude": 132.537439
    },
    {
      "originId": "https://www.data.jma.go.jp/developer/xml/data/20250913150832_0_VPWW53_310000.xml",
      "title": "気象特別警報・警報・注意報",
      "content": "【鳥取県気象警報・注意報】中・西部では、１４日明け方まで低い土地の浸水や河川の増水に、１４日朝まで高潮に注意してください。鳥取県では、１４日夜遅くまで竜巻などの激しい突風や落雷に注意してください。",
      "observedAt": "2025-09-13T15:08:31.000Z",
      "placeCountry": "日本",
      "placePref": "鳥取県",
      "placeCity": null,
      "latitude": 35.3555075,
      "longitude": 133.8678525
    },
    {
      "originId": "https://www.data.jma.go.jp/developer/xml/data/20250913150234_0_VPWW53_320000.xml",
      "title": "気象特別警報・警報・注意報",
      "content": "【島根県気象警報・注意報】東部では、１４日明け方まで低い土地の浸水や河川の増水に警戒してください。",
      "observedAt": "2025-09-13T15:02:33.000Z",
      "placeCountry": "日本",
      "placePref": "島根県",
      "placeCity": null,
      "latitude": 34.9418212,
      "longitude": 132.537439
    },
    {
      "originId": "https://www.data.jma.go.jp/developer/xml/data/20250913143203_0_VPWW53_320000.xml",
      "title": "気象特別警報・警報・注意報",
      "content": "【島根県気象警報・注意報】東部では、１４日明け方まで低い土地の浸水や河川の増水に警戒してください。",
      "observedAt": "2025-09-13T14:32:02.000Z",
      "placeCountry": "日本",
      "placePref": "島根県",
      "placeCity": null,
      "latitude": 34.9418212,
      "longitude": 132.537439
    },
    {
      "originId": "https://www.data.jma.go.jp/developer/xml/data/20250913142649_0_VPWW53_240000.xml",
      "title": "気象特別警報・警報・注意報",
      "content": "【三重県気象警報・注意報】南部では、１４日明け方まで急な強い雨や落雷に注意してください。",
      "observedAt": "2025-09-13T14:26:49.000Z",
      "placeCountry": "日本",
      "placePref": "三重県",
      "placeCity": null,
      "latitude": 34.7339685,
      "longitude": 136.5154489
    },
    {
      "originId": "https://www.data.jma.go.jp/developer/xml/data/20250913142411_0_VPWW53_170000.xml",
      "title": "気象特別警報・警報・注意報",
      "content": "【石川県気象警報・注意報】能登では、１４日夕方まで土砂災害に、１４日未明から１４日昼前まで低い土地の浸水に、１４日昼前まで河川の増水に警戒してください。",
      "observedAt": "2025-09-13T14:24:11.000Z",
      "placeCountry": "日本",
      "placePref": "石川県",
      "placeCity": null,
      "latitude": 36.9888678,
      "longitude": 136.8163563
    }
  ]
}