{
  "generatedAt": "2026-01-24T19:06:28.048Z",
  "timeZone": "Asia/Tokyo",
  "hourPath": "2026/01/25/04",
  "source": "http://www.data.jma.go.jp/developer/xml/feed/extra.xml",
  "totalItems": 26,
  "items": [
    {
      "originId": "https://www.data.jma.go.jp/developer/xml/data/20260124184819_0_VPWW53_060000.xml",
      "title": "気象特別警報・警報・注意報",
      "content": "【山形県気象警報・注意報】庄内では、風雪や高波に注意してください。村山では、大雪や電線等への着雪に注意してください。山形県では、なだれに注意してください。村山、置賜、最上では、低温に注意してください。",
      "observedAt": "2026-01-24T18:48:18.000Z",
      "placeCountry": "日本",
      "placePref": "山形県",
      "placeCity": null,
      "latitude": 38.4746705,
      "longitude": 140.083237
    },
    {
      "originId": "https://www.data.jma.go.jp/developer/xml/data/20260124184817_0_VPWW53_050000.xml",
      "title": "気象特別警報・警報・注意報",
      "content": "【秋田県気象警報・注意報】沿岸では、風雪や高波に注意してください。秋田県では、大雪やなだれ、低温、電線等への着雪に注意してください。",
      "observedAt": "2026-01-24T18:48:16.000Z",
      "placeCountry": "日本",
      "placePref": "秋田県",
      "placeCity": null,
      "latitude": 39.6898802,
      "longitude": 140.342608
    },
    {
      "originId": "https://www.data.jma.go.jp/developer/xml/data/20260124183034_0_VPWW53_250000.xml",
      "title": "気象特別警報・警報・注意報",
      "content": "【滋賀県気象警報・注意報】滋賀県では、風雪や大雪、竜巻などの激しい突風、落雷、低温、電線等への着雪に注意してください。北部では、なだれに注意してください。",
      "observedAt": "2026-01-24T18:30:33.000Z",
      "placeCountry": "日本",
      "placePref": "滋賀県",
      "placeCity": null,
      "latitude": 35.247154,
      "longitude": 136.109385
    },
    {
      "originId": "https://www.data.jma.go.jp/developer/xml/data/20260124183024_0_VPWW53_260000.xml",
      "title": "気象特別警報・警報・注意報",
      "content": "【京都府気象警報・注意報】北部では、風雪や高波、電線等への着雪に注意してください。京都府では、大雪や竜巻などの激しい突風、落雷、なだれに注意してください。",
      "observedAt": "2026-01-24T18:30:23.000Z",
      "placeCountry": "日本",
      "placePref": "京都府",
      "placeCity": null,
      "latitude": 35.242552,
      "longitude": 135.454601
    },
    {
      "originId": "https://www.data.jma.go.jp/developer/xml/data/20260124180928_0_VPWW53_310000.xml",
      "title": "気象特別警報・警報・注意報",
      "content": "【鳥取県気象警報・注意報】東部では、２５日昼前まで大雪に警戒してください。",
      "observedAt": "2026-01-24T18:09:28.000Z",
      "placeCountry": "日本",
      "placePref": "鳥取県",
      "placeCity": null,
      "latitude": 35.3555075,
      "longitude": 133.8678525
    },
    {
      "originId": "https://www.data.jma.go.jp/developer/xml/data/20260124174120_0_VPWW53_160000.xml",
      "title": "気象特別警報・警報・注意報",
      "content": "【富山県気象警報・注意報】西部では、２５日朝まで大雪に警戒してください。",
      "observedAt": "2026-01-24T17:41:19.000Z",
      "placeCountry": "日本",
      "placePref": "富山県",
      "placeCity": null,
      "latitude": 36.6468015,
      "longitude": 137.2183531
    },
    {
      "originId": "https://www.data.jma.go.jp/developer/xml/data/20260124155508_0_VPWW53_020000.xml",
      "title": "気象特別警報・警報・注意報",
      "content": "【青森県気象警報・注意報】三八上北では、２５日昼前まで大雪に警戒してください。",
      "observedAt": "2026-01-24T15:55:08.000Z",
      "placeCountry": "日本",
      "placePref": "青森県",
      "placeCity": null,
      "latitude": 40.886943,
      "longitude": 140.590121
    },
    {
      "originId": "https://www.data.jma.go.jp/developer/xml/data/20260124145324_0_VPWW53_080000.xml",
      "title": "気象特別警報・警報・注意報",
      "content": "【茨城県気象警報・注意報】茨城県では、２５日朝から強風や高波に、ここしばらく空気の乾燥した状態が続くため、火の取り扱いに、２５日まで低温に注意してください。",
      "observedAt": "2026-01-24T14:53:23.000Z",
      "placeCountry": "日本",
      "placePref": "茨城県",
      "placeCity": null,
      "latitude": 36.2869536,
      "longitude": 140.4703384
    },
    {
      "originId": "https://www.data.jma.go.jp/developer/xml/data/20260124143543_0_VPWW53_220000.xml",
      "title": "気象特別警報・警報・注意報",
      "content": "【静岡県気象警報・注意報】中部、伊豆、西部では、強風や高波と、空気の乾燥した状態が続くため火の取り扱いに注意してください。",
      "observedAt": "2026-01-24T14:35:42.000Z",
      "placeCountry": "日本",
      "placePref": "静岡県",
      "placeCity": null,
      "latitude": 34.9332488,
      "longitude": 138.0955398
    },
    {
      "originId": "https://www.data.jma.go.jp/developer/xml/data/20260124131425_0_VPWW53_140000.xml",
      "title": "気象特別警報・警報・注意報",
      "content": "【神奈川県気象警報・注意報】神奈川県では、２５日明け方まで強風に、２６日まで空気の乾燥した状態が続くため、火の取り扱いに、２５日まで低温に注意してください。東部では、２５日昼前まで高波に注意してください。",
      "observedAt": "2026-01-24T13:14:25.000Z",
      "placeCountry": "日本",
      "placePref": "神奈川県",
      "placeCity": null,
      "latitude": 35.4342935,
      "longitude": 139.374753
    },
    {
      "originId": "https://www.data.jma.go.jp/developer/xml/data/20260124131228_0_VPWW53_120000.xml",
      "title": "気象特別警報・警報・注意報",
      "content": "【千葉県気象警報・注意報】北東部、南部では、強風や高波、急な強い雨、落雷に注意してください。千葉県では、空気の乾燥した状態が続くため、火の取り扱いに注意してください。",
      "observedAt": "2026-01-24T13:12:27.000Z",
      "placeCountry": "日本",
      "placePref": "千葉県",
      "placeCity": null,
      "latitude": 35.549399,
      "longitude": 140.2647303
    },
    {
      "originId": "https://www.data.jma.go.jp/developer/xml/data/20260124131210_0_VPWW53_150000.xml",
      "title": "気象特別警報・警報・注意報",
      "content": "【新潟県気象警報・注意報】中越、上越では、２５日昼前まで大雪に警戒してください。",
      "observedAt": "2026-01-24T13:12:09.000Z",
      "placeCountry": "日本",
      "placePref": "新潟県",
      "placeCity": null,
      "latitude": 37.6452283,
      "longitude": 138.7669125
    },
    {
      "originId": "https://www.data.jma.go.jp/developer/xml/data/20260124121508_0_VPWW53_250000.xml",
      "title": "気象特別警報・警報・注意報",
      "content": "【滋賀県気象警報・注意報】南部では、強風に注意してください。北部では、風雪や大雪、なだれ、電線等への着雪に注意してください。滋賀県では、竜巻などの激しい突風や落雷、低温に注意してください。",
      "observedAt": "2026-01-24T12:15:07.000Z",
      "placeCountry": "日本",
      "placePref": "滋賀県",
      "placeCity": null,
      "latitude": 35.247154,
      "longitude": 136.109385
    },
    {
      "originId": "https://www.data.jma.go.jp/developer/xml/data/20260124120204_0_VPWW53_100000.xml",
      "title": "気象特別警報・警報・注意報",
      "content": "【群馬県気象警報・注意報】南部では、ここしばらく空気の乾燥した状態が続くため、火の取り扱いに注意してください。",
      "observedAt": "2026-01-24T12:02:03.000Z",
      "placeCountry": "日本",
      "placePref": "群馬県",
      "placeCity": null,
      "latitude": 36.52198,
      "longitude": 139.033483
    },
    {
      "originId": "https://www.data.jma.go.jp/developer/xml/data/20260124114234_0_VPWW53_450000.xml",
      "title": "気象特別警報・警報・注意報",
      "content": "【宮崎県気象警報・注意報】宮崎県では、２６日まで空気の乾燥した状態が続くため、火の取り扱いに注意してください。",
      "observedAt": "2026-01-24T11:42:33.000Z",
      "placeCountry": "日本",
      "placePref": "宮崎県",
      "placeCity": null,
      "latitude": 32.097681,
      "longitude": 131.294542
    },
    {
      "originId": "https://www.data.jma.go.jp/developer/xml/data/20260124114122_0_VPWW53_280000.xml",
      "title": "気象特別警報・警報・注意報",
      "content": "【兵庫県気象警報・注意報】南部では強風と、空気の乾燥した状態が続くため火の取り扱いに、北部では風雪に、兵庫県では大雪や高波、竜巻などの激しい突風、落雷、なだれ、電線等への着雪に注意してください。",
      "observedAt": "2026-01-24T11:41:22.000Z",
      "placeCountry": "日本",
      "placePref": "兵庫県",
      "placeCity": null,
      "latitude": 34.914934,
      "longitude": 134.860666
    },
    {
      "originId": "https://www.data.jma.go.jp/developer/xml/data/20260124113930_0_VPWW53_260000.xml",
      "title": "気象特別警報・警報・注意報",
      "content": "【京都府気象警報・注意報】北部では、風雪や高波、なだれに注意してください。京都府では、大雪や竜巻などの激しい突風、落雷に注意してください。",
      "observedAt": "2026-01-24T11:39:29.000Z",
      "placeCountry": "日本",
      "placePref": "京都府",
      "placeCity": null,
      "latitude": 35.242552,
      "longitude": 135.454601
    },
    {
      "originId": "https://www.data.jma.go.jp/developer/xml/data/20260124103710_0_VPWW53_050000.xml",
      "title": "気象特別警報・警報・注意報",
      "content": "【秋田県気象警報・注意報】沿岸では、風雪や高波に注意してください。秋田県では、大雪や落雷、なだれ、低温、電線等への着雪に注意してください。",
      "observedAt": "2026-01-24T10:37:09.000Z",
      "placeCountry": "日本",
      "placePref": "秋田県",
      "placeCity": null,
      "latitude": 39.6898802,
      "longitude": 140.342608
    },
    {
      "originId": "https://www.data.jma.go.jp/developer/xml/data/20260124102032_0_VPWW53_330000.xml",
      "title": "気象特別警報・警報・注意報",
      "content": "【岡山県気象警報・注意報】北部では、２５日昼前まで落雷に注意してください。",
      "observedAt": "2026-01-24T10:20:32.000Z",
      "placeCountry": "日本",
      "placePref": "岡山県",
      "placeCity": null,
      "latitude": 34.8581334,
      "longitude": 133.7759256
    },
    {
      "originId": "https://www.data.jma.go.jp/developer/xml/data/20260124102030_0_VPWW53_340000.xml",
      "title": "気象特別警報・警報・注意報",
      "content": "【広島県気象警報・注意報】北部では、２５日昼前まで落雷に注意してください。南部では、２５日まで空気の乾燥した状態が続くため、火の取り扱いに注意してください。",
      "observedAt": "2026-01-24T10:20:29.000Z",
      "placeCountry": "日本",
      "placePref": "広島県",
      "placeCity": null,
      "latitude": 34.5666725,
      "longitude": 132.753565
    },
    {
      "originId": "https://www.data.jma.go.jp/developer/xml/data/20260124095009_0_VPWW53_150000.xml",
      "title": "気象特別警報・警報・注意報",
      "content": "【新潟県気象警報・注意報】下越では２４日夜遅くまで、中越、上越では２５日昼前まで、大雪に警戒してください。",
      "observedAt": "2026-01-24T09:50:07.000Z",
      "placeCountry": "日本",
      "placePref": "新潟県",
      "placeCity": null,
      "latitude": 37.6452283,
      "longitude": 138.7669125
    },
    {
      "originId": "https://www.data.jma.go.jp/developer/xml/data/20260124094018_0_VPWW53_170000.xml",
      "title": "気象特別警報・警報・注意報",
      "content": "【石川県気象警報・注意報】石川県では、２５日未明から２５日朝まで大雪に警戒してください。",
      "observedAt": "2026-01-24T09:40:16.000Z",
      "placeCountry": "日本",
      "placePref": "石川県",
      "placeCity": null,
      "latitude": 36.9888678,
      "longitude": 136.8163563
    },
    {
      "originId": "https://www.data.jma.go.jp/developer/xml/data/20260124093434_0_VPWW53_300000.xml",
      "title": "気象特別警報・警報・注意報",
      "content": "【和歌山県気象警報・注意報】和歌山県では、２５日夜のはじめ頃まで強風に、２５日まで空気の乾燥した状態が続くため、火の取り扱いに注意してください。南部では、２５日夕方まで高波に注意してください。",
      "observedAt": "2026-01-24T09:34:33.000Z",
      "placeCountry": "日本",
      "placePref": "和歌山県",
      "placeCity": null,
      "latitude": 33.8070292,
      "longitude": 135.5930743
    },
    {
      "originId": "https://www.data.jma.go.jp/developer/xml/data/20260124093017_0_VPWW53_210000.xml",
      "title": "気象特別警報・警報・注意報",
      "content": "【岐阜県気象警報・注意報】岐阜県では、２５日昼前まで大雪に警戒してください。",
      "observedAt": "2026-01-24T09:30:16.000Z",
      "placeCountry": "日本",
      "placePref": "岐阜県",
      "placeCity": null,
      "latitude": 35.7867449,
      "longitude": 137.0460777
    },
    {
      "originId": "https://www.data.jma.go.jp/developer/xml/data/20260124090535_0_VPWW53_070000.xml",
      "title": "気象特別警報・警報・注意報",
      "content": "【福島県気象警報・注意報】浜通りでは、２６日まで空気の乾燥した状態が続くため、火の取り扱いに注意してください。中通り、浜通りでは、２６日まで低温に注意してください。",
      "observedAt": "2026-01-24T09:05:34.000Z",
      "placeCountry": "日本",
      "placePref": "福島県",
      "placeCity": null,
      "latitude": 37.3662591,
      "longitude": 140.2511854
    },
    {
      "originId": "https://www.data.jma.go.jp/developer/xml/data/20260124085637_0_VPWW53_290000.xml",
      "title": "気象特別警報・警報・注意報",
      "content": "【奈良県気象警報・注意報】奈良県では、２５日まで空気の乾燥した状態が続くため、火の取り扱いに注意してください。",
      "observedAt": "2026-01-24T08:56:36.000Z",
      "placeCountry": "日本",
      "placePref": "奈良県",
      "placeCity": null,
      "latitude": 34.2963089,
      "longitude": 135.8816819
    }
  ]
}