{
  "generatedAt": "2025-11-07T17:07:16.937Z",
  "timeZone": "Asia/Tokyo",
  "hourPath": "2025/11/08/02",
  "source": "http://www.data.jma.go.jp/developer/xml/feed/extra.xml",
  "totalItems": 36,
  "items": [
    {
      "originId": "https://www.data.jma.go.jp/developer/xml/data/20251107140716_0_VPWW53_410000.xml",
      "title": "気象特別警報・警報・注意報",
      "content": "【佐賀県気象警報・注意報】北部では、８日明け方まで強風に注意してください。佐賀県では、８日まで空気の乾燥した状態が続くため、火の取り扱いに注意してください。",
      "observedAt": "2025-11-07T14:07:16.000Z",
      "placeCountry": "日本",
      "placePref": "佐賀県",
      "placeCity": null,
      "latitude": 33.2185408,
      "longitude": 130.1296585
    },
    {
      "originId": "https://www.data.jma.go.jp/developer/xml/data/20251107133648_0_VPWW53_120000.xml",
      "title": "気象特別警報・警報・注意報",
      "content": "【千葉県気象警報・注意報】北東部、南部では、８日昼前まで高波に注意してください。",
      "observedAt": "2025-11-07T13:36:47.000Z",
      "placeCountry": "日本",
      "placePref": "千葉県",
      "placeCity": null,
      "latitude": 35.549399,
      "longitude": 140.2647303
    },
    {
      "originId": "https://www.data.jma.go.jp/developer/xml/data/20251107133132_0_VPWW53_130000.xml",
      "title": "気象特別警報・警報・注意報",
      "content": "【東京都気象警報・注意報】小笠原諸島では、高波に注意してください。",
      "observedAt": "2025-11-07T13:31:31.000Z",
      "placeCountry": "日本",
      "placePref": "東京都",
      "placeCity": null,
      "latitude": 35.6828387,
      "longitude": 139.7594549
    },
    {
      "originId": "https://www.data.jma.go.jp/developer/xml/data/20251107122240_0_VPWW53_350000.xml",
      "title": "気象特別警報・警報・注意報",
      "content": "【山口県気象警報・注意報】山口県では、強風に注意してください。東部では、高波に注意してください。中部、東部では、霜に対する農作物の管理に注意してください。",
      "observedAt": "2025-11-07T12:22:39.000Z",
      "placeCountry": "日本",
      "placePref": "山口県",
      "placeCity": null,
      "latitude": 34.2379614,
      "longitude": 131.5873845
    },
    {
      "originId": "https://www.data.jma.go.jp/developer/xml/data/20251107121226_0_VPWW53_460040.xml",
      "title": "気象特別警報・警報・注意報",
      "content": "【奄美地方（鹿児島県）気象警報・注意報】奄美地方では、高波に注意してください。",
      "observedAt": "2025-11-07T12:12:25.000Z",
      "placeCountry": "日本",
      "placePref": "鹿児島県",
      "placeCity": null,
      "latitude": 31.521587,
      "longitude": 130.5474077
    },
    {
      "originId": "https://www.data.jma.go.jp/developer/xml/data/20251107121222_0_VPWW53_460100.xml",
      "title": "気象特別警報・警報・注意報",
      "content": "【鹿児島県（奄美地方を除く）気象警報・注意報】大隅、種子島・屋久島地方では、高波に注意してください。",
      "observedAt": "2025-11-07T12:12:22.000Z",
      "placeCountry": "日本",
      "placePref": "鹿児島県",
      "placeCity": null,
      "latitude": 31.521587,
      "longitude": 130.5474077
    },
    {
      "originId": "https://www.data.jma.go.jp/developer/xml/data/20251107120710_0_VPWW53_020000.xml",
      "title": "気象特別警報・警報・注意報",
      "content": "【青森県気象警報・注意報】津軽では、８日明け方まで高波に注意してください。",
      "observedAt": "2025-11-07T12:07:09.000Z",
      "placeCountry": "日本",
      "placePref": "青森県",
      "placeCity": null,
      "latitude": 40.886943,
      "longitude": 140.590121
    },
    {
      "originId": "https://www.data.jma.go.jp/developer/xml/data/20251107120504_0_VPWW53_300000.xml",
      "title": "気象特別警報・警報・注意報",
      "content": "【和歌山県気象警報・注意報】注意報を解除します。",
      "observedAt": "2025-11-07T12:05:03.000Z",
      "placeCountry": "日本",
      "placePref": "和歌山県",
      "placeCity": null,
      "latitude": 33.8070292,
      "longitude": 135.5930743
    },
    {
      "originId": "https://www.data.jma.go.jp/developer/xml/data/20251107115024_0_VPWW53_130000.xml",
      "title": "気象特別警報・警報・注意報",
      "content": "【東京都気象警報・注意報】伊豆諸島南部、小笠原諸島では、高波に注意してください。",
      "observedAt": "2025-11-07T11:50:23.000Z",
      "placeCountry": "日本",
      "placePref": "東京都",
      "placeCity": null,
      "latitude": 35.6828387,
      "longitude": 139.7594549
    },
    {
      "originId": "https://www.data.jma.go.jp/developer/xml/data/20251107113030_0_VPWW53_210000.xml",
      "title": "気象特別警報・警報・注意報",
      "content": "【岐阜県気象警報・注意報】注意報を解除します。",
      "observedAt": "2025-11-07T11:30:30.000Z",
      "placeCountry": "日本",
      "placePref": "岐阜県",
      "placeCity": null,
      "latitude": 35.7867449,
      "longitude": 137.0460777
    },
    {
      "originId": "https://www.data.jma.go.jp/developer/xml/data/20251107112210_0_VPWW53_070000.xml",
      "title": "気象特別警報・警報・注意報",
      "content": "【福島県気象警報・注意報】福島県では、８日朝は霜に対する農作物の管理に注意してください。",
      "observedAt": "2025-11-07T11:22:09.000Z",
      "placeCountry": "日本",
      "placePref": "福島県",
      "placeCity": null,
      "latitude": 37.3662591,
      "longitude": 140.2511854
    },
    {
      "originId": "https://www.data.jma.go.jp/developer/xml/data/20251107110807_0_VPWW53_420000.xml",
      "title": "気象特別警報・警報・注意報",
      "content": "【長崎県気象警報・注意報】北部、壱岐・対馬では強風に、壱岐・対馬では高波に、北部、壱岐・対馬、五島では高潮に、南部、北部では空気の乾燥した状態が続くため、火の取り扱いに注意してください。",
      "observedAt": "2025-11-07T11:08:06.000Z",
      "placeCountry": "日本",
      "placePref": "長崎県",
      "placeCity": null,
      "latitude": 33.1154683,
      "longitude": 129.7874339
    },
    {
      "originId": "https://www.data.jma.go.jp/developer/xml/data/20251107104553_0_VPWW53_390000.xml",
      "title": "気象特別警報・警報・注意報",
      "content": "【高知県気象警報・注意報】東部では、８日昼前まで強風に注意してください。東部、西部では、８日明け方まで高波に注意してください。",
      "observedAt": "2025-11-07T10:45:52.000Z",
      "placeCountry": "日本",
      "placePref": "高知県",
      "placeCity": null,
      "latitude": 33.6569018,
      "longitude": 133.5606241
    },
    {
      "originId": "https://www.data.jma.go.jp/developer/xml/data/20251107093548_0_VPWW53_320000.xml",
      "title": "気象特別警報・警報・注意報",
      "content": "【島根県気象警報・注意報】西部では、７日夜遅くから８日未明まで高潮に注意してください。",
      "observedAt": "2025-11-07T09:35:48.000Z",
      "placeCountry": "日本",
      "placePref": "島根県",
      "placeCity": null,
      "latitude": 34.9418212,
      "longitude": 132.537439
    },
    {
      "originId": "https://www.data.jma.go.jp/developer/xml/data/20251107085622_0_VPWW53_040000.xml",
      "title": "気象特別警報・警報・注意報",
      "content": "【宮城県気象警報・注意報】宮城県では、８日まで空気の乾燥した状態が続くため、火の取り扱いに、８日朝は霜に対する農作物の管理に注意してください。",
      "observedAt": "2025-11-07T08:56:21.000Z",
      "placeCountry": "日本",
      "placePref": "宮城県",
      "placeCity": null,
      "latitude": 38.3880155,
      "longitude": 140.9761025
    },
    {
      "originId": "https://www.data.jma.go.jp/developer/xml/data/20251107083316_0_VPWW53_020000.xml",
      "title": "気象特別警報・警報・注意報",
      "content": "【青森県気象警報・注意報】三八上北では、７日夜遅くまで強風に注意してください。下北、三八上北では７日夜のはじめ頃まで、津軽では８日明け方まで、高波に注意してください。",
      "observedAt": "2025-11-07T08:33:16.000Z",
      "placeCountry": "日本",
      "placePref": "青森県",
      "placeCity": null,
      "latitude": 40.886943,
      "longitude": 140.590121
    },
    {
      "originId": "https://www.data.jma.go.jp/developer/xml/data/20251107080720_0_VPWW53_070000.xml",
      "title": "気象特別警報・警報・注意報",
      "content": "【福島県気象警報・注意報】浜通りでは、７日夜のはじめ頃まで強風に注意してください。福島県では、８日朝は霜に対する農作物の管理に注意してください。",
      "observedAt": "2025-11-07T08:07:19.000Z",
      "placeCountry": "日本",
      "placePref": "福島県",
      "placeCity": null,
      "latitude": 37.3662591,
      "longitude": 140.2511854
    },
    {
      "originId": "https://www.data.jma.go.jp/developer/xml/data/20251107071429_0_VPWW53_200000.xml",
      "title": "気象特別警報・警報・注意報",
      "content": "【長野県気象警報・注意報】長野県では、８日未明から８日昼前まで濃霧による視程障害に注意してください。",
      "observedAt": "2025-11-07T07:14:28.000Z",
      "placeCountry": "日本",
      "placePref": "長野県",
      "placeCity": null,
      "latitude": 36.1143945,
      "longitude": 138.0319015
    },
    {
      "originId": "https://www.data.jma.go.jp/developer/xml/data/20251107071130_0_VPWW53_460100.xml",
      "title": "気象特別警報・警報・注意報",
      "content": "【鹿児島県（奄美地方を除く）気象警報・注意報】大隅、種子島・屋久島地方では、高波に注意してください。薩摩、大隅地方では、空気の乾燥した状態が続くため、火の取り扱いに注意してください。",
      "observedAt": "2025-11-07T07:11:30.000Z",
      "placeCountry": "日本",
      "placePref": "鹿児島県",
      "placeCity": null,
      "latitude": 31.521587,
      "longitude": 130.5474077
    },
    {
      "originId": "https://www.data.jma.go.jp/developer/xml/data/20251107070913_0_VPWW53_050000.xml",
      "title": "気象特別警報・警報・注意報",
      "content": "【秋田県気象警報・注意報】沿岸では、８日明け方まで高波に注意してください。",
      "observedAt": "2025-11-07T07:09:12.000Z",
      "placeCountry": "日本",
      "placePref": "秋田県",
      "placeCity": null,
      "latitude": 39.6898802,
      "longitude": 140.342608
    },
    {
      "originId": "https://www.data.jma.go.jp/developer/xml/data/20251107070814_0_VPWW53_430000.xml",
      "title": "気象特別警報・警報・注意報",
      "content": "【熊本県気象警報・注意報】天草・芦北地方では高潮に、球磨地方では濃霧による視程障害に、熊本県では空気の乾燥した状態が続くため、火の取り扱いに、熊本、阿蘇地方では霜に対する農作物の管理に注意してください。",
      "observedAt": "2025-11-07T07:08:13.000Z",
      "placeCountry": "日本",
      "placePref": "熊本県",
      "placeCity": null,
      "latitude": 32.6450475,
      "longitude": 130.6341345
    },
    {
      "originId": "https://www.data.jma.go.jp/developer/xml/data/20251107070645_0_VPWW53_060000.xml",
      "title": "気象特別警報・警報・注意報",
      "content": "【山形県気象警報・注意報】庄内では、８日明け方まで高波に注意してください。",
      "observedAt": "2025-11-07T07:06:45.000Z",
      "placeCountry": "日本",
      "placePref": "山形県",
      "placeCity": null,
      "latitude": 38.4746705,
      "longitude": 140.083237
    },
    {
      "originId": "https://www.data.jma.go.jp/developer/xml/data/20251107070623_0_VPWW53_030000.xml",
      "title": "気象特別警報・警報・注意報",
      "content": "【岩手県気象警報・注意報】沿岸北部、沿岸南部では、８日明け方まで強風や高波に注意してください。",
      "observedAt": "2025-11-07T07:06:22.000Z",
      "placeCountry": "日本",
      "placePref": "岩手県",
      "placeCity": null,
      "latitude": 39.5713763,
      "longitude": 141.4253574
    },
    {
      "originId": "https://www.data.jma.go.jp/developer/xml/data/20251107070619_0_VPWW53_130000.xml",
      "title": "気象特別警報・警報・注意報",
      "content": "【東京都気象警報・注意報】伊豆諸島北部、伊豆諸島南部、小笠原諸島では、高波に注意してください。",
      "observedAt": "2025-11-07T07:06:18.000Z",
      "placeCountry": "日本",
      "placePref": "東京都",
      "placeCity": null,
      "latitude": 35.6828387,
      "longitude": 139.7594549
    },
    {
      "originId": "https://www.data.jma.go.jp/developer/xml/data/20251107070426_0_VPWW53_440000.xml",
      "title": "気象特別警報・警報・注意報",
      "content": "【大分県気象警報・注意報】中部、北部では、強風や高潮に注意してください。中部、北部、南部では、高波に注意してください。",
      "observedAt": "2025-11-07T07:04:25.000Z",
      "placeCountry": "日本",
      "placePref": "大分県",
      "placeCity": null,
      "latitude": 33.1819875,
      "longitude": 131.4270217
    },
    {
      "originId": "https://www.data.jma.go.jp/developer/xml/data/20251107070311_0_VPWW53_070000.xml",
      "title": "気象特別警報・警報・注意報",
      "content": "【福島県気象警報・注意報】福島県では、８日朝は霜に対する農作物の管理に注意してください。",
      "observedAt": "2025-11-07T07:03:10.000Z",
      "placeCountry": "日本",
      "placePref": "福島県",
      "placeCity": null,
      "latitude": 37.3662591,
      "longitude": 140.2511854
    },
    {
      "originId": "https://www.data.jma.go.jp/developer/xml/data/20251107070048_0_VPWW53_450000.xml",
      "title": "気象特別警報・警報・注意報",
      "content": "【宮崎県気象警報・注意報】南部平野部、北部平野部では、高波に注意してください。",
      "observedAt": "2025-11-07T07:00:47.000Z",
      "placeCountry": "日本",
      "placePref": "宮崎県",
      "placeCity": null,
      "latitude": 32.097681,
      "longitude": 131.294542
    },
    {
      "originId": "https://www.data.jma.go.jp/developer/xml/data/20251107065550_0_VPWW53_150000.xml",
      "title": "気象特別警報・警報・注意報",
      "content": "【新潟県気象警報・注意報】下越、佐渡では８日朝まで、上越では７日夜のはじめ頃から８日朝まで、高波に注意してください。",
      "observedAt": "2025-11-07T06:55:49.000Z",
      "placeCountry": "日本",
      "placePref": "新潟県",
      "placeCity": null,
      "latitude": 37.6452283,
      "longitude": 138.7669125
    },
    {
      "originId": "https://www.data.jma.go.jp/developer/xml/data/20251107065135_0_VPWW53_160000.xml",
      "title": "気象特別警報・警報・注意報",
      "content": "【富山県気象警報・注意報】東部では、７日夜のはじめ頃から８日昼過ぎまで高波に注意してください。富山県では、８日朝は霜に対する農作物の管理に注意してください。",
      "observedAt": "2025-11-07T06:51:34.000Z",
      "placeCountry": "日本",
      "placePref": "富山県",
      "placeCity": null,
      "latitude": 36.6468015,
      "longitude": 137.2183531
    },
    {
      "originId": "https://www.data.jma.go.jp/developer/xml/data/20251107064653_0_VPWW53_420000.xml",
      "title": "気象特別警報・警報・注意報",
      "content": "【長崎県気象警報・注意報】北部、壱岐・対馬では強風に、壱岐・対馬では高波に、北部、壱岐・対馬、五島では高潮に、南部、北部、五島では空気の乾燥した状態が続くため、火の取り扱いに注意してください。",
      "observedAt": "2025-11-07T06:46:53.000Z",
      "placeCountry": "日本",
      "placePref": "長崎県",
      "placeCity": null,
      "latitude": 33.1154683,
      "longitude": 129.7874339
    },
    {
      "originId": "https://www.data.jma.go.jp/developer/xml/data/20251107064648_0_VPWW53_020000.xml",
      "title": "気象特別警報・警報・注意報",
      "content": "【青森県気象警報・注意報】三八上北では、７日夜遅くまで強風に、７日夕方まで高潮に注意してください。下北、三八上北では７日夜のはじめ頃まで、津軽では８日明け方まで、高波に注意してください。",
      "observedAt": "2025-11-07T06:46:48.000Z",
      "placeCountry": "日本",
      "placePref": "青森県",
      "placeCity": null,
      "latitude": 40.886943,
      "longitude": 140.590121
    },
    {
      "originId": "https://www.data.jma.go.jp/developer/xml/data/20251107064017_0_VPWW53_230000.xml",
      "title": "気象特別警報・警報・注意報",
      "content": "【愛知県気象警報・注意報】東部では、７日夜のはじめ頃から８日未明まで強風に注意してください。",
      "observedAt": "2025-11-07T06:40:16.000Z",
      "placeCountry": "日本",
      "placePref": "愛知県",
      "placeCity": null,
      "latitude": 34.9991645,
      "longitude": 137.254574
    },
    {
      "originId": "https://www.data.jma.go.jp/developer/xml/data/20251107062046_0_VPWW53_350000.xml",
      "title": "気象特別警報・警報・注意報",
      "content": "【山口県気象警報・注意報】山口県では、強風と、空気の乾燥した状態が続くため火の取り扱いに注意してください。東部では、高波に注意してください。中部、東部では、霜に対する農作物の管理に注意してください。",
      "observedAt": "2025-11-07T06:20:46.000Z",
      "placeCountry": "日本",
      "placePref": "山口県",
      "placeCity": null,
      "latitude": 34.2379614,
      "longitude": 131.5873845
    },
    {
      "originId": "https://www.data.jma.go.jp/developer/xml/data/20251107060420_0_VPWW53_170000.xml",
      "title": "気象特別警報・警報・注意報",
      "content": "【石川県気象警報・注意報】能登では、８日未明から８日昼前まで高波に、８日朝まで高潮に注意してください。石川県では、８日朝は霜に対する農作物の管理に注意してください。",
      "observedAt": "2025-11-07T06:04:20.000Z",
      "placeCountry": "日本",
      "placePref": "石川県",
      "placeCity": null,
      "latitude": 36.9888678,
      "longitude": 136.8163563
    },
    {
      "originId": "https://www.data.jma.go.jp/developer/xml/data/20251107060412_0_VPWW53_080000.xml",
      "title": "気象特別警報・警報・注意報",
      "content": "【茨城県気象警報・注意報】南部では、８日昼前まで高波に注意してください。茨城県では、８日朝は霜に対する農作物の管理に注意してください。",
      "observedAt": "2025-11-07T06:04:11.000Z",
      "placeCountry": "日本",
      "placePref": "茨城県",
      "placeCity": null,
      "latitude": 36.2869536,
      "longitude": 140.4703384
    },
    {
      "originId": "https://www.data.jma.go.jp/developer/xml/data/20251107060224_0_VPWW53_160000.xml",
      "title": "気象特別警報・警報・注意報",
      "content": "【富山県気象警報・注意報】富山県では、８日朝は霜に対する農作物の管理に注意してください。",
      "observedAt": "2025-11-07T06:02:23.000Z",
      "placeCountry": "日本",
      "placePref": "富山県",
      "placeCity": null,
      "latitude": 36.6468015,
      "longitude": 137.2183531
    }
  ]
}