{
  "generatedAt": "2026-04-13T18:34:55.895Z",
  "timeZone": "Asia/Tokyo",
  "hourPath": "2026/04/14/03",
  "source": "http://www.data.jma.go.jp/developer/xml/feed/extra.xml",
  "totalItems": 13,
  "items": [
    {
      "originId": "https://www.data.jma.go.jp/developer/xml/data/20260413174911_0_VPWW53_030000.xml",
      "title": "気象特別警報・警報・注意報",
      "content": "【岩手県気象警報・注意報】内陸では、濃霧による視程障害やなだれに注意してください。岩手県では、乾燥や霜に対する農作物の管理に注意してください。",
      "observedAt": "2026-04-13T17:49:10.000Z",
      "placeCountry": "日本",
      "placePref": "岩手県",
      "placeCity": null,
      "latitude": 39.5713763,
      "longitude": 141.4253574
    },
    {
      "originId": "https://www.data.jma.go.jp/developer/xml/data/20260413141613_0_VPWW53_050000.xml",
      "title": "気象特別警報・警報・注意報",
      "content": "【秋田県気象警報・注意報】秋田県では、１４日昼前まで濃霧による視程障害に、１４日朝は霜に対する農作物の管理に注意してください。内陸では、ここしばらくなだれに注意してください。",
      "observedAt": "2026-04-13T14:16:13.000Z",
      "placeCountry": "日本",
      "placePref": "秋田県",
      "placeCity": null,
      "latitude": 39.6898802,
      "longitude": 140.342608
    },
    {
      "originId": "https://www.data.jma.go.jp/developer/xml/data/20260413130829_0_VPWW53_410000.xml",
      "title": "気象特別警報・警報・注意報",
      "content": "【佐賀県気象警報・注意報】注意報を解除します。",
      "observedAt": "2026-04-13T13:08:29.000Z",
      "placeCountry": "日本",
      "placePref": "佐賀県",
      "placeCity": null,
      "latitude": 33.2185408,
      "longitude": 130.1296585
    },
    {
      "originId": "https://www.data.jma.go.jp/developer/xml/data/20260413130819_0_VPWW53_420000.xml",
      "title": "気象特別警報・警報・注意報",
      "content": "【長崎県気象警報・注意報】壱岐・対馬では、強風に注意してください。",
      "observedAt": "2026-04-13T13:08:19.000Z",
      "placeCountry": "日本",
      "placePref": "長崎県",
      "placeCity": null,
      "latitude": 33.1154683,
      "longitude": 129.7874339
    },
    {
      "originId": "https://www.data.jma.go.jp/developer/xml/data/20260413124523_0_VPWW53_200000.xml",
      "title": "気象特別警報・警報・注意報",
      "content": "【長野県気象警報・注意報】北部、中部では、１４日夜遅くまで融雪による土砂災害に、１４日まで乾燥やなだれに注意してください。",
      "observedAt": "2026-04-13T12:45:22.000Z",
      "placeCountry": "日本",
      "placePref": "長野県",
      "placeCity": null,
      "latitude": 36.1143945,
      "longitude": 138.0319015
    },
    {
      "originId": "https://www.data.jma.go.jp/developer/xml/data/20260413123530_0_VPWW53_240000.xml",
      "title": "気象特別警報・警報・注意報",
      "content": "【三重県気象警報・注意報】注意報を解除します。",
      "observedAt": "2026-04-13T12:35:30.000Z",
      "placeCountry": "日本",
      "placePref": "三重県",
      "placeCity": null,
      "latitude": 34.7339685,
      "longitude": 136.5154489
    },
    {
      "originId": "https://www.data.jma.go.jp/developer/xml/data/20260413123414_0_VPWW53_210000.xml",
      "title": "気象特別警報・警報・注意報",
      "content": "【岐阜県気象警報・注意報】注意報を解除します。",
      "observedAt": "2026-04-13T12:34:13.000Z",
      "placeCountry": "日本",
      "placePref": "岐阜県",
      "placeCity": null,
      "latitude": 35.7867449,
      "longitude": 137.0460777
    },
    {
      "originId": "https://www.data.jma.go.jp/developer/xml/data/20260413113549_0_VPWW53_230000.xml",
      "title": "気象特別警報・警報・注意報",
      "content": "【愛知県気象警報・注意報】注意報を解除します。",
      "observedAt": "2026-04-13T11:35:48.000Z",
      "placeCountry": "日本",
      "placePref": "愛知県",
      "placeCity": null,
      "latitude": 34.9991645,
      "longitude": 137.254574
    },
    {
      "originId": "https://www.data.jma.go.jp/developer/xml/data/20260413113223_0_VPWW53_110000.xml",
      "title": "気象特別警報・警報・注意報",
      "content": "【埼玉県気象警報・注意報】埼玉県では、１４日未明から１４日昼前まで濃霧による視程障害に注意してください。",
      "observedAt": "2026-04-13T11:32:22.000Z",
      "placeCountry": "日本",
      "placePref": "埼玉県",
      "placeCity": null,
      "latitude": 35.9754168,
      "longitude": 139.4160114
    },
    {
      "originId": "https://www.data.jma.go.jp/developer/xml/data/20260413104309_0_VPWW53_160000.xml",
      "title": "気象特別警報・警報・注意報",
      "content": "【富山県気象警報・注意報】東部では、融雪による土砂災害やなだれに注意してください。",
      "observedAt": "2026-04-13T10:43:09.000Z",
      "placeCountry": "日本",
      "placePref": "富山県",
      "placeCity": null,
      "latitude": 36.6468015,
      "longitude": 137.2183531
    },
    {
      "originId": "https://www.data.jma.go.jp/developer/xml/data/20260413104216_0_VPWW53_180000.xml",
      "title": "気象特別警報・警報・注意報",
      "content": "【福井県気象警報・注意報】注意報を解除します。",
      "observedAt": "2026-04-13T10:42:15.000Z",
      "placeCountry": "日本",
      "placePref": "福井県",
      "placeCity": null,
      "latitude": 35.9263502,
      "longitude": 136.6068127
    },
    {
      "originId": "https://www.data.jma.go.jp/developer/xml/data/20260413104111_0_VPWW53_170000.xml",
      "title": "気象特別警報・警報・注意報",
      "content": "【石川県気象警報・注意報】加賀では、１４日まで空気の乾燥した状態が続くため、火の取り扱いに注意してください。",
      "observedAt": "2026-04-13T10:41:10.000Z",
      "placeCountry": "日本",
      "placePref": "石川県",
      "placeCity": null,
      "latitude": 36.9888678,
      "longitude": 136.8163563
    },
    {
      "originId": "https://www.data.jma.go.jp/developer/xml/data/20260413094606_0_VPWW53_310000.xml",
      "title": "気象特別警報・警報・注意報",
      "content": "【鳥取県気象警報・注意報】注意報を解除します。",
      "observedAt": "2026-04-13T09:46:05.000Z",
      "placeCountry": "日本",
      "placePref": "鳥取県",
      "placeCity": null,
      "latitude": 35.3555075,
      "longitude": 133.8678525
    }
  ]
}