{
  "generatedAt": "2026-02-19T05:33:35.983Z",
  "timeZone": "Asia/Tokyo",
  "hourPath": "2026/02/19/14",
  "source": "http://www.data.jma.go.jp/developer/xml/feed/extra.xml",
  "totalItems": 40,
  "items": [
    {
      "originId": "https://www.data.jma.go.jp/developer/xml/data/20260219053228_0_VPWW53_130000.xml",
      "title": "気象特別警報・警報・注意報",
      "content": "【東京都気象警報・注意報】東京都では、強風や高波、空気の乾燥した状態が続くため、火の取り扱い、霜に対する農作物の管理に注意してください。",
      "observedAt": "2026-02-19T05:32:27.000Z",
      "placeCountry": "日本",
      "placePref": "東京都",
      "placeCity": null,
      "latitude": 35.6828387,
      "longitude": 139.7594549
    },
    {
      "originId": "https://www.data.jma.go.jp/developer/xml/data/20260219052344_0_VPWW53_170000.xml",
      "title": "気象特別警報・警報・注意報",
      "content": "【石川県気象警報・注意報】加賀では１９日夕方まで、能登では１９日夜のはじめ頃まで、高波に注意してください。石川県では、２０日まで低温に注意してください。",
      "observedAt": "2026-02-19T05:23:43.000Z",
      "placeCountry": "日本",
      "placePref": "石川県",
      "placeCity": null,
      "latitude": 36.9888678,
      "longitude": 136.8163563
    },
    {
      "originId": "https://www.data.jma.go.jp/developer/xml/data/20260219042225_0_VPWW53_400000.xml",
      "title": "気象特別警報・警報・注意報",
      "content": "【福岡県気象警報・注意報】福岡県では、２０日まで空気の乾燥した状態が続くため、火の取り扱いに注意してください。",
      "observedAt": "2026-02-19T04:22:24.000Z",
      "placeCountry": "日本",
      "placePref": "福岡県",
      "placeCity": null,
      "latitude": 33.6251241,
      "longitude": 130.6180016
    },
    {
      "originId": "https://www.data.jma.go.jp/developer/xml/data/20260219041047_0_VPWW53_110000.xml",
      "title": "気象特別警報・警報・注意報",
      "content": "【埼玉県気象警報・注意報】南部、北部では、１９日夜のはじめ頃まで強風に注意してください。秩父地方では１９日まで、南部、北部では２１日まで、空気の乾燥した状態が続くため、火の取り扱いに注意してください。",
      "observedAt": "2026-02-19T04:10:46.000Z",
      "placeCountry": "日本",
      "placePref": "埼玉県",
      "placeCity": null,
      "latitude": 35.9754168,
      "longitude": 139.4160114
    },
    {
      "originId": "https://www.data.jma.go.jp/developer/xml/data/20260219024904_0_VPWW53_230000.xml",
      "title": "気象特別警報・警報・注意報",
      "content": "【愛知県気象警報・注意報】東部では、１９日夕方まで強風に注意してください。愛知県では、２１日まで空気の乾燥した状態が続くため、火の取り扱いに注意してください。",
      "observedAt": "2026-02-19T02:49:04.000Z",
      "placeCountry": "日本",
      "placePref": "愛知県",
      "placeCity": null,
      "latitude": 34.9991645,
      "longitude": 137.254574
    },
    {
      "originId": "https://www.data.jma.go.jp/developer/xml/data/20260219012929_0_VPWW53_190000.xml",
      "title": "気象特別警報・警報・注意報",
      "content": "【山梨県気象警報・注意報】中・西部では、１９日まで空気の乾燥した状態が続くため、火の取り扱いに注意してください。",
      "observedAt": "2026-02-19T01:29:28.000Z",
      "placeCountry": "日本",
      "placePref": "山梨県",
      "placeCity": null,
      "latitude": 35.6399328,
      "longitude": 138.6380495
    },
    {
      "originId": "https://www.data.jma.go.jp/developer/xml/data/20260219012221_0_VPWW53_060000.xml",
      "title": "気象特別警報・警報・注意報",
      "content": "【山形県気象警報・注意報】庄内では、１９日夜遅くまで高波に注意してください。村山、置賜、最上では、１９日までなだれに注意してください。",
      "observedAt": "2026-02-19T01:22:20.000Z",
      "placeCountry": "日本",
      "placePref": "山形県",
      "placeCity": null,
      "latitude": 38.4746705,
      "longitude": 140.083237
    },
    {
      "originId": "https://www.data.jma.go.jp/developer/xml/data/20260219012219_0_VPWW53_120000.xml",
      "title": "気象特別警報・警報・注意報",
      "content": "【千葉県気象警報・注意報】北西部、南部では、１９日夜のはじめ頃まで強風や高波に注意してください。千葉県では、１９日まで空気の乾燥した状態が続くため、火の取り扱いに注意してください。",
      "observedAt": "2026-02-19T01:22:18.000Z",
      "placeCountry": "日本",
      "placePref": "千葉県",
      "placeCity": null,
      "latitude": 35.549399,
      "longitude": 140.2647303
    },
    {
      "originId": "https://www.data.jma.go.jp/developer/xml/data/20260219011518_0_VPWW53_320000.xml",
      "title": "気象特別警報・警報・注意報",
      "content": "【島根県気象警報・注意報】島根県では、１９日夕方まで高波に注意してください。東部では、２１日までなだれに注意してください。",
      "observedAt": "2026-02-19T01:15:17.000Z",
      "placeCountry": "日本",
      "placePref": "島根県",
      "placeCity": null,
      "latitude": 34.9418212,
      "longitude": 132.537439
    },
    {
      "originId": "https://www.data.jma.go.jp/developer/xml/data/20260219011408_0_VPWW53_040000.xml",
      "title": "気象特別警報・警報・注意報",
      "content": "【宮城県気象警報・注意報】宮城県では、１９日夜のはじめ頃まで強風に、２１日まで空気の乾燥した状態が続くため、火の取り扱いに注意してください。",
      "observedAt": "2026-02-19T01:14:07.000Z",
      "placeCountry": "日本",
      "placePref": "宮城県",
      "placeCity": null,
      "latitude": 38.3880155,
      "longitude": 140.9761025
    },
    {
      "originId": "https://www.data.jma.go.jp/developer/xml/data/20260219011314_0_VPWW53_020000.xml",
      "title": "気象特別警報・警報・注意報",
      "content": "【青森県気象警報・注意報】下北、三八上北では、１９日夕方まで風雪に注意してください。下北、三八上北では１９日夕方まで、津軽では１９日夜遅くまで、高波に注意してください。",
      "observedAt": "2026-02-19T01:13:14.000Z",
      "placeCountry": "日本",
      "placePref": "青森県",
      "placeCity": null,
      "latitude": 40.886943,
      "longitude": 140.590121
    },
    {
      "originId": "https://www.data.jma.go.jp/developer/xml/data/20260219010943_0_VPWW53_310000.xml",
      "title": "気象特別警報・警報・注意報",
      "content": "【鳥取県気象警報・注意報】鳥取県では、１９日夕方まで高波に、２１日までなだれに注意してください。",
      "observedAt": "2026-02-19T01:09:43.000Z",
      "placeCountry": "日本",
      "placePref": "鳥取県",
      "placeCity": null,
      "latitude": 35.3555075,
      "longitude": 133.8678525
    },
    {
      "originId": "https://www.data.jma.go.jp/developer/xml/data/20260219010841_0_VPWW53_280000.xml",
      "title": "気象特別警報・警報・注意報",
      "content": "【兵庫県気象警報・注意報】北部では、高波や低温に注意してください。南部では、空気の乾燥した状態が続くため、火の取り扱いに注意してください。兵庫県では、なだれに注意してください。",
      "observedAt": "2026-02-19T01:08:40.000Z",
      "placeCountry": "日本",
      "placePref": "兵庫県",
      "placeCity": null,
      "latitude": 34.914934,
      "longitude": 134.860666
    },
    {
      "originId": "https://www.data.jma.go.jp/developer/xml/data/20260219010808_0_VPWW53_160000.xml",
      "title": "気象特別警報・警報・注意報",
      "content": "【富山県気象警報・注意報】東部では、１９日夜遅くまで高波に注意してください。",
      "observedAt": "2026-02-19T01:08:07.000Z",
      "placeCountry": "日本",
      "placePref": "富山県",
      "placeCity": null,
      "latitude": 36.6468015,
      "longitude": 137.2183531
    },
    {
      "originId": "https://www.data.jma.go.jp/developer/xml/data/20260219010736_0_VPWW53_130000.xml",
      "title": "気象特別警報・警報・注意報",
      "content": "【東京都気象警報・注意報】東京地方、伊豆諸島南部では強風に、東京地方、伊豆諸島南部、小笠原諸島では高波に、東京地方では空気の乾燥した状態が続くため、火の取り扱いに注意してください。",
      "observedAt": "2026-02-19T01:07:35.000Z",
      "placeCountry": "日本",
      "placePref": "東京都",
      "placeCity": null,
      "latitude": 35.6828387,
      "longitude": 139.7594549
    },
    {
      "originId": "https://www.data.jma.go.jp/developer/xml/data/20260219010720_0_VPWW53_180000.xml",
      "title": "気象特別警報・警報・注意報",
      "content": "【福井県気象警報・注意報】福井県では、１９日夕方まで高波に注意してください。",
      "observedAt": "2026-02-19T01:07:19.000Z",
      "placeCountry": "日本",
      "placePref": "福井県",
      "placeCity": null,
      "latitude": 35.9263502,
      "longitude": 136.6068127
    },
    {
      "originId": "https://www.data.jma.go.jp/developer/xml/data/20260219010334_0_VPWW53_140000.xml",
      "title": "気象特別警報・警報・注意報",
      "content": "【神奈川県気象警報・注意報】東部では、１９日夜のはじめ頃まで強風に注意してください。神奈川県では、２１日まで空気の乾燥した状態が続くため、火の取り扱いに注意してください。",
      "observedAt": "2026-02-19T01:03:34.000Z",
      "placeCountry": "日本",
      "placePref": "神奈川県",
      "placeCity": null,
      "latitude": 35.4342935,
      "longitude": 139.374753
    },
    {
      "originId": "https://www.data.jma.go.jp/developer/xml/data/20260219010229_0_VPWW53_080000.xml",
      "title": "気象特別警報・警報・注意報",
      "content": "【茨城県気象警報・注意報】注意報を解除します。",
      "observedAt": "2026-02-19T01:02:28.000Z",
      "placeCountry": "日本",
      "placePref": "茨城県",
      "placeCity": null,
      "latitude": 36.2869536,
      "longitude": 140.4703384
    },
    {
      "originId": "https://www.data.jma.go.jp/developer/xml/data/20260219005541_0_VPWW53_240000.xml",
      "title": "気象特別警報・警報・注意報",
      "content": "【三重県気象警報・注意報】三重県では、１９日まで空気の乾燥した状態が続くため、火の取り扱いに注意してください。",
      "observedAt": "2026-02-19T00:55:41.000Z",
      "placeCountry": "日本",
      "placePref": "三重県",
      "placeCity": null,
      "latitude": 34.7339685,
      "longitude": 136.5154489
    },
    {
      "originId": "https://www.data.jma.go.jp/developer/xml/data/20260219005416_0_VPWW53_250000.xml",
      "title": "気象特別警報・警報・注意報",
      "content": "【滋賀県気象警報・注意報】北部では、２１日までなだれに注意してください。",
      "observedAt": "2026-02-19T00:54:16.000Z",
      "placeCountry": "日本",
      "placePref": "滋賀県",
      "placeCity": null,
      "latitude": 35.247154,
      "longitude": 136.109385
    },
    {
      "originId": "https://www.data.jma.go.jp/developer/xml/data/20260219005223_0_VPWW53_090000.xml",
      "title": "気象特別警報・警報・注意報",
      "content": "【栃木県気象警報・注意報】北部では、１９日夕方まで強風に注意してください。栃木県では、２１日まで空気の乾燥した状態が続くため、火の取り扱いに注意してください。",
      "observedAt": "2026-02-19T00:52:22.000Z",
      "placeCountry": "日本",
      "placePref": "栃木県",
      "placeCity": null,
      "latitude": 36.6782167,
      "longitude": 139.8096549
    },
    {
      "originId": "https://www.data.jma.go.jp/developer/xml/data/20260219004423_0_VPWW53_170000.xml",
      "title": "気象特別警報・警報・注意報",
      "content": "【石川県気象警報・注意報】加賀では１９日夕方まで、能登では１９日夜のはじめ頃まで、高波に注意してください。",
      "observedAt": "2026-02-19T00:44:22.000Z",
      "placeCountry": "日本",
      "placePref": "石川県",
      "placeCity": null,
      "latitude": 36.9888678,
      "longitude": 136.8163563
    },
    {
      "originId": "https://www.data.jma.go.jp/developer/xml/data/20260219003549_0_VPWW53_350000.xml",
      "title": "気象特別警報・警報・注意報",
      "content": "【山口県気象警報・注意報】北部では、１９日夕方まで高波に注意してください。山口県では、２０日まで空気の乾燥した状態が続くため、火の取り扱いに注意してください。",
      "observedAt": "2026-02-19T00:35:49.000Z",
      "placeCountry": "日本",
      "placePref": "山口県",
      "placeCity": null,
      "latitude": 34.2379614,
      "longitude": 131.5873845
    },
    {
      "originId": "https://www.data.jma.go.jp/developer/xml/data/20260218224807_0_VPWW53_130000.xml",
      "title": "気象特別警報・警報・注意報",
      "content": "【東京都気象警報・注意報】東京地方、伊豆諸島南部では強風に、東京地方、伊豆諸島北部、伊豆諸島南部では高波に、東京地方では空気の乾燥した状態が続くため、火の取り扱いに注意してください。",
      "observedAt": "2026-02-18T22:48:06.000Z",
      "placeCountry": "日本",
      "placePref": "東京都",
      "placeCity": null,
      "latitude": 35.6828387,
      "longitude": 139.7594549
    },
    {
      "originId": "https://www.data.jma.go.jp/developer/xml/data/20260218224709_0_VPWW53_230000.xml",
      "title": "気象特別警報・警報・注意報",
      "content": "【愛知県気象警報・注意報】東部では、１９日昼前まで強風に注意してください。愛知県では、２１日まで空気の乾燥した状態が続くため、火の取り扱いに注意してください。",
      "observedAt": "2026-02-18T22:47:08.000Z",
      "placeCountry": "日本",
      "placePref": "愛知県",
      "placeCity": null,
      "latitude": 34.9991645,
      "longitude": 137.254574
    },
    {
      "originId": "https://www.data.jma.go.jp/developer/xml/data/20260218224651_0_VPWW53_240000.xml",
      "title": "気象特別警報・警報・注意報",
      "content": "【三重県気象警報・注意報】南部では、１９日昼前まで強風に注意してください。三重県では、１９日まで空気の乾燥した状態が続くため、火の取り扱いに注意してください。",
      "observedAt": "2026-02-18T22:46:51.000Z",
      "placeCountry": "日本",
      "placePref": "三重県",
      "placeCity": null,
      "latitude": 34.7339685,
      "longitude": 136.5154489
    },
    {
      "originId": "https://www.data.jma.go.jp/developer/xml/data/20260218224522_0_VPWW53_430000.xml",
      "title": "気象特別警報・警報・注意報",
      "content": "【熊本県気象警報・注意報】熊本県では、１９日まで空気の乾燥した状態が続くため、火の取り扱いに注意してください。",
      "observedAt": "2026-02-18T22:45:21.000Z",
      "placeCountry": "日本",
      "placePref": "熊本県",
      "placeCity": null,
      "latitude": 32.6450475,
      "longitude": 130.6341345
    },
    {
      "originId": "https://www.data.jma.go.jp/developer/xml/data/20260218224520_0_VPWW53_440000.xml",
      "title": "気象特別警報・警報・注意報",
      "content": "【大分県気象警報・注意報】大分県では、１９日まで空気の乾燥した状態が続くため、火の取り扱いに注意してください。",
      "observedAt": "2026-02-18T22:45:19.000Z",
      "placeCountry": "日本",
      "placePref": "大分県",
      "placeCity": null,
      "latitude": 33.1819875,
      "longitude": 131.4270217
    },
    {
      "originId": "https://www.data.jma.go.jp/developer/xml/data/20260218224516_0_VPWW53_350000.xml",
      "title": "気象特別警報・警報・注意報",
      "content": "【山口県気象警報・注意報】山口県では、２０日まで空気の乾燥した状態が続くため、火の取り扱いに注意してください。",
      "observedAt": "2026-02-18T22:45:15.000Z",
      "placeCountry": "日本",
      "placePref": "山口県",
      "placeCity": null,
      "latitude": 34.2379614,
      "longitude": 131.5873845
    },
    {
      "originId": "https://www.data.jma.go.jp/developer/xml/data/20260218224424_0_VPWW53_140000.xml",
      "title": "気象特別警報・警報・注意報",
      "content": "【神奈川県気象警報・注意報】東部では、１９日昼前まで強風に注意してください。神奈川県では、１９日まで空気の乾燥した状態が続くため、火の取り扱いに注意してください。",
      "observedAt": "2026-02-18T22:44:23.000Z",
      "placeCountry": "日本",
      "placePref": "神奈川県",
      "placeCity": null,
      "latitude": 35.4342935,
      "longitude": 139.374753
    },
    {
      "originId": "https://www.data.jma.go.jp/developer/xml/data/20260218224223_0_VPWW53_220000.xml",
      "title": "気象特別警報・警報・注意報",
      "content": "【静岡県気象警報・注意報】中部、西部では、１９日夕方まで強風に注意してください。西部では、２１日まで空気の乾燥した状態が続くため、火の取り扱いに注意してください。",
      "observedAt": "2026-02-18T22:42:22.000Z",
      "placeCountry": "日本",
      "placePref": "静岡県",
      "placeCity": null,
      "latitude": 34.9332488,
      "longitude": 138.0955398
    },
    {
      "originId": "https://www.data.jma.go.jp/developer/xml/data/20260218222130_0_VPWW53_380000.xml",
      "title": "気象特別警報・警報・注意報",
      "content": "【愛媛県気象警報・注意報】注意報を解除します。",
      "observedAt": "2026-02-18T22:21:30.000Z",
      "placeCountry": "日本",
      "placePref": "愛媛県",
      "placeCity": null,
      "latitude": 33.6013646,
      "longitude": 132.8185275
    },
    {
      "originId": "https://www.data.jma.go.jp/developer/xml/data/20260218220038_0_VPWW53_460100.xml",
      "title": "気象特別警報・警報・注意報",
      "content": "【鹿児島県（奄美地方を除く）気象警報・注意報】薩摩、大隅、種子島・屋久島地方では、１９日まで空気の乾燥した状態が続くため、火の取り扱いに注意してください。",
      "observedAt": "2026-02-18T22:00:37.000Z",
      "placeCountry": "日本",
      "placePref": "鹿児島県",
      "placeCity": null,
      "latitude": 31.521587,
      "longitude": 130.5474077
    },
    {
      "originId": "https://www.data.jma.go.jp/developer/xml/data/20260218210107_0_VPWW53_090000.xml",
      "title": "気象特別警報・警報・注意報",
      "content": "【栃木県気象警報・注意報】栃木県では、２１日まで空気の乾燥した状態が続くため、火の取り扱いに注意してください。",
      "observedAt": "2026-02-18T21:01:07.000Z",
      "placeCountry": "日本",
      "placePref": "栃木県",
      "placeCity": null,
      "latitude": 36.6782167,
      "longitude": 139.8096549
    },
    {
      "originId": "https://www.data.jma.go.jp/developer/xml/data/20260218205504_0_VPWW53_150000.xml",
      "title": "気象特別警報・警報・注意報",
      "content": "【新潟県気象警報・注意報】中越、上越では１９日夜のはじめ頃まで、下越、佐渡では１９日夜遅くまで、高波に注意してください。",
      "observedAt": "2026-02-18T20:55:03.000Z",
      "placeCountry": "日本",
      "placePref": "新潟県",
      "placeCity": null,
      "latitude": 37.6452283,
      "longitude": 138.7669125
    },
    {
      "originId": "https://www.data.jma.go.jp/developer/xml/data/20260218205339_0_VPWW53_120000.xml",
      "title": "気象特別警報・警報・注意報",
      "content": "【千葉県気象警報・注意報】北西部、南部では、１９日昼前まで強風や高波に注意してください。千葉県では、１９日まで空気の乾燥した状態が続くため、火の取り扱いに注意してください。",
      "observedAt": "2026-02-18T20:53:38.000Z",
      "placeCountry": "日本",
      "placePref": "千葉県",
      "placeCity": null,
      "latitude": 35.549399,
      "longitude": 140.2647303
    },
    {
      "originId": "https://www.data.jma.go.jp/developer/xml/data/20260218201616_0_VPWW53_430000.xml",
      "title": "気象特別警報・警報・注意報",
      "content": "【熊本県気象警報・注意報】熊本県では、１９日まで空気の乾燥した状態が続くため、火の取り扱いに注意してください。球磨地方では、１９日まで低温に注意してください。",
      "observedAt": "2026-02-18T20:16:15.000Z",
      "placeCountry": "日本",
      "placePref": "熊本県",
      "placeCity": null,
      "latitude": 32.6450475,
      "longitude": 130.6341345
    },
    {
      "originId": "https://www.data.jma.go.jp/developer/xml/data/20260218200930_0_VPWW53_420000.xml",
      "title": "気象特別警報・警報・注意報",
      "content": "【長崎県気象警報・注意報】南部、北部、五島では、１９日まで空気の乾燥した状態が続くため、火の取り扱いに注意してください。",
      "observedAt": "2026-02-18T20:09:29.000Z",
      "placeCountry": "日本",
      "placePref": "長崎県",
      "placeCity": null,
      "latitude": 33.1154683,
      "longitude": 129.7874339
    },
    {
      "originId": "https://www.data.jma.go.jp/developer/xml/data/20260218193445_0_VPWW53_460040.xml",
      "title": "気象特別警報・警報・注意報",
      "content": "【奄美地方（鹿児島県）気象警報・注意報】注意報を解除します。",
      "observedAt": "2026-02-18T19:34:44.000Z",
      "placeCountry": "日本",
      "placePref": "鹿児島県",
      "placeCity": null,
      "latitude": 31.521587,
      "longitude": 130.5474077
    },
    {
      "originId": "https://www.data.jma.go.jp/developer/xml/data/20260218193358_0_VPWW53_460100.xml",
      "title": "気象特別警報・警報・注意報",
      "content": "【鹿児島県（奄美地方を除く）気象警報・注意報】薩摩、大隅、種子島・屋久島地方では、空気の乾燥した状態が続くため、火の取り扱いに注意してください。種子島・屋久島地方では、霜に対する農作物の管理に注意してください。",
      "observedAt": "2026-02-18T19:33:58.000Z",
      "placeCountry": "日本",
      "placePref": "鹿児島県",
      "placeCity": null,
      "latitude": 31.521587,
      "longitude": 130.5474077
    }
  ]
}