{
  "generatedAt": "2026-03-08T10:09:47.352Z",
  "timeZone": "Asia/Tokyo",
  "hourPath": "2026/03/08/19",
  "source": "http://www.data.jma.go.jp/developer/xml/feed/extra.xml",
  "totalItems": 57,
  "items": [
    {
      "originId": "https://www.data.jma.go.jp/developer/xml/data/20260308085330_0_VPWW53_260000.xml",
      "title": "気象特別警報・警報・注意報",
      "content": "【京都府気象警報・注意報】注意報を解除します。",
      "observedAt": "2026-03-08T08:53:29.000Z",
      "placeCountry": "日本",
      "placePref": "京都府",
      "placeCity": null,
      "latitude": 35.242552,
      "longitude": 135.454601
    },
    {
      "originId": "https://www.data.jma.go.jp/developer/xml/data/20260308083821_0_VPWW53_130000.xml",
      "title": "気象特別警報・警報・注意報",
      "content": "【東京都気象警報・注意報】伊豆諸島南部、小笠原諸島では高波に、東京地方では空気の乾燥した状態が続くため、火の取り扱いに、伊豆諸島北部、伊豆諸島南部では霜に対する農作物の管理に注意してください。",
      "observedAt": "2026-03-08T08:38:21.000Z",
      "placeCountry": "日本",
      "placePref": "東京都",
      "placeCity": null,
      "latitude": 35.6828387,
      "longitude": 139.7594549
    },
    {
      "originId": "https://www.data.jma.go.jp/developer/xml/data/20260308082324_0_VPWW53_180000.xml",
      "title": "気象特別警報・警報・注意報",
      "content": "【福井県気象警報・注意報】福井県では、８日夜遅くまで高波に注意してください。",
      "observedAt": "2026-03-08T08:23:23.000Z",
      "placeCountry": "日本",
      "placePref": "福井県",
      "placeCity": null,
      "latitude": 35.9263502,
      "longitude": 136.6068127
    },
    {
      "originId": "https://www.data.jma.go.jp/developer/xml/data/20260308081341_0_VPWW53_070000.xml",
      "title": "気象特別警報・警報・注意報",
      "content": "【福島県気象警報・注意報】浜通りでは、９日まで空気の乾燥した状態が続くため、火の取り扱いに注意してください。",
      "observedAt": "2026-03-08T08:13:40.000Z",
      "placeCountry": "日本",
      "placePref": "福島県",
      "placeCity": null,
      "latitude": 37.3662591,
      "longitude": 140.2511854
    },
    {
      "originId": "https://www.data.jma.go.jp/developer/xml/data/20260308080344_0_VPWW53_040000.xml",
      "title": "気象特別警報・警報・注意報",
      "content": "【宮城県気象警報・注意報】宮城県では、１０日まで空気の乾燥した状態が続くため、火の取り扱いに注意してください。西部では、ここしばらくなだれに注意してください。",
      "observedAt": "2026-03-08T08:03:43.000Z",
      "placeCountry": "日本",
      "placePref": "宮城県",
      "placeCity": null,
      "latitude": 38.3880155,
      "longitude": 140.9761025
    },
    {
      "originId": "https://www.data.jma.go.jp/developer/xml/data/20260308070706_0_VPWW53_280000.xml",
      "title": "気象特別警報・警報・注意報",
      "content": "【兵庫県気象警報・注意報】南部では、１０日まで空気の乾燥した状態が続くため、火の取り扱いに注意してください。兵庫県では、１０日までなだれに注意してください。",
      "observedAt": "2026-03-08T07:07:05.000Z",
      "placeCountry": "日本",
      "placePref": "兵庫県",
      "placeCity": null,
      "latitude": 34.914934,
      "longitude": 134.860666
    },
    {
      "originId": "https://www.data.jma.go.jp/developer/xml/data/20260308070639_0_VPWW53_020000.xml",
      "title": "気象特別警報・警報・注意報",
      "content": "【青森県気象警報・注意報】津軽では、８日夜遅くまで高波に注意してください。津軽、三八上北では、８日までなだれに注意してください。",
      "observedAt": "2026-03-08T07:06:39.000Z",
      "placeCountry": "日本",
      "placePref": "青森県",
      "placeCity": null,
      "latitude": 40.886943,
      "longitude": 140.590121
    },
    {
      "originId": "https://www.data.jma.go.jp/developer/xml/data/20260308070623_0_VPWW53_140000.xml",
      "title": "気象特別警報・警報・注意報",
      "content": "【神奈川県気象警報・注意報】神奈川県では、９日まで空気の乾燥した状態が続くため、火の取り扱いに注意してください。",
      "observedAt": "2026-03-08T07:06:22.000Z",
      "placeCountry": "日本",
      "placePref": "神奈川県",
      "placeCity": null,
      "latitude": 35.4342935,
      "longitude": 139.374753
    },
    {
      "originId": "https://www.data.jma.go.jp/developer/xml/data/20260308070617_0_VPWW53_170000.xml",
      "title": "気象特別警報・警報・注意報",
      "content": "【石川県気象警報・注意報】能登では、８日夜遅くまで高波に注意してください。",
      "observedAt": "2026-03-08T07:06:17.000Z",
      "placeCountry": "日本",
      "placePref": "石川県",
      "placeCity": null,
      "latitude": 36.9888678,
      "longitude": 136.8163563
    },
    {
      "originId": "https://www.data.jma.go.jp/developer/xml/data/20260308070546_0_VPWW53_130000.xml",
      "title": "気象特別警報・警報・注意報",
      "content": "【東京都気象警報・注意報】伊豆諸島南部、小笠原諸島では高波に、東京地方では空気の乾燥した状態が続くため、火の取り扱いに、伊豆諸島北部、伊豆諸島南部では霜に対する農作物の管理に注意してください。",
      "observedAt": "2026-03-08T07:05:45.000Z",
      "placeCountry": "日本",
      "placePref": "東京都",
      "placeCity": null,
      "latitude": 35.6828387,
      "longitude": 139.7594549
    },
    {
      "originId": "https://www.data.jma.go.jp/developer/xml/data/20260308070419_0_VPWW53_120000.xml",
      "title": "気象特別警報・警報・注意報",
      "content": "【千葉県気象警報・注意報】北東部、南部では、８日夜遅くまで高波に注意してください。千葉県では、９日まで空気の乾燥した状態が続くため、火の取り扱いに注意してください。",
      "observedAt": "2026-03-08T07:04:18.000Z",
      "placeCountry": "日本",
      "placePref": "千葉県",
      "placeCity": null,
      "latitude": 35.549399,
      "longitude": 140.2647303
    },
    {
      "originId": "https://www.data.jma.go.jp/developer/xml/data/20260308070349_0_VPWW53_100000.xml",
      "title": "気象特別警報・警報・注意報",
      "content": "【群馬県気象警報・注意報】群馬県では、９日まで空気の乾燥した状態が続くため、火の取り扱いに注意してください。",
      "observedAt": "2026-03-08T07:03:49.000Z",
      "placeCountry": "日本",
      "placePref": "群馬県",
      "placeCity": null,
      "latitude": 36.52198,
      "longitude": 139.033483
    },
    {
      "originId": "https://www.data.jma.go.jp/developer/xml/data/20260308070337_0_VPWW53_030000.xml",
      "title": "気象特別警報・警報・注意報",
      "content": "【岩手県気象警報・注意報】注意報を解除します。",
      "observedAt": "2026-03-08T07:03:37.000Z",
      "placeCountry": "日本",
      "placePref": "岩手県",
      "placeCity": null,
      "latitude": 39.5713763,
      "longitude": 141.4253574
    },
    {
      "originId": "https://www.data.jma.go.jp/developer/xml/data/20260308070332_0_VPWW53_160000.xml",
      "title": "気象特別警報・警報・注意報",
      "content": "【富山県気象警報・注意報】東部では、９日明け方まで高波に注意してください。富山県では、９日まで低温に注意してください。",
      "observedAt": "2026-03-08T07:03:31.000Z",
      "placeCountry": "日本",
      "placePref": "富山県",
      "placeCity": null,
      "latitude": 36.6468015,
      "longitude": 137.2183531
    },
    {
      "originId": "https://www.data.jma.go.jp/developer/xml/data/20260308070310_0_VPWW53_090000.xml",
      "title": "気象特別警報・警報・注意報",
      "content": "【栃木県気象警報・注意報】栃木県では、９日まで空気の乾燥した状態が続くため、火の取り扱いに注意してください。",
      "observedAt": "2026-03-08T07:03:10.000Z",
      "placeCountry": "日本",
      "placePref": "栃木県",
      "placeCity": null,
      "latitude": 36.6782167,
      "longitude": 139.8096549
    },
    {
      "originId": "https://www.data.jma.go.jp/developer/xml/data/20260308070309_0_VPWW53_080000.xml",
      "title": "気象特別警報・警報・注意報",
      "content": "【茨城県気象警報・注意報】南部では、８日夜遅くまで高波に注意してください。茨城県では、９日まで空気の乾燥した状態が続くため、火の取り扱いに注意してください。",
      "observedAt": "2026-03-08T07:03:08.000Z",
      "placeCountry": "日本",
      "placePref": "茨城県",
      "placeCity": null,
      "latitude": 36.2869536,
      "longitude": 140.4703384
    },
    {
      "originId": "https://www.data.jma.go.jp/developer/xml/data/20260308065112_0_VPWW53_150000.xml",
      "title": "気象特別警報・警報・注意報",
      "content": "【新潟県気象警報・注意報】中越、上越では８日夜遅くまで、下越、佐渡では９日明け方まで、高波に注意してください。",
      "observedAt": "2026-03-08T06:51:11.000Z",
      "placeCountry": "日本",
      "placePref": "新潟県",
      "placeCity": null,
      "latitude": 37.6452283,
      "longitude": 138.7669125
    },
    {
      "originId": "https://www.data.jma.go.jp/developer/xml/data/20260308065005_0_VPWW53_300000.xml",
      "title": "気象特別警報・警報・注意報",
      "content": "【和歌山県気象警報・注意報】和歌山県では、１０日まで空気の乾燥した状態が続くため、火の取り扱いに、９日朝は霜に対する農作物の管理に注意してください。",
      "observedAt": "2026-03-08T06:50:04.000Z",
      "placeCountry": "日本",
      "placePref": "和歌山県",
      "placeCity": null,
      "latitude": 33.8070292,
      "longitude": 135.5930743
    },
    {
      "originId": "https://www.data.jma.go.jp/developer/xml/data/20260308064547_0_VPWW53_350000.xml",
      "title": "気象特別警報・警報・注意報",
      "content": "【山口県気象警報・注意報】山口県では、１０日まで空気の乾燥した状態が続くため、火の取り扱いに注意してください。中部、東部では、９日まで低温に注意してください。",
      "observedAt": "2026-03-08T06:45:47.000Z",
      "placeCountry": "日本",
      "placePref": "山口県",
      "placeCity": null,
      "latitude": 34.2379614,
      "longitude": 131.5873845
    },
    {
      "originId": "https://www.data.jma.go.jp/developer/xml/data/20260308063322_0_VPWW53_220000.xml",
      "title": "気象特別警報・警報・注意報",
      "content": "【静岡県気象警報・注意報】中部、西部では、８日夜のはじめ頃まで強風に注意してください。",
      "observedAt": "2026-03-08T06:33:21.000Z",
      "placeCountry": "日本",
      "placePref": "静岡県",
      "placeCity": null,
      "latitude": 34.9332488,
      "longitude": 138.0955398
    },
    {
      "originId": "https://www.data.jma.go.jp/developer/xml/data/20260308063314_0_VPWW53_320000.xml",
      "title": "気象特別警報・警報・注意報",
      "content": "【島根県気象警報・注意報】注意報を解除します。",
      "observedAt": "2026-03-08T06:33:13.000Z",
      "placeCountry": "日本",
      "placePref": "島根県",
      "placeCity": null,
      "latitude": 34.9418212,
      "longitude": 132.537439
    },
    {
      "originId": "https://www.data.jma.go.jp/developer/xml/data/20260308063311_0_VPWW53_310000.xml",
      "title": "気象特別警報・警報・注意報",
      "content": "【鳥取県気象警報・注意報】鳥取県では、１０日までなだれに注意してください。",
      "observedAt": "2026-03-08T06:33:11.000Z",
      "placeCountry": "日本",
      "placePref": "鳥取県",
      "placeCity": null,
      "latitude": 35.3555075,
      "longitude": 133.8678525
    },
    {
      "originId": "https://www.data.jma.go.jp/developer/xml/data/20260308063214_0_VPWW53_250000.xml",
      "title": "気象特別警報・警報・注意報",
      "content": "【滋賀県気象警報・注意報】北部では、９日までなだれに注意してください。",
      "observedAt": "2026-03-08T06:32:13.000Z",
      "placeCountry": "日本",
      "placePref": "滋賀県",
      "placeCity": null,
      "latitude": 35.247154,
      "longitude": 136.109385
    },
    {
      "originId": "https://www.data.jma.go.jp/developer/xml/data/20260308060515_0_VPWW53_190000.xml",
      "title": "気象特別警報・警報・注意報",
      "content": "【山梨県気象警報・注意報】中・西部では、９日まで空気の乾燥した状態が続くため、火の取り扱いに注意してください。山梨県では、９日朝は霜に対する農作物の管理に注意してください。",
      "observedAt": "2026-03-08T06:05:14.000Z",
      "placeCountry": "日本",
      "placePref": "山梨県",
      "placeCity": null,
      "latitude": 35.6399328,
      "longitude": 138.6380495
    },
    {
      "originId": "https://www.data.jma.go.jp/developer/xml/data/20260308054036_0_VPWW53_240000.xml",
      "title": "気象特別警報・警報・注意報",
      "content": "【三重県気象警報・注意報】三重県では、強風や霜に対する農作物の管理に注意してください。南部では、空気の乾燥した状態が続くため、火の取り扱いに注意してください。",
      "observedAt": "2026-03-08T05:40:35.000Z",
      "placeCountry": "日本",
      "placePref": "三重県",
      "placeCity": null,
      "latitude": 34.7339685,
      "longitude": 136.5154489
    },
    {
      "originId": "https://www.data.jma.go.jp/developer/xml/data/20260308053919_0_VPWW53_210000.xml",
      "title": "気象特別警報・警報・注意報",
      "content": "【岐阜県気象警報・注意報】美濃地方では、９日まで空気の乾燥した状態が続くため、火の取り扱いに、９日朝は霜に対する農作物の管理に注意してください。",
      "observedAt": "2026-03-08T05:39:19.000Z",
      "placeCountry": "日本",
      "placePref": "岐阜県",
      "placeCity": null,
      "latitude": 35.7867449,
      "longitude": 137.0460777
    },
    {
      "originId": "https://www.data.jma.go.jp/developer/xml/data/20260308053903_0_VPWW53_130000.xml",
      "title": "気象特別警報・警報・注意報",
      "content": "【東京都気象警報・注意報】東京地方では強風と、空気の乾燥した状態が続くため火の取り扱いに、東京都では高波に、伊豆諸島北部、伊豆諸島南部では霜に対する農作物の管理に注意してください。",
      "observedAt": "2026-03-08T05:39:02.000Z",
      "placeCountry": "日本",
      "placePref": "東京都",
      "placeCity": null,
      "latitude": 35.6828387,
      "longitude": 139.7594549
    },
    {
      "originId": "https://www.data.jma.go.jp/developer/xml/data/20260308053048_0_VPWW53_150000.xml",
      "title": "気象特別警報・警報・注意報",
      "content": "【新潟県気象警報・注意報】中越、上越では９日明け方まで、下越、佐渡では９日朝まで、高波に注意してください。",
      "observedAt": "2026-03-08T05:30:47.000Z",
      "placeCountry": "日本",
      "placePref": "新潟県",
      "placeCity": null,
      "latitude": 37.6452283,
      "longitude": 138.7669125
    },
    {
      "originId": "https://www.data.jma.go.jp/developer/xml/data/20260308034618_0_VPWW53_020000.xml",
      "title": "気象特別警報・警報・注意報",
      "content": "【青森県気象警報・注意報】三八上北では、強風に注意してください。津軽、三八上北では、大雪やなだれに注意してください。青森県では、高波に注意してください。",
      "observedAt": "2026-03-08T03:46:17.000Z",
      "placeCountry": "日本",
      "placePref": "青森県",
      "placeCity": null,
      "latitude": 40.886943,
      "longitude": 140.590121
    },
    {
      "originId": "https://www.data.jma.go.jp/developer/xml/data/20260308023334_0_VPWW53_130000.xml",
      "title": "気象特別警報・警報・注意報",
      "content": "【東京都気象警報・注意報】東京地方、伊豆諸島南部では、強風に注意してください。東京都では、高波に注意してください。東京地方では、空気の乾燥した状態が続くため、火の取り扱いに注意してください。",
      "observedAt": "2026-03-08T02:33:33.000Z",
      "placeCountry": "日本",
      "placePref": "東京都",
      "placeCity": null,
      "latitude": 35.6828387,
      "longitude": 139.7594549
    },
    {
      "originId": "https://www.data.jma.go.jp/developer/xml/data/20260308022521_0_VPWW53_120000.xml",
      "title": "気象特別警報・警報・注意報",
      "content": "【千葉県気象警報・注意報】北西部、南部では、８日夕方まで強風に注意してください。千葉県では、８日夕方まで高波に、８日まで空気の乾燥した状態が続くため、火の取り扱いに注意してください。",
      "observedAt": "2026-03-08T02:25:20.000Z",
      "placeCountry": "日本",
      "placePref": "千葉県",
      "placeCity": null,
      "latitude": 35.549399,
      "longitude": 140.2647303
    },
    {
      "originId": "https://www.data.jma.go.jp/developer/xml/data/20260308021124_0_VPWW53_070000.xml",
      "title": "気象特別警報・警報・注意報",
      "content": "【福島県気象警報・注意報】福島県では、８日夕方まで強風に注意してください。浜通りでは、９日まで空気の乾燥した状態が続くため、火の取り扱いに注意してください。",
      "observedAt": "2026-03-08T02:11:24.000Z",
      "placeCountry": "日本",
      "placePref": "福島県",
      "placeCity": null,
      "latitude": 37.3662591,
      "longitude": 140.2511854
    },
    {
      "originId": "https://www.data.jma.go.jp/developer/xml/data/20260308014411_0_VPWW53_060000.xml",
      "title": "気象特別警報・警報・注意報",
      "content": "【山形県気象警報・注意報】庄内では、９日明け方まで高波に注意してください。",
      "observedAt": "2026-03-08T01:44:10.000Z",
      "placeCountry": "日本",
      "placePref": "山形県",
      "placeCity": null,
      "latitude": 38.4746705,
      "longitude": 140.083237
    },
    {
      "originId": "https://www.data.jma.go.jp/developer/xml/data/20260308011927_0_VPWW53_460100.xml",
      "title": "気象特別警報・警報・注意報",
      "content": "【鹿児島県（奄美地方を除く）気象警報・注意報】薩摩、大隅地方では、９日朝は霜に対する農作物の管理に注意してください。",
      "observedAt": "2026-03-08T01:19:26.000Z",
      "placeCountry": "日本",
      "placePref": "鹿児島県",
      "placeCity": null,
      "latitude": 31.521587,
      "longitude": 130.5474077
    },
    {
      "originId": "https://www.data.jma.go.jp/developer/xml/data/20260308011541_0_VPWW53_400000.xml",
      "title": "気象特別警報・警報・注意報",
      "content": "【福岡県気象警報・注意報】福岡県では、９日朝は霜に対する農作物の管理に注意してください。",
      "observedAt": "2026-03-08T01:15:41.000Z",
      "placeCountry": "日本",
      "placePref": "福岡県",
      "placeCity": null,
      "latitude": 33.6251241,
      "longitude": 130.6180016
    },
    {
      "originId": "https://www.data.jma.go.jp/developer/xml/data/20260308011535_0_VPWW53_350000.xml",
      "title": "気象特別警報・警報・注意報",
      "content": "【山口県気象警報・注意報】西部、北部では、高波に注意してください。山口県では、空気の乾燥した状態が続くため、火の取り扱いに注意してください。中部、東部では、低温に注意してください。",
      "observedAt": "2026-03-08T01:15:34.000Z",
      "placeCountry": "日本",
      "placePref": "山口県",
      "placeCity": null,
      "latitude": 34.2379614,
      "longitude": 131.5873845
    },
    {
      "originId": "https://www.data.jma.go.jp/developer/xml/data/20260308011130_0_VPWW53_320000.xml",
      "title": "気象特別警報・警報・注意報",
      "content": "【島根県気象警報・注意報】東部、隠岐では、８日夕方まで高波に注意してください。",
      "observedAt": "2026-03-08T01:11:29.000Z",
      "placeCountry": "日本",
      "placePref": "島根県",
      "placeCity": null,
      "latitude": 34.9418212,
      "longitude": 132.537439
    },
    {
      "originId": "https://www.data.jma.go.jp/developer/xml/data/20260308011019_0_VPWW53_370000.xml",
      "title": "気象特別警報・警報・注意報",
      "content": "【香川県気象警報・注意報】香川県では、９日朝は霜に対する農作物の管理に注意してください。",
      "observedAt": "2026-03-08T01:10:18.000Z",
      "placeCountry": "日本",
      "placePref": "香川県",
      "placeCity": null,
      "latitude": 34.2480104,
      "longitude": 134.0586579
    },
    {
      "originId": "https://www.data.jma.go.jp/developer/xml/data/20260308011006_0_VPWW53_270000.xml",
      "title": "気象特別警報・警報・注意報",
      "content": "【大阪府気象警報・注意報】大阪府では、１０日まで空気の乾燥した状態が続くため、火の取り扱いに、９日朝は霜に対する農作物の管理に注意してください。",
      "observedAt": "2026-03-08T01:10:05.000Z",
      "placeCountry": "日本",
      "placePref": "大阪府",
      "placeCity": null,
      "latitude": 34.6198813,
      "longitude": 135.490357
    },
    {
      "originId": "https://www.data.jma.go.jp/developer/xml/data/20260308010842_0_VPWW53_140000.xml",
      "title": "気象特別警報・警報・注意報",
      "content": "【神奈川県気象警報・注意報】東部では、８日夕方まで強風に注意してください。神奈川県では、９日まで空気の乾燥した状態が続くため、火の取り扱いに注意してください。",
      "observedAt": "2026-03-08T01:08:41.000Z",
      "placeCountry": "日本",
      "placePref": "神奈川県",
      "placeCity": null,
      "latitude": 35.4342935,
      "longitude": 139.374753
    },
    {
      "originId": "https://www.data.jma.go.jp/developer/xml/data/20260308010819_0_VPWW53_380000.xml",
      "title": "気象特別警報・警報・注意報",
      "content": "【愛媛県気象警報・注意報】愛媛県では、９日朝は霜に対する農作物の管理に注意してください。",
      "observedAt": "2026-03-08T01:08:19.000Z",
      "placeCountry": "日本",
      "placePref": "愛媛県",
      "placeCity": null,
      "latitude": 33.6013646,
      "longitude": 132.8185275
    },
    {
      "originId": "https://www.data.jma.go.jp/developer/xml/data/20260308010817_0_VPWW53_360000.xml",
      "title": "気象特別警報・警報・注意報",
      "content": "【徳島県気象警報・注意報】徳島県では、９日朝は霜に対する農作物の管理に注意してください。",
      "observedAt": "2026-03-08T01:08:17.000Z",
      "placeCountry": "日本",
      "placePref": "徳島県",
      "placeCity": null,
      "latitude": 33.9196418,
      "longitude": 134.2509634
    },
    {
      "originId": "https://www.data.jma.go.jp/developer/xml/data/20260308010809_0_VPWW53_390000.xml",
      "title": "気象特別警報・警報・注意報",
      "content": "【高知県気象警報・注意報】西部では、１０日まで空気の乾燥した状態が続くため、火の取り扱いに注意してください。高知県では、９日朝は霜に対する農作物の管理に注意してください。",
      "observedAt": "2026-03-08T01:08:08.000Z",
      "placeCountry": "日本",
      "placePref": "高知県",
      "placeCity": null,
      "latitude": 33.6569018,
      "longitude": 133.5606241
    },
    {
      "originId": "https://www.data.jma.go.jp/developer/xml/data/20260308010624_0_VPWW53_130000.xml",
      "title": "気象特別警報・警報・注意報",
      "content": "【東京都気象警報・注意報】東京地方、伊豆諸島南部では、強風に注意してください。東京都では、高波に注意してください。東京地方では、空気の乾燥した状態が続くため、火の取り扱いに注意してください。",
      "observedAt": "2026-03-08T01:06:23.000Z",
      "placeCountry": "日本",
      "placePref": "東京都",
      "placeCity": null,
      "latitude": 35.6828387,
      "longitude": 139.7594549
    },
    {
      "originId": "https://www.data.jma.go.jp/developer/xml/data/20260308010612_0_VPWW53_050000.xml",
      "title": "気象特別警報・警報・注意報",
      "content": "【秋田県気象警報・注意報】沿岸では、９日明け方まで高波に注意してください。",
      "observedAt": "2026-03-08T01:06:11.000Z",
      "placeCountry": "日本",
      "placePref": "秋田県",
      "placeCity": null,
      "latitude": 39.6898802,
      "longitude": 140.342608
    },
    {
      "originId": "https://www.data.jma.go.jp/developer/xml/data/20260308010521_0_VPWW53_430000.xml",
      "title": "気象特別警報・警報・注意報",
      "content": "【熊本県気象警報・注意報】熊本県では、１０日まで空気の乾燥した状態が続くため、火の取り扱いに、９日朝は霜に対する農作物の管理に注意してください。熊本、阿蘇、球磨地方では、９日まで低温に注意してください。",
      "observedAt": "2026-03-08T01:05:20.000Z",
      "placeCountry": "日本",
      "placePref": "熊本県",
      "placeCity": null,
      "latitude": 32.6450475,
      "longitude": 130.6341345
    },
    {
      "originId": "https://www.data.jma.go.jp/developer/xml/data/20260308010518_0_VPWW53_440000.xml",
      "title": "気象特別警報・警報・注意報",
      "content": "【大分県気象警報・注意報】大分県では、１０日まで空気の乾燥した状態が続くため、火の取り扱いに、９日朝は霜に対する農作物の管理に注意してください。",
      "observedAt": "2026-03-08T01:05:17.000Z",
      "placeCountry": "日本",
      "placePref": "大分県",
      "placeCity": null,
      "latitude": 33.1819875,
      "longitude": 131.4270217
    },
    {
      "originId": "https://www.data.jma.go.jp/developer/xml/data/20260308010446_0_VPWW53_080000.xml",
      "title": "気象特別警報・警報・注意報",
      "content": "【茨城県気象警報・注意報】南部では、８日夕方まで高波に注意してください。茨城県では、９日まで空気の乾燥した状態が続くため、火の取り扱いに注意してください。",
      "observedAt": "2026-03-08T01:04:45.000Z",
      "placeCountry": "日本",
      "placePref": "茨城県",
      "placeCity": null,
      "latitude": 36.2869536,
      "longitude": 140.4703384
    },
    {
      "originId": "https://www.data.jma.go.jp/developer/xml/data/20260308010357_0_VPWW53_410000.xml",
      "title": "気象特別警報・警報・注意報",
      "content": "【佐賀県気象警報・注意報】佐賀県では、９日朝は霜に対する農作物の管理に注意してください。",
      "observedAt": "2026-03-08T01:03:57.000Z",
      "placeCountry": "日本",
      "placePref": "佐賀県",
      "placeCity": null,
      "latitude": 33.2185408,
      "longitude": 130.1296585
    },
    {
      "originId": "https://www.data.jma.go.jp/developer/xml/data/20260308010358_0_VPWW53_420000.xml",
      "title": "気象特別警報・警報・注意報",
      "content": "【長崎県気象警報・注意報】南部、北部では、１０日まで空気の乾燥した状態が続くため、火の取り扱いに注意してください。長崎県では、９日朝は霜に対する農作物の管理に注意してください。",
      "observedAt": "2026-03-08T01:03:57.000Z",
      "placeCountry": "日本",
      "placePref": "長崎県",
      "placeCity": null,
      "latitude": 33.1154683,
      "longitude": 129.7874339
    },
    {
      "originId": "https://www.data.jma.go.jp/developer/xml/data/20260308010351_0_VPWW53_020000.xml",
      "title": "気象特別警報・警報・注意報",
      "content": "【青森県気象警報・注意報】津軽、三八上北では、８日夕方まで大雪に、８日までなだれに注意してください。下北、三八上北では８日夕方まで、津軽では８日夜遅くまで、高波に注意してください。",
      "observedAt": "2026-03-08T01:03:50.000Z",
      "placeCountry": "日本",
      "placePref": "青森県",
      "placeCity": null,
      "latitude": 40.886943,
      "longitude": 140.590121
    },
    {
      "originId": "https://www.data.jma.go.jp/developer/xml/data/20260308010322_0_VPWW53_450000.xml",
      "title": "気象特別警報・警報・注意報",
      "content": "【宮崎県気象警報・注意報】宮崎県では、９日朝は霜に対する農作物の管理に注意してください。",
      "observedAt": "2026-03-08T01:03:22.000Z",
      "placeCountry": "日本",
      "placePref": "宮崎県",
      "placeCity": null,
      "latitude": 32.097681,
      "longitude": 131.294542
    },
    {
      "originId": "https://www.data.jma.go.jp/developer/xml/data/20260308005540_0_VPWW53_030000.xml",
      "title": "気象特別警報・警報・注意報",
      "content": "【岩手県気象警報・注意報】沿岸北部では、８日夕方まで強風に注意してください。沿岸南部では、８日まで空気の乾燥した状態が続くため、火の取り扱いに注意してください。",
      "observedAt": "2026-03-08T00:55:39.000Z",
      "placeCountry": "日本",
      "placePref": "岩手県",
      "placeCity": null,
      "latitude": 39.5713763,
      "longitude": 141.4253574
    },
    {
      "originId": "https://www.data.jma.go.jp/developer/xml/data/20260308004422_0_VPWW53_040000.xml",
      "title": "気象特別警報・警報・注意報",
      "content": "【宮城県気象警報・注意報】東部では、８日夕方まで強風に注意してください。宮城県では、１０日まで空気の乾燥した状態が続くため、火の取り扱いに注意してください。西部では、ここしばらくなだれに注意してください。",
      "observedAt": "2026-03-08T00:44:21.000Z",
      "placeCountry": "日本",
      "placePref": "宮城県",
      "placeCity": null,
      "latitude": 38.3880155,
      "longitude": 140.9761025
    },
    {
      "originId": "https://www.data.jma.go.jp/developer/xml/data/20260308004208_0_VPWW53_150000.xml",
      "title": "気象特別警報・警報・注意報",
      "content": "【新潟県気象警報・注意報】中越、上越では９日明け方まで、下越、佐渡では９日朝まで、高波に注意してください。下越では、８日昼過ぎまで落雷に注意してください。",
      "observedAt": "2026-03-08T00:42:08.000Z",
      "placeCountry": "日本",
      "placePref": "新潟県",
      "placeCity": null,
      "latitude": 37.6452283,
      "longitude": 138.7669125
    },
    {
      "originId": "https://www.data.jma.go.jp/developer/xml/data/20260308003831_0_VPWW53_290000.xml",
      "title": "気象特別警報・警報・注意報",
      "content": "【奈良県気象警報・注意報】奈良県では、９日朝は霜に対する農作物の管理に注意してください。",
      "observedAt": "2026-03-08T00:38:31.000Z",
      "placeCountry": "日本",
      "placePref": "奈良県",
      "placeCity": null,
      "latitude": 34.2963089,
      "longitude": 135.8816819
    },
    {
      "originId": "https://www.data.jma.go.jp/developer/xml/data/20260308003327_0_VPWW53_300000.xml",
      "title": "気象特別警報・警報・注意報",
      "content": "【和歌山県気象警報・注意報】南部では、８日夕方まで強風に注意してください。和歌山県では、１０日まで空気の乾燥した状態が続くため、火の取り扱いに、９日朝は霜に対する農作物の管理に注意してください。",
      "observedAt": "2026-03-08T00:33:26.000Z",
      "placeCountry": "日本",
      "placePref": "和歌山県",
      "placeCity": null,
      "latitude": 33.8070292,
      "longitude": 135.5930743
    }
  ]
}