{
  "generatedAt": "2026-05-09T18:27:52.481Z",
  "timeZone": "Asia/Tokyo",
  "hourPath": "2026/05/10/03",
  "source": "http://www.data.jma.go.jp/developer/xml/feed/extra.xml",
  "totalItems": 13,
  "items": [
    {
      "originId": "https://www.data.jma.go.jp/developer/xml/data/20260509182344_0_VPWW53_040000.xml",
      "title": "気象特別警報・警報・注意報",
      "content": "【宮城県気象警報・注意報】東部では、１０日昼前から１０日夕方まで強風に注意してください。宮城県では、１２日まで空気の乾燥した状態が続くため、火の取り扱いに注意してください。",
      "observedAt": "2026-05-09T18:23:44.000Z",
      "placeCountry": "日本",
      "placePref": "宮城県",
      "placeCity": null,
      "latitude": 38.3880155,
      "longitude": 140.9761025
    },
    {
      "originId": "https://www.data.jma.go.jp/developer/xml/data/20260509144505_0_VPWW53_150000.xml",
      "title": "気象特別警報・警報・注意報",
      "content": "【新潟県気象警報・注意報】注意報を解除します。",
      "observedAt": "2026-05-09T14:45:05.000Z",
      "placeCountry": "日本",
      "placePref": "新潟県",
      "placeCity": null,
      "latitude": 37.6452283,
      "longitude": 138.7669125
    },
    {
      "originId": "https://www.data.jma.go.jp/developer/xml/data/20260509120519_0_VPWW53_130000.xml",
      "title": "気象特別警報・警報・注意報",
      "content": "【東京都気象警報・注意報】小笠原諸島では、１０日明け方から１０日夜遅くまで高波に、１０日夜遅くまで急な強い雨や落雷に注意してください。",
      "observedAt": "2026-05-09T12:05:19.000Z",
      "placeCountry": "日本",
      "placePref": "東京都",
      "placeCity": null,
      "latitude": 35.6828387,
      "longitude": 139.7594549
    },
    {
      "originId": "https://www.data.jma.go.jp/developer/xml/data/20260509114008_0_VPWW53_040000.xml",
      "title": "気象特別警報・警報・注意報",
      "content": "【宮城県気象警報・注意報】宮城県では、１１日まで空気の乾燥した状態が続くため、火の取り扱いに注意してください。",
      "observedAt": "2026-05-09T11:40:08.000Z",
      "placeCountry": "日本",
      "placePref": "宮城県",
      "placeCity": null,
      "latitude": 38.3880155,
      "longitude": 140.9761025
    },
    {
      "originId": "https://www.data.jma.go.jp/developer/xml/data/20260509111655_0_VPWW53_060000.xml",
      "title": "気象特別警報・警報・注意報",
      "content": "【山形県気象警報・注意報】山形県では、１１日までなだれに注意してください。",
      "observedAt": "2026-05-09T11:16:55.000Z",
      "placeCountry": "日本",
      "placePref": "山形県",
      "placeCity": null,
      "latitude": 38.4746705,
      "longitude": 140.083237
    },
    {
      "originId": "https://www.data.jma.go.jp/developer/xml/data/20260509111654_0_VPWW53_050000.xml",
      "title": "気象特別警報・警報・注意報",
      "content": "【秋田県気象警報・注意報】注意報を解除します。",
      "observedAt": "2026-05-09T11:16:53.000Z",
      "placeCountry": "日本",
      "placePref": "秋田県",
      "placeCity": null,
      "latitude": 39.6898802,
      "longitude": 140.342608
    },
    {
      "originId": "https://www.data.jma.go.jp/developer/xml/data/20260509111211_0_VPWW53_030000.xml",
      "title": "気象特別警報・警報・注意報",
      "content": "【岩手県気象警報・注意報】岩手県では、空気の乾燥した状態が続くため、火の取り扱いに注意してください。内陸では、なだれに注意してください。内陸、沿岸北部では、霜に対する農作物の管理に注意してください。",
      "observedAt": "2026-05-09T11:12:10.000Z",
      "placeCountry": "日本",
      "placePref": "岩手県",
      "placeCity": null,
      "latitude": 39.5713763,
      "longitude": 141.4253574
    },
    {
      "originId": "https://www.data.jma.go.jp/developer/xml/data/20260509111209_0_VPWW53_020000.xml",
      "title": "気象特別警報・警報・注意報",
      "content": "【青森県気象警報・注意報】三八上北では、１１日まで空気の乾燥した状態が続くため、火の取り扱いに注意してください。津軽、三八上北では、ここしばらくなだれに注意してください。",
      "observedAt": "2026-05-09T11:12:08.000Z",
      "placeCountry": "日本",
      "placePref": "青森県",
      "placeCity": null,
      "latitude": 40.886943,
      "longitude": 140.590121
    },
    {
      "originId": "https://www.data.jma.go.jp/developer/xml/data/20260509104406_0_VPWW53_150000.xml",
      "title": "気象特別警報・警報・注意報",
      "content": "【新潟県気象警報・注意報】下越、佐渡では、９日夜遅くまで高波に注意してください。",
      "observedAt": "2026-05-09T10:44:05.000Z",
      "placeCountry": "日本",
      "placePref": "新潟県",
      "placeCity": null,
      "latitude": 37.6452283,
      "longitude": 138.7669125
    },
    {
      "originId": "https://www.data.jma.go.jp/developer/xml/data/20260509093947_0_VPWW53_090000.xml",
      "title": "気象特別警報・警報・注意報",
      "content": "【栃木県気象警報・注意報】北部では、１０日朝は霜に対する農作物の管理に注意してください。",
      "observedAt": "2026-05-09T09:39:46.000Z",
      "placeCountry": "日本",
      "placePref": "栃木県",
      "placeCity": null,
      "latitude": 36.6782167,
      "longitude": 139.8096549
    },
    {
      "originId": "https://www.data.jma.go.jp/developer/xml/data/20260509085207_0_VPWW53_150000.xml",
      "title": "気象特別警報・警報・注意報",
      "content": "【新潟県気象警報・注意報】中越、上越では９日夜のはじめ頃まで、下越、佐渡では９日夜遅くまで、高波に注意してください。下越、中越では、９日夜遅くまで竜巻などの激しい突風や急な強い雨、落雷に注意してください。",
      "observedAt": "2026-05-09T08:52:06.000Z",
      "placeCountry": "日本",
      "placePref": "新潟県",
      "placeCity": null,
      "latitude": 37.6452283,
      "longitude": 138.7669125
    },
    {
      "originId": "https://www.data.jma.go.jp/developer/xml/data/20260509084532_0_VPWW53_070000.xml",
      "title": "気象特別警報・警報・注意報",
      "content": "【福島県気象警報・注意報】中通りでは、ここしばらく空気の乾燥した状態が続くため、火の取り扱いに注意してください。会津では、１０日朝は霜に対する農作物の管理に注意してください。",
      "observedAt": "2026-05-09T08:45:31.000Z",
      "placeCountry": "日本",
      "placePref": "福島県",
      "placeCity": null,
      "latitude": 37.3662591,
      "longitude": 140.2511854
    },
    {
      "originId": "https://www.data.jma.go.jp/developer/xml/data/20260509083336_0_VPWW53_020000.xml",
      "title": "気象特別警報・警報・注意報",
      "content": "【青森県気象警報・注意報】三八上北では、強風と、空気の乾燥した状態が続くため火の取り扱いに注意してください。青森県では、高波に注意してください。津軽、三八上北では、なだれに注意してください。",
      "observedAt": "2026-05-09T08:33:35.000Z",
      "placeCountry": "日本",
      "placePref": "青森県",
      "placeCity": null,
      "latitude": 40.886943,
      "longitude": 140.590121
    }
  ]
}