{
  "generatedAt": "2026-03-19T18:25:28.206Z",
  "timeZone": "Asia/Tokyo",
  "hourPath": "2026/03/20/03",
  "source": "http://www.data.jma.go.jp/developer/xml/feed/extra.xml",
  "totalItems": 25,
  "items": [
    {
      "originId": "https://www.data.jma.go.jp/developer/xml/data/20260319172516_0_VPWW53_260000.xml",
      "title": "気象特別警報・警報・注意報",
      "content": "【京都府気象警報・注意報】京都府では、２０日昼前まで濃霧による視程障害に、２０日朝は霜に対する農作物の管理に注意してください。",
      "observedAt": "2026-03-19T17:25:16.000Z",
      "placeCountry": "日本",
      "placePref": "京都府",
      "placeCity": null,
      "latitude": 35.242552,
      "longitude": 135.454601
    },
    {
      "originId": "https://www.data.jma.go.jp/developer/xml/data/20260319162638_0_VPWW53_460100.xml",
      "title": "気象特別警報・警報・注意報",
      "content": "【鹿児島県（奄美地方を除く）気象警報・注意報】薩摩地方では、２０日昼前まで濃霧による視程障害に注意してください。薩摩、大隅地方では、２０日朝は霜に対する農作物の管理に注意してください。",
      "observedAt": "2026-03-19T16:26:37.000Z",
      "placeCountry": "日本",
      "placePref": "鹿児島県",
      "placeCity": null,
      "latitude": 31.521587,
      "longitude": 130.5474077
    },
    {
      "originId": "https://www.data.jma.go.jp/developer/xml/data/20260319155549_0_VPWW53_130000.xml",
      "title": "気象特別警報・警報・注意報",
      "content": "【東京都気象警報・注意報】伊豆諸島南部では２０日明け方まで、伊豆諸島北部では２０日昼前まで、高波に注意してください。",
      "observedAt": "2026-03-19T15:55:48.000Z",
      "placeCountry": "日本",
      "placePref": "東京都",
      "placeCity": null,
      "latitude": 35.6828387,
      "longitude": 139.7594549
    },
    {
      "originId": "https://www.data.jma.go.jp/developer/xml/data/20260319135052_0_VPWW53_230000.xml",
      "title": "気象特別警報・警報・注意報",
      "content": "【愛知県気象警報・注意報】東部では、２０日明け方まで強風に注意してください。愛知県では、２０日朝は霜に対する農作物の管理に注意してください。",
      "observedAt": "2026-03-19T13:50:51.000Z",
      "placeCountry": "日本",
      "placePref": "愛知県",
      "placeCity": null,
      "latitude": 34.9991645,
      "longitude": 137.254574
    },
    {
      "originId": "https://www.data.jma.go.jp/developer/xml/data/20260319134930_0_VPWW53_220000.xml",
      "title": "気象特別警報・警報・注意報",
      "content": "【静岡県気象警報・注意報】西部では、２０日明け方まで強風や高波に注意してください。中部、西部では、２０日朝は霜に対する農作物の管理に注意してください。",
      "observedAt": "2026-03-19T13:49:29.000Z",
      "placeCountry": "日本",
      "placePref": "静岡県",
      "placeCity": null,
      "latitude": 34.9332488,
      "longitude": 138.0955398
    },
    {
      "originId": "https://www.data.jma.go.jp/developer/xml/data/20260319134620_0_VPWW53_240000.xml",
      "title": "気象特別警報・警報・注意報",
      "content": "【三重県気象警報・注意報】南部では、２０日明け方まで強風に注意してください。三重県では、２０日朝は霜に対する農作物の管理に注意してください。",
      "observedAt": "2026-03-19T13:46:20.000Z",
      "placeCountry": "日本",
      "placePref": "三重県",
      "placeCity": null,
      "latitude": 34.7339685,
      "longitude": 136.5154489
    },
    {
      "originId": "https://www.data.jma.go.jp/developer/xml/data/20260319123811_0_VPWW53_350000.xml",
      "title": "気象特別警報・警報・注意報",
      "content": "【山口県気象警報・注意報】山口県では、２０日朝は霜に対する農作物の管理に注意してください。",
      "observedAt": "2026-03-19T12:38:10.000Z",
      "placeCountry": "日本",
      "placePref": "山口県",
      "placeCity": null,
      "latitude": 34.2379614,
      "longitude": 131.5873845
    },
    {
      "originId": "https://www.data.jma.go.jp/developer/xml/data/20260319123610_0_VPWW53_440000.xml",
      "title": "気象特別警報・警報・注意報",
      "content": "【大分県気象警報・注意報】大分県では、２０日未明から２０日昼前まで濃霧による視程障害に、２０日朝は霜に対する農作物の管理に注意してください。",
      "observedAt": "2026-03-19T12:36:09.000Z",
      "placeCountry": "日本",
      "placePref": "大分県",
      "placeCity": null,
      "latitude": 33.1819875,
      "longitude": 131.4270217
    },
    {
      "originId": "https://www.data.jma.go.jp/developer/xml/data/20260319121107_0_VPWW53_040000.xml",
      "title": "気象特別警報・警報・注意報",
      "content": "【宮城県気象警報・注意報】宮城県では、２１日まで空気の乾燥した状態が続くため、火の取り扱いに、２０日朝は霜に対する農作物の管理に注意してください。西部では、ここしばらくなだれに注意してください。",
      "observedAt": "2026-03-19T12:11:06.000Z",
      "placeCountry": "日本",
      "placePref": "宮城県",
      "placeCity": null,
      "latitude": 38.3880155,
      "longitude": 140.9761025
    },
    {
      "originId": "https://www.data.jma.go.jp/developer/xml/data/20260319114019_0_VPWW53_230000.xml",
      "title": "気象特別警報・警報・注意報",
      "content": "【愛知県気象警報・注意報】東部では、１９日夜遅くまで強風に注意してください。愛知県では、２０日朝は霜に対する農作物の管理に注意してください。",
      "observedAt": "2026-03-19T11:40:18.000Z",
      "placeCountry": "日本",
      "placePref": "愛知県",
      "placeCity": null,
      "latitude": 34.9991645,
      "longitude": 137.254574
    },
    {
      "originId": "https://www.data.jma.go.jp/developer/xml/data/20260319113901_0_VPWW53_220000.xml",
      "title": "気象特別警報・警報・注意報",
      "content": "【静岡県気象警報・注意報】中部、西部では、１９日夜遅くまで強風や高波に、２０日朝は霜に対する農作物の管理に注意してください。",
      "observedAt": "2026-03-19T11:39:00.000Z",
      "placeCountry": "日本",
      "placePref": "静岡県",
      "placeCity": null,
      "latitude": 34.9332488,
      "longitude": 138.0955398
    },
    {
      "originId": "https://www.data.jma.go.jp/developer/xml/data/20260319113548_0_VPWW53_100000.xml",
      "title": "気象特別警報・警報・注意報",
      "content": "【群馬県気象警報・注意報】注意報を解除します。",
      "observedAt": "2026-03-19T11:35:48.000Z",
      "placeCountry": "日本",
      "placePref": "群馬県",
      "placeCity": null,
      "latitude": 36.52198,
      "longitude": 139.033483
    },
    {
      "originId": "https://www.data.jma.go.jp/developer/xml/data/20260319113537_0_VPWW53_240000.xml",
      "title": "気象特別警報・警報・注意報",
      "content": "【三重県気象警報・注意報】南部では、１９日夜遅くまで強風に注意してください。三重県では、２０日朝は霜に対する農作物の管理に注意してください。",
      "observedAt": "2026-03-19T11:35:37.000Z",
      "placeCountry": "日本",
      "placePref": "三重県",
      "placeCity": null,
      "latitude": 34.7339685,
      "longitude": 136.5154489
    },
    {
      "originId": "https://www.data.jma.go.jp/developer/xml/data/20260319113448_0_VPWW53_090000.xml",
      "title": "気象特別警報・警報・注意報",
      "content": "【栃木県気象警報・注意報】栃木県では、２１日まで空気の乾燥した状態が続くため、火の取り扱いに、２０日朝は霜に対する農作物の管理に注意してください。",
      "observedAt": "2026-03-19T11:34:47.000Z",
      "placeCountry": "日本",
      "placePref": "栃木県",
      "placeCity": null,
      "latitude": 36.6782167,
      "longitude": 139.8096549
    },
    {
      "originId": "https://www.data.jma.go.jp/developer/xml/data/20260319111922_0_VPWW53_250000.xml",
      "title": "気象特別警報・警報・注意報",
      "content": "【滋賀県気象警報・注意報】滋賀県では、２０日朝は霜に対する農作物の管理に注意してください。",
      "observedAt": "2026-03-19T11:19:21.000Z",
      "placeCountry": "日本",
      "placePref": "滋賀県",
      "placeCity": null,
      "latitude": 35.247154,
      "longitude": 136.109385
    },
    {
      "originId": "https://www.data.jma.go.jp/developer/xml/data/20260319111920_0_VPWW53_260000.xml",
      "title": "気象特別警報・警報・注意報",
      "content": "【京都府気象警報・注意報】京都府では、２０日未明から２０日昼前まで濃霧による視程障害に、２０日朝は霜に対する農作物の管理に注意してください。",
      "observedAt": "2026-03-19T11:19:19.000Z",
      "placeCountry": "日本",
      "placePref": "京都府",
      "placeCity": null,
      "latitude": 35.242552,
      "longitude": 135.454601
    },
    {
      "originId": "https://www.data.jma.go.jp/developer/xml/data/20260319110739_0_VPWW53_280000.xml",
      "title": "気象特別警報・警報・注意報",
      "content": "【兵庫県気象警報・注意報】兵庫県では濃霧による視程障害や霜に対する農作物の管理に、南部では空気の乾燥した状態が続くため、火の取り扱いに、北部ではなだれに注意してください。",
      "observedAt": "2026-03-19T11:07:38.000Z",
      "placeCountry": "日本",
      "placePref": "兵庫県",
      "placeCity": null,
      "latitude": 34.914934,
      "longitude": 134.860666
    },
    {
      "originId": "https://www.data.jma.go.jp/developer/xml/data/20260319110242_0_VPWW53_340000.xml",
      "title": "気象特別警報・警報・注意報",
      "content": "【広島県気象警報・注意報】北部では、濃霧による視程障害に注意してください。南部では、空気の乾燥した状態が続くため、火の取り扱いに注意してください。広島県では、霜に対する農作物の管理に注意してください。",
      "observedAt": "2026-03-19T11:02:41.000Z",
      "placeCountry": "日本",
      "placePref": "広島県",
      "placeCity": null,
      "latitude": 34.5666725,
      "longitude": 132.753565
    },
    {
      "originId": "https://www.data.jma.go.jp/developer/xml/data/20260319095549_0_VPWW53_390000.xml",
      "title": "気象特別警報・警報・注意報",
      "content": "【高知県気象警報・注意報】中部、西部では、２０日朝は霜に対する農作物の管理に注意してください。",
      "observedAt": "2026-03-19T09:55:49.000Z",
      "placeCountry": "日本",
      "placePref": "高知県",
      "placeCity": null,
      "latitude": 33.6569018,
      "longitude": 133.5606241
    },
    {
      "originId": "https://www.data.jma.go.jp/developer/xml/data/20260319095015_0_VPWW53_140000.xml",
      "title": "気象特別警報・警報・注意報",
      "content": "【神奈川県気象警報・注意報】注意報を解除します。",
      "observedAt": "2026-03-19T09:50:15.000Z",
      "placeCountry": "日本",
      "placePref": "神奈川県",
      "placeCity": null,
      "latitude": 35.4342935,
      "longitude": 139.374753
    },
    {
      "originId": "https://www.data.jma.go.jp/developer/xml/data/20260319094430_0_VPWW53_130000.xml",
      "title": "気象特別警報・警報・注意報",
      "content": "【東京都気象警報・注意報】伊豆諸島南部では２０日明け方まで、伊豆諸島北部では２０日昼前まで、高波に注意してください。伊豆諸島南部では、２０日未明まで急な強い雨や落雷に注意してください。",
      "observedAt": "2026-03-19T09:44:29.000Z",
      "placeCountry": "日本",
      "placePref": "東京都",
      "placeCity": null,
      "latitude": 35.6828387,
      "longitude": 139.7594549
    },
    {
      "originId": "https://www.data.jma.go.jp/developer/xml/data/20260319090905_0_VPWW53_070000.xml",
      "title": "気象特別警報・警報・注意報",
      "content": "【福島県気象警報・注意報】中通り、浜通りでは、空気の乾燥した状態が続くため、火の取り扱いに注意してください。中通り、会津では、なだれに注意してください。福島県では、霜に対する農作物の管理に注意してください。",
      "observedAt": "2026-03-19T09:09:05.000Z",
      "placeCountry": "日本",
      "placePref": "福島県",
      "placeCity": null,
      "latitude": 37.3662591,
      "longitude": 140.2511854
    },
    {
      "originId": "https://www.data.jma.go.jp/developer/xml/data/20260319085738_0_VPWW53_100000.xml",
      "title": "気象特別警報・警報・注意報",
      "content": "【群馬県気象警報・注意報】北部では、１９日までなだれに注意してください。",
      "observedAt": "2026-03-19T08:57:37.000Z",
      "placeCountry": "日本",
      "placePref": "群馬県",
      "placeCity": null,
      "latitude": 36.52198,
      "longitude": 139.033483
    },
    {
      "originId": "https://www.data.jma.go.jp/developer/xml/data/20260319084757_0_VPWW53_220000.xml",
      "title": "気象特別警報・警報・注意報",
      "content": "【静岡県気象警報・注意報】中部、伊豆、西部では、強風や高波に注意してください。東部では、なだれに注意してください。中部、西部では、霜に対する農作物の管理に注意してください。",
      "observedAt": "2026-03-19T08:47:56.000Z",
      "placeCountry": "日本",
      "placePref": "静岡県",
      "placeCity": null,
      "latitude": 34.9332488,
      "longitude": 138.0955398
    },
    {
      "originId": "https://www.data.jma.go.jp/developer/xml/data/20260319083609_0_VPWW53_430000.xml",
      "title": "気象特別警報・警報・注意報",
      "content": "【熊本県気象警報・注意報】天草・芦北地方では、高潮に注意してください。球磨地方では、濃霧による視程障害に注意してください。熊本県では、霜に対する農作物の管理に注意してください。",
      "observedAt": "2026-03-19T08:36:08.000Z",
      "placeCountry": "日本",
      "placePref": "熊本県",
      "placeCity": null,
      "latitude": 32.6450475,
      "longitude": 130.6341345
    }
  ]
}