{
  "generatedAt": "2025-11-12T22:08:02.981Z",
  "timeZone": "Asia/Tokyo",
  "hourPath": "2025/11/13/07",
  "source": "http://www.data.jma.go.jp/developer/xml/feed/extra.xml",
  "totalItems": 22,
  "items": [
    {
      "originId": "https://www.data.jma.go.jp/developer/xml/data/20251112220524_0_VPWW53_200000.xml",
      "title": "気象特別警報・警報・注意報",
      "content": "【長野県気象警報・注意報】北部では、１３日昼前まで濃霧による視程障害に注意してください。",
      "observedAt": "2025-11-12T22:05:24.000Z",
      "placeCountry": "日本",
      "placePref": "長野県",
      "placeCity": null,
      "latitude": 36.1143945,
      "longitude": 138.0319015
    },
    {
      "originId": "https://www.data.jma.go.jp/developer/xml/data/20251112211948_0_VPWW53_070000.xml",
      "title": "気象特別警報・警報・注意報",
      "content": "【福島県気象警報・注意報】福島県では、１３日昼前まで濃霧による視程障害に注意してください。",
      "observedAt": "2025-11-12T21:19:48.000Z",
      "placeCountry": "日本",
      "placePref": "福島県",
      "placeCity": null,
      "latitude": 37.3662591,
      "longitude": 140.2511854
    },
    {
      "originId": "https://www.data.jma.go.jp/developer/xml/data/20251112211938_0_VPWW53_040000.xml",
      "title": "気象特別警報・警報・注意報",
      "content": "【宮城県気象警報・注意報】宮城県では、１４日まで空気の乾燥した状態が続くため、火の取り扱いに注意してください。",
      "observedAt": "2025-11-12T21:19:38.000Z",
      "placeCountry": "日本",
      "placePref": "宮城県",
      "placeCity": null,
      "latitude": 38.3880155,
      "longitude": 140.9761025
    },
    {
      "originId": "https://www.data.jma.go.jp/developer/xml/data/20251112210916_0_VPWW53_060000.xml",
      "title": "気象特別警報・警報・注意報",
      "content": "【山形県気象警報・注意報】山形県では、１３日昼過ぎから１３日夜のはじめ頃まで急な強い雨や落雷に注意してください。村山、置賜、最上では、１３日昼前まで濃霧による視程障害に注意してください。",
      "observedAt": "2025-11-12T21:09:15.000Z",
      "placeCountry": "日本",
      "placePref": "山形県",
      "placeCity": null,
      "latitude": 38.4746705,
      "longitude": 140.083237
    },
    {
      "originId": "https://www.data.jma.go.jp/developer/xml/data/20251112210715_0_VPWW53_030000.xml",
      "title": "気象特別警報・警報・注意報",
      "content": "【岩手県気象警報・注意報】内陸では、１３日昼過ぎから１３日夕方まで急な強い雨や落雷に注意してください。岩手県では、１３日昼前まで濃霧による視程障害に注意してください。",
      "observedAt": "2025-11-12T21:07:14.000Z",
      "placeCountry": "日本",
      "placePref": "岩手県",
      "placeCity": null,
      "latitude": 39.5713763,
      "longitude": 141.4253574
    },
    {
      "originId": "https://www.data.jma.go.jp/developer/xml/data/20251112192214_0_VPWW53_460100.xml",
      "title": "気象特別警報・警報・注意報",
      "content": "【鹿児島県（奄美地方を除く）気象警報・注意報】種子島・屋久島地方では、強風に注意してください。大隅、種子島・屋久島地方では、高波に注意してください。",
      "observedAt": "2025-11-12T19:22:13.000Z",
      "placeCountry": "日本",
      "placePref": "鹿児島県",
      "placeCity": null,
      "latitude": 31.521587,
      "longitude": 130.5474077
    },
    {
      "originId": "https://www.data.jma.go.jp/developer/xml/data/20251112192010_0_VPWW53_460040.xml",
      "title": "気象特別警報・警報・注意報",
      "content": "【奄美地方（鹿児島県）気象警報・注意報】奄美地方では、１３日夜遅くまで土砂災害に、１３日昼前まで低い土地の浸水に警戒してください。",
      "observedAt": "2025-11-12T19:20:09.000Z",
      "placeCountry": "日本",
      "placePref": "鹿児島県",
      "placeCity": null,
      "latitude": 31.521587,
      "longitude": 130.5474077
    },
    {
      "originId": "https://www.data.jma.go.jp/developer/xml/data/20251112191733_0_VPWW53_130000.xml",
      "title": "気象特別警報・警報・注意報",
      "content": "【東京都気象警報・注意報】注意報を解除します。",
      "observedAt": "2025-11-12T19:17:33.000Z",
      "placeCountry": "日本",
      "placePref": "東京都",
      "placeCity": null,
      "latitude": 35.6828387,
      "longitude": 139.7594549
    },
    {
      "originId": "https://www.data.jma.go.jp/developer/xml/data/20251112191707_0_VPWW53_450000.xml",
      "title": "気象特別警報・警報・注意報",
      "content": "【宮崎県気象警報・注意報】南部平野部では、１３日昼前から１３日夕方まで高波に注意してください。",
      "observedAt": "2025-11-12T19:17:06.000Z",
      "placeCountry": "日本",
      "placePref": "宮崎県",
      "placeCity": null,
      "latitude": 32.097681,
      "longitude": 131.294542
    },
    {
      "originId": "https://www.data.jma.go.jp/developer/xml/data/20251112191515_0_VPWW53_040000.xml",
      "title": "気象特別警報・警報・注意報",
      "content": "【宮城県気象警報・注意報】宮城県では、１４日まで空気の乾燥した状態が続くため、火の取り扱いに、１３日朝は霜に対する農作物の管理に注意してください。",
      "observedAt": "2025-11-12T19:15:15.000Z",
      "placeCountry": "日本",
      "placePref": "宮城県",
      "placeCity": null,
      "latitude": 38.3880155,
      "longitude": 140.9761025
    },
    {
      "originId": "https://www.data.jma.go.jp/developer/xml/data/20251112190809_0_VPWW53_020000.xml",
      "title": "気象特別警報・警報・注意報",
      "content": "【青森県気象警報・注意報】津軽、三八上北では、強風に注意してください。青森県では、高波や竜巻などの激しい突風、急な強い雨、落雷に注意してください。",
      "observedAt": "2025-11-12T19:08:08.000Z",
      "placeCountry": "日本",
      "placePref": "青森県",
      "placeCity": null,
      "latitude": 40.886943,
      "longitude": 140.590121
    },
    {
      "originId": "https://www.data.jma.go.jp/developer/xml/data/20251112183507_0_VPWW53_030000.xml",
      "title": "気象特別警報・警報・注意報",
      "content": "【岩手県気象警報・注意報】岩手県では、１３日昼前まで濃霧による視程障害に注意してください。",
      "observedAt": "2025-11-12T18:35:07.000Z",
      "placeCountry": "日本",
      "placePref": "岩手県",
      "placeCity": null,
      "latitude": 39.5713763,
      "longitude": 141.4253574
    },
    {
      "originId": "https://www.data.jma.go.jp/developer/xml/data/20251112182523_0_VPWW53_460040.xml",
      "title": "気象特別警報・警報・注意報",
      "content": "【奄美地方（鹿児島県）気象警報・注意報】奄美地方では、１３日夜遅くまで土砂災害に、１３日昼前まで低い土地の浸水に警戒してください。",
      "observedAt": "2025-11-12T18:25:22.000Z",
      "placeCountry": "日本",
      "placePref": "鹿児島県",
      "placeCity": null,
      "latitude": 31.521587,
      "longitude": 130.5474077
    },
    {
      "originId": "https://www.data.jma.go.jp/developer/xml/data/20251112182146_0_VPWW53_050000.xml",
      "title": "気象特別警報・警報・注意報",
      "content": "【秋田県気象警報・注意報】沿岸では、強風に注意してください。秋田県では、竜巻などの激しい突風や急な強い雨、落雷、濃霧による視程障害に注意してください。",
      "observedAt": "2025-11-12T18:21:46.000Z",
      "placeCountry": "日本",
      "placePref": "秋田県",
      "placeCity": null,
      "latitude": 39.6898802,
      "longitude": 140.342608
    },
    {
      "originId": "https://www.data.jma.go.jp/developer/xml/data/20251112181735_0_VPWW53_460040.xml",
      "title": "気象特別警報・警報・注意報",
      "content": "【奄美地方（鹿児島県）気象警報・注意報】奄美地方では、１３日夜遅くまで土砂災害に、１３日昼前まで低い土地の浸水に警戒してください。",
      "observedAt": "2025-11-12T18:17:34.000Z",
      "placeCountry": "日本",
      "placePref": "鹿児島県",
      "placeCity": null,
      "latitude": 31.521587,
      "longitude": 130.5474077
    },
    {
      "originId": "https://www.data.jma.go.jp/developer/xml/data/20251112174718_0_VPWW53_460040.xml",
      "title": "気象特別警報・警報・注意報",
      "content": "【奄美地方（鹿児島県）気象警報・注意報】奄美地方では、１３日夜遅くまで土砂災害に警戒してください。",
      "observedAt": "2025-11-12T17:47:17.000Z",
      "placeCountry": "日本",
      "placePref": "鹿児島県",
      "placeCity": null,
      "latitude": 31.521587,
      "longitude": 130.5474077
    },
    {
      "originId": "https://www.data.jma.go.jp/developer/xml/data/20251112164825_0_VPWW53_460040.xml",
      "title": "気象特別警報・警報・注意報",
      "content": "【奄美地方（鹿児島県）気象警報・注意報】奄美地方では、１３日昼過ぎまで土砂災害に警戒してください。",
      "observedAt": "2025-11-12T16:48:25.000Z",
      "placeCountry": "日本",
      "placePref": "鹿児島県",
      "placeCity": null,
      "latitude": 31.521587,
      "longitude": 130.5474077
    },
    {
      "originId": "https://www.data.jma.go.jp/developer/xml/data/20251112154126_0_VPWW53_060000.xml",
      "title": "気象特別警報・警報・注意報",
      "content": "【山形県気象警報・注意報】村山、置賜、最上では、１３日昼前まで濃霧による視程障害に注意してください。山形県では、１３日朝は霜に対する農作物の管理に注意してください。",
      "observedAt": "2025-11-12T15:41:26.000Z",
      "placeCountry": "日本",
      "placePref": "山形県",
      "placeCity": null,
      "latitude": 38.4746705,
      "longitude": 140.083237
    },
    {
      "originId": "https://www.data.jma.go.jp/developer/xml/data/20251112154124_0_VPWW53_050000.xml",
      "title": "気象特別警報・警報・注意報",
      "content": "【秋田県気象警報・注意報】秋田県では、１３日昼前まで濃霧による視程障害に注意してください。",
      "observedAt": "2025-11-12T15:41:24.000Z",
      "placeCountry": "日本",
      "placePref": "秋田県",
      "placeCity": null,
      "latitude": 39.6898802,
      "longitude": 140.342608
    },
    {
      "originId": "https://www.data.jma.go.jp/developer/xml/data/20251112144638_0_VPWW53_460040.xml",
      "title": "気象特別警報・警報・注意報",
      "content": "【奄美地方（鹿児島県）気象警報・注意報】奄美地方では、土砂災害や強風、高波、竜巻などの激しい突風、落雷に注意してください。",
      "observedAt": "2025-11-12T14:46:37.000Z",
      "placeCountry": "日本",
      "placePref": "鹿児島県",
      "placeCity": null,
      "latitude": 31.521587,
      "longitude": 130.5474077
    },
    {
      "originId": "https://www.data.jma.go.jp/developer/xml/data/20251112133829_0_VPWW53_460040.xml",
      "title": "気象特別警報・警報・注意報",
      "content": "【奄美地方（鹿児島県）気象警報・注意報】奄美地方では、土砂災害や強風、高波、竜巻などの激しい突風、落雷に注意してください。",
      "observedAt": "2025-11-12T13:38:28.000Z",
      "placeCountry": "日本",
      "placePref": "鹿児島県",
      "placeCity": null,
      "latitude": 31.521587,
      "longitude": 130.5474077
    },
    {
      "originId": "https://www.data.jma.go.jp/developer/xml/data/20251112120829_0_VPWW53_420000.xml",
      "title": "気象特別警報・警報・注意報",
      "content": "【長崎県気象警報・注意報】注意報を解除します。",
      "observedAt": "2025-11-12T12:08:29.000Z",
      "placeCountry": "日本",
      "placePref": "長崎県",
      "placeCity": null,
      "latitude": 33.1154683,
      "longitude": 129.7874339
    }
  ]
}