{
  "generatedAt": "2025-11-07T04:09:41.875Z",
  "timeZone": "Asia/Tokyo",
  "hourPath": "2025/11/07/13",
  "source": "http://www.data.jma.go.jp/developer/xml/feed/extra.xml",
  "totalItems": 60,
  "items": [
    {
      "originId": "https://www.data.jma.go.jp/developer/xml/data/20251107025334_0_VPWW53_430000.xml",
      "title": "気象特別警報・警報・注意報",
      "content": "【熊本県気象警報・注意報】天草・芦北地方では、高潮に注意してください。熊本県では、空気の乾燥した状態が続くため、火の取り扱いに注意してください。熊本、阿蘇地方では、霜に対する農作物の管理に注意してください。",
      "observedAt": "2025-11-07T02:53:34.000Z",
      "placeCountry": "日本",
      "placePref": "熊本県",
      "placeCity": null,
      "latitude": 32.6450475,
      "longitude": 130.6341345
    },
    {
      "originId": "https://www.data.jma.go.jp/developer/xml/data/20251107024345_0_VPWW53_460100.xml",
      "title": "気象特別警報・警報・注意報",
      "content": "【鹿児島県（奄美地方を除く）気象警報・注意報】大隅、種子島・屋久島地方では、高波に注意してください。薩摩、大隅地方では、空気の乾燥した状態が続くため、火の取り扱いに注意してください。",
      "observedAt": "2025-11-07T02:43:45.000Z",
      "placeCountry": "日本",
      "placePref": "鹿児島県",
      "placeCity": null,
      "latitude": 31.521587,
      "longitude": 130.5474077
    },
    {
      "originId": "https://www.data.jma.go.jp/developer/xml/data/20251107024149_0_VPWW53_440000.xml",
      "title": "気象特別警報・警報・注意報",
      "content": "【大分県気象警報・注意報】南部では、高波に注意してください。中部、北部では、高潮に注意してください。",
      "observedAt": "2025-11-07T02:41:49.000Z",
      "placeCountry": "日本",
      "placePref": "大分県",
      "placeCity": null,
      "latitude": 33.1819875,
      "longitude": 131.4270217
    },
    {
      "originId": "https://www.data.jma.go.jp/developer/xml/data/20251107023144_0_VPWW53_380000.xml",
      "title": "気象特別警報・警報・注意報",
      "content": "【愛媛県気象警報・注意報】東予では、７日昼過ぎまで高潮に注意してください。",
      "observedAt": "2025-11-07T02:31:44.000Z",
      "placeCountry": "日本",
      "placePref": "愛媛県",
      "placeCity": null,
      "latitude": 33.6013646,
      "longitude": 132.8185275
    },
    {
      "originId": "https://www.data.jma.go.jp/developer/xml/data/20251107013251_0_VPWW53_460040.xml",
      "title": "気象特別警報・警報・注意報",
      "content": "【奄美地方（鹿児島県）気象警報・注意報】奄美地方では、高波や高潮に注意してください。",
      "observedAt": "2025-11-07T01:32:50.000Z",
      "placeCountry": "日本",
      "placePref": "鹿児島県",
      "placeCity": null,
      "latitude": 31.521587,
      "longitude": 130.5474077
    },
    {
      "originId": "https://www.data.jma.go.jp/developer/xml/data/20251107012349_0_VPWW53_420000.xml",
      "title": "気象特別警報・警報・注意報",
      "content": "【長崎県気象警報・注意報】北部、壱岐・対馬、五島では強風に、五島では高波に、長崎県では高潮に、南部、北部、五島では空気の乾燥した状態が続くため、火の取り扱いに注意してください。",
      "observedAt": "2025-11-07T01:23:48.000Z",
      "placeCountry": "日本",
      "placePref": "長崎県",
      "placeCity": null,
      "latitude": 33.1154683,
      "longitude": 129.7874339
    },
    {
      "originId": "https://www.data.jma.go.jp/developer/xml/data/20251107012141_0_VPWW53_390000.xml",
      "title": "気象特別警報・警報・注意報",
      "content": "【高知県気象警報・注意報】東部では、８日昼前まで強風に、７日夕方から７日夜のはじめ頃まで高潮に注意してください。東部、西部では、８日明け方まで高波に注意してください。",
      "observedAt": "2025-11-07T01:21:40.000Z",
      "placeCountry": "日本",
      "placePref": "高知県",
      "placeCity": null,
      "latitude": 33.6569018,
      "longitude": 133.5606241
    },
    {
      "originId": "https://www.data.jma.go.jp/developer/xml/data/20251107011137_0_VPWW53_400000.xml",
      "title": "気象特別警報・警報・注意報",
      "content": "【福岡県気象警報・注意報】福岡、北九州地方では、７日夕方から８日明け方まで強風に注意してください。",
      "observedAt": "2025-11-07T01:11:36.000Z",
      "placeCountry": "日本",
      "placePref": "福岡県",
      "placeCity": null,
      "latitude": 33.6251241,
      "longitude": 130.6180016
    },
    {
      "originId": "https://www.data.jma.go.jp/developer/xml/data/20251107011016_0_VPWW53_350000.xml",
      "title": "気象特別警報・警報・注意報",
      "content": "【山口県気象警報・注意報】西部、東部、北部では、強風に注意してください。山口県では、空気の乾燥した状態が続くため、火の取り扱いに注意してください。中部、東部では、霜に対する農作物の管理に注意してください。",
      "observedAt": "2025-11-07T01:10:16.000Z",
      "placeCountry": "日本",
      "placePref": "山口県",
      "placeCity": null,
      "latitude": 34.2379614,
      "longitude": 131.5873845
    },
    {
      "originId": "https://www.data.jma.go.jp/developer/xml/data/20251107010530_0_VPWW53_170000.xml",
      "title": "気象特別警報・警報・注意報",
      "content": "【石川県気象警報・注意報】能登では、７日夕方から８日朝まで高潮に注意してください。",
      "observedAt": "2025-11-07T01:05:29.000Z",
      "placeCountry": "日本",
      "placePref": "石川県",
      "placeCity": null,
      "latitude": 36.9888678,
      "longitude": 136.8163563
    },
    {
      "originId": "https://www.data.jma.go.jp/developer/xml/data/20251107010433_0_VPWW53_130000.xml",
      "title": "気象特別警報・警報・注意報",
      "content": "【東京都気象警報・注意報】伊豆諸島北部、伊豆諸島南部、小笠原諸島では、高波に注意してください。",
      "observedAt": "2025-11-07T01:04:32.000Z",
      "placeCountry": "日本",
      "placePref": "東京都",
      "placeCity": null,
      "latitude": 35.6828387,
      "longitude": 139.7594549
    },
    {
      "originId": "https://www.data.jma.go.jp/developer/xml/data/20251107005642_0_VPWW53_200000.xml",
      "title": "気象特別警報・警報・注意報",
      "content": "【長野県気象警報・注意報】注意報を解除します。",
      "observedAt": "2025-11-07T00:56:41.000Z",
      "placeCountry": "日本",
      "placePref": "長野県",
      "placeCity": null,
      "latitude": 36.1143945,
      "longitude": 138.0319015
    },
    {
      "originId": "https://www.data.jma.go.jp/developer/xml/data/20251107005522_0_VPWW53_030000.xml",
      "title": "気象特別警報・警報・注意報",
      "content": "【岩手県気象警報・注意報】内陸では７日夕方まで、沿岸北部、沿岸南部では７日夜遅くまで、強風に注意してください。岩手県では、７日昼過ぎから７日夜遅くまで高波に注意してください。",
      "observedAt": "2025-11-07T00:55:21.000Z",
      "placeCountry": "日本",
      "placePref": "岩手県",
      "placeCity": null,
      "latitude": 39.5713763,
      "longitude": 141.4253574
    },
    {
      "originId": "https://www.data.jma.go.jp/developer/xml/data/20251107004845_0_VPWW53_150000.xml",
      "title": "気象特別警報・警報・注意報",
      "content": "【新潟県気象警報・注意報】下越、佐渡では、７日昼過ぎから８日朝まで高波に注意してください。",
      "observedAt": "2025-11-07T00:48:45.000Z",
      "placeCountry": "日本",
      "placePref": "新潟県",
      "placeCity": null,
      "latitude": 37.6452283,
      "longitude": 138.7669125
    },
    {
      "originId": "https://www.data.jma.go.jp/developer/xml/data/20251107004809_0_VPWW53_070000.xml",
      "title": "気象特別警報・警報・注意報",
      "content": "【福島県気象警報・注意報】中通り、浜通りでは、７日夕方まで強風に注意してください。福島県では、８日朝は霜に対する農作物の管理に注意してください。",
      "observedAt": "2025-11-07T00:48:08.000Z",
      "placeCountry": "日本",
      "placePref": "福島県",
      "placeCity": null,
      "latitude": 37.3662591,
      "longitude": 140.2511854
    },
    {
      "originId": "https://www.data.jma.go.jp/developer/xml/data/20251107004621_0_VPWW53_050000.xml",
      "title": "気象特別警報・警報・注意報",
      "content": "【秋田県気象警報・注意報】秋田県では、７日夕方まで強風や急な強い雨、落雷に、８日明け方まで高波に注意してください。",
      "observedAt": "2025-11-07T00:46:21.000Z",
      "placeCountry": "日本",
      "placePref": "秋田県",
      "placeCity": null,
      "latitude": 39.6898802,
      "longitude": 140.342608
    },
    {
      "originId": "https://www.data.jma.go.jp/developer/xml/data/20251107004334_0_VPWW53_430000.xml",
      "title": "気象特別警報・警報・注意報",
      "content": "【熊本県気象警報・注意報】熊本、天草・芦北地方では高潮に、熊本県では空気の乾燥した状態が続くため、火の取り扱いに、熊本、阿蘇地方では霜に対する農作物の管理に注意してください。",
      "observedAt": "2025-11-07T00:43:33.000Z",
      "placeCountry": "日本",
      "placePref": "熊本県",
      "placeCity": null,
      "latitude": 32.6450475,
      "longitude": 130.6341345
    },
    {
      "originId": "https://www.data.jma.go.jp/developer/xml/data/20251107004045_0_VPWW53_040000.xml",
      "title": "気象特別警報・警報・注意報",
      "content": "【宮城県気象警報・注意報】東部では、７日夕方まで強風に注意してください。宮城県では、７日まで空気の乾燥した状態が続くため、火の取り扱いに、８日朝は霜に対する農作物の管理に注意してください。",
      "observedAt": "2025-11-07T00:40:44.000Z",
      "placeCountry": "日本",
      "placePref": "宮城県",
      "placeCity": null,
      "latitude": 38.3880155,
      "longitude": 140.9761025
    },
    {
      "originId": "https://www.data.jma.go.jp/developer/xml/data/20251107004020_0_VPWW53_440000.xml",
      "title": "気象特別警報・警報・注意報",
      "content": "【大分県気象警報・注意報】南部では、高波に注意してください。中部、北部では、高潮に注意してください。",
      "observedAt": "2025-11-07T00:40:19.000Z",
      "placeCountry": "日本",
      "placePref": "大分県",
      "placeCity": null,
      "latitude": 33.1819875,
      "longitude": 131.4270217
    },
    {
      "originId": "https://www.data.jma.go.jp/developer/xml/data/20251107003904_0_VPWW53_020000.xml",
      "title": "気象特別警報・警報・注意報",
      "content": "【青森県気象警報・注意報】津軽、三八上北では、強風に注意してください。青森県では、高波や落雷に注意してください。三八上北では、高潮に注意してください。",
      "observedAt": "2025-11-07T00:39:03.000Z",
      "placeCountry": "日本",
      "placePref": "青森県",
      "placeCity": null,
      "latitude": 40.886943,
      "longitude": 140.590121
    },
    {
      "originId": "https://www.data.jma.go.jp/developer/xml/data/20251107003851_0_VPWW53_340000.xml",
      "title": "気象特別警報・警報・注意報",
      "content": "【広島県気象警報・注意報】南部では、７日昼過ぎまで高潮に、８日まで空気の乾燥した状態が続くため、火の取り扱いに注意してください。",
      "observedAt": "2025-11-07T00:38:50.000Z",
      "placeCountry": "日本",
      "placePref": "広島県",
      "placeCity": null,
      "latitude": 34.5666725,
      "longitude": 132.753565
    },
    {
      "originId": "https://www.data.jma.go.jp/developer/xml/data/20251107003241_0_VPWW53_280000.xml",
      "title": "気象特別警報・警報・注意報",
      "content": "【兵庫県気象警報・注意報】南部では、８日まで空気の乾燥した状態が続くため、火の取り扱いに注意してください。",
      "observedAt": "2025-11-07T00:32:40.000Z",
      "placeCountry": "日本",
      "placePref": "兵庫県",
      "placeCity": null,
      "latitude": 34.914934,
      "longitude": 134.860666
    },
    {
      "originId": "https://www.data.jma.go.jp/developer/xml/data/20251107002644_0_VPWW53_320000.xml",
      "title": "気象特別警報・警報・注意報",
      "content": "【島根県気象警報・注意報】注意報を解除します。",
      "observedAt": "2025-11-07T00:26:44.000Z",
      "placeCountry": "日本",
      "placePref": "島根県",
      "placeCity": null,
      "latitude": 34.9418212,
      "longitude": 132.537439
    },
    {
      "originId": "https://www.data.jma.go.jp/developer/xml/data/20251107000628_0_VPWW53_090000.xml",
      "title": "気象特別警報・警報・注意報",
      "content": "【栃木県気象警報・注意報】注意報を解除します。",
      "observedAt": "2025-11-07T00:06:28.000Z",
      "placeCountry": "日本",
      "placePref": "栃木県",
      "placeCity": null,
      "latitude": 36.6782167,
      "longitude": 139.8096549
    },
    {
      "originId": "https://www.data.jma.go.jp/developer/xml/data/20251106232523_0_VPWW53_390000.xml",
      "title": "気象特別警報・警報・注意報",
      "content": "【高知県気象警報・注意報】東部では、強風に注意してください。東部、西部では、高波に注意してください。",
      "observedAt": "2025-11-06T23:25:22.000Z",
      "placeCountry": "日本",
      "placePref": "高知県",
      "placeCity": null,
      "latitude": 33.6569018,
      "longitude": 133.5606241
    },
    {
      "originId": "https://www.data.jma.go.jp/developer/xml/data/20251106224104_0_VPWW53_430000.xml",
      "title": "気象特別警報・警報・注意報",
      "content": "【熊本県気象警報・注意報】熊本県では、７日まで高潮に、８日まで空気の乾燥した状態が続くため、火の取り扱いに注意してください。球磨地方では、７日昼前まで濃霧による視程障害に注意してください。",
      "observedAt": "2025-11-06T22:41:04.000Z",
      "placeCountry": "日本",
      "placePref": "熊本県",
      "placeCity": null,
      "latitude": 32.6450475,
      "longitude": 130.6341345
    },
    {
      "originId": "https://www.data.jma.go.jp/developer/xml/data/20251106223226_0_VPWW53_450000.xml",
      "title": "気象特別警報・警報・注意報",
      "content": "【宮崎県気象警報・注意報】北部平野部では７日夕方まで、南部平野部では７日夜遅くまで、高波に注意してください。",
      "observedAt": "2025-11-06T22:32:26.000Z",
      "placeCountry": "日本",
      "placePref": "宮崎県",
      "placeCity": null,
      "latitude": 32.097681,
      "longitude": 131.294542
    },
    {
      "originId": "https://www.data.jma.go.jp/developer/xml/data/20251106223044_0_VPWW53_350000.xml",
      "title": "気象特別警報・警報・注意報",
      "content": "【山口県気象警報・注意報】西部、東部、北部では、強風に注意してください。山口県では、濃霧による視程障害と、空気の乾燥した状態が続くため火の取り扱いに注意してください。",
      "observedAt": "2025-11-06T22:30:43.000Z",
      "placeCountry": "日本",
      "placePref": "山口県",
      "placeCity": null,
      "latitude": 34.2379614,
      "longitude": 131.5873845
    },
    {
      "originId": "https://www.data.jma.go.jp/developer/xml/data/20251106221710_0_VPWW53_200000.xml",
      "title": "気象特別警報・警報・注意報",
      "content": "【長野県気象警報・注意報】北部、中部では、７日昼前まで濃霧による視程障害に注意してください。",
      "observedAt": "2025-11-06T22:17:09.000Z",
      "placeCountry": "日本",
      "placePref": "長野県",
      "placeCity": null,
      "latitude": 36.1143945,
      "longitude": 138.0319015
    },
    {
      "originId": "https://www.data.jma.go.jp/developer/xml/data/20251106220321_0_VPWW53_290000.xml",
      "title": "気象特別警報・警報・注意報",
      "content": "【奈良県気象警報・注意報】注意報を解除します。",
      "observedAt": "2025-11-06T22:03:20.000Z",
      "placeCountry": "日本",
      "placePref": "奈良県",
      "placeCity": null,
      "latitude": 34.2963089,
      "longitude": 135.8816819
    },
    {
      "originId": "https://www.data.jma.go.jp/developer/xml/data/20251106210710_0_VPWW53_150000.xml",
      "title": "気象特別警報・警報・注意報",
      "content": "【新潟県気象警報・注意報】下越、佐渡では、７日昼過ぎから８日朝まで高波に注意してください。",
      "observedAt": "2025-11-06T21:07:10.000Z",
      "placeCountry": "日本",
      "placePref": "新潟県",
      "placeCity": null,
      "latitude": 37.6452283,
      "longitude": 138.7669125
    },
    {
      "originId": "https://www.data.jma.go.jp/developer/xml/data/20251106203917_0_VPWW53_030000.xml",
      "title": "気象特別警報・警報・注意報",
      "content": "【岩手県気象警報・注意報】岩手県では、強風や高波、濃霧による視程障害に注意してください。",
      "observedAt": "2025-11-06T20:39:16.000Z",
      "placeCountry": "日本",
      "placePref": "岩手県",
      "placeCity": null,
      "latitude": 39.5713763,
      "longitude": 141.4253574
    },
    {
      "originId": "https://www.data.jma.go.jp/developer/xml/data/20251106193348_0_VPWW53_420000.xml",
      "title": "気象特別警報・警報・注意報",
      "content": "【長崎県気象警報・注意報】南部、北部、五島では、強風と、空気の乾燥した状態が続くため火の取り扱いに注意してください。五島では、高波に注意してください。長崎県では、高潮に注意してください。",
      "observedAt": "2025-11-06T19:33:48.000Z",
      "placeCountry": "日本",
      "placePref": "長崎県",
      "placeCity": null,
      "latitude": 33.1154683,
      "longitude": 129.7874339
    },
    {
      "originId": "https://www.data.jma.go.jp/developer/xml/data/20251106193338_0_VPWW53_460040.xml",
      "title": "気象特別警報・警報・注意報",
      "content": "【奄美地方（鹿児島県）気象警報・注意報】奄美地方では、高波に注意してください。",
      "observedAt": "2025-11-06T19:33:37.000Z",
      "placeCountry": "日本",
      "placePref": "鹿児島県",
      "placeCity": null,
      "latitude": 31.521587,
      "longitude": 130.5474077
    },
    {
      "originId": "https://www.data.jma.go.jp/developer/xml/data/20251106193311_0_VPWW53_440000.xml",
      "title": "気象特別警報・警報・注意報",
      "content": "【大分県気象警報・注意報】中部、北部では、７日まで高潮に注意してください。",
      "observedAt": "2025-11-06T19:33:11.000Z",
      "placeCountry": "日本",
      "placePref": "大分県",
      "placeCity": null,
      "latitude": 33.1819875,
      "longitude": 131.4270217
    },
    {
      "originId": "https://www.data.jma.go.jp/developer/xml/data/20251106193307_0_VPWW53_430000.xml",
      "title": "気象特別警報・警報・注意報",
      "content": "【熊本県気象警報・注意報】熊本県では、高潮や濃霧による視程障害、空気の乾燥した状態が続くため、火の取り扱い、霜に対する農作物の管理に注意してください。",
      "observedAt": "2025-11-06T19:33:07.000Z",
      "placeCountry": "日本",
      "placePref": "熊本県",
      "placeCity": null,
      "latitude": 32.6450475,
      "longitude": 130.6341345
    },
    {
      "originId": "https://www.data.jma.go.jp/developer/xml/data/20251106193202_0_VPWW53_460100.xml",
      "title": "気象特別警報・警報・注意報",
      "content": "【鹿児島県（奄美地方を除く）気象警報・注意報】大隅、種子島・屋久島地方では、高波に注意してください。薩摩地方では、高潮に注意してください。薩摩、大隅地方では、空気の乾燥した状態が続くため、火の取り扱いに注意してください。",
      "observedAt": "2025-11-06T19:32:01.000Z",
      "placeCountry": "日本",
      "placePref": "鹿児島県",
      "placeCity": null,
      "latitude": 31.521587,
      "longitude": 130.5474077
    },
    {
      "originId": "https://www.data.jma.go.jp/developer/xml/data/20251106192525_0_VPWW53_350000.xml",
      "title": "気象特別警報・警報・注意報",
      "content": "【山口県気象警報・注意報】東部では強風に、山口県では濃霧による視程障害と、空気の乾燥した状態が続くため火の取り扱いに、中部、東部では霜に対する農作物の管理に注意してください。",
      "observedAt": "2025-11-06T19:25:25.000Z",
      "placeCountry": "日本",
      "placePref": "山口県",
      "placeCity": null,
      "latitude": 34.2379614,
      "longitude": 131.5873845
    },
    {
      "originId": "https://www.data.jma.go.jp/developer/xml/data/20251106192435_0_VPWW53_450000.xml",
      "title": "気象特別警報・警報・注意報",
      "content": "【宮崎県気象警報・注意報】北部平野部では７日夕方まで、南部平野部では７日夜遅くまで、高波に注意してください。北部山沿いでは、７日朝は霜に対する農作物の管理に注意してください。",
      "observedAt": "2025-11-06T19:24:34.000Z",
      "placeCountry": "日本",
      "placePref": "宮崎県",
      "placeCity": null,
      "latitude": 32.097681,
      "longitude": 131.294542
    },
    {
      "originId": "https://www.data.jma.go.jp/developer/xml/data/20251106192347_0_VPWW53_300000.xml",
      "title": "気象特別警報・警報・注意報",
      "content": "【和歌山県気象警報・注意報】注意報を解除します。",
      "observedAt": "2025-11-06T19:23:47.000Z",
      "placeCountry": "日本",
      "placePref": "和歌山県",
      "placeCity": null,
      "latitude": 33.8070292,
      "longitude": 135.5930743
    },
    {
      "originId": "https://www.data.jma.go.jp/developer/xml/data/20251106192345_0_VPWW53_290000.xml",
      "title": "気象特別警報・警報・注意報",
      "content": "【奈良県気象警報・注意報】奈良県では、７日昼前まで濃霧による視程障害に注意してください。",
      "observedAt": "2025-11-06T19:23:45.000Z",
      "placeCountry": "日本",
      "placePref": "奈良県",
      "placeCity": null,
      "latitude": 34.2963089,
      "longitude": 135.8816819
    },
    {
      "originId": "https://www.data.jma.go.jp/developer/xml/data/20251106192316_0_VPWW53_060000.xml",
      "title": "気象特別警報・警報・注意報",
      "content": "【山形県気象警報・注意報】庄内、最上では、７日昼前から７日夕方まで強風に注意してください。庄内では、７日昼前から８日明け方まで高波に、７日まで空気の乾燥した状態が続くため、火の取り扱いに注意してください。",
      "observedAt": "2025-11-06T19:23:15.000Z",
      "placeCountry": "日本",
      "placePref": "山形県",
      "placeCity": null,
      "latitude": 38.4746705,
      "longitude": 140.083237
    },
    {
      "originId": "https://www.data.jma.go.jp/developer/xml/data/20251106192314_0_VPWW53_050000.xml",
      "title": "気象特別警報・警報・注意報",
      "content": "【秋田県気象警報・注意報】秋田県では、強風や高波、濃霧による視程障害に注意してください。",
      "observedAt": "2025-11-06T19:23:13.000Z",
      "placeCountry": "日本",
      "placePref": "秋田県",
      "placeCity": null,
      "latitude": 39.6898802,
      "longitude": 140.342608
    },
    {
      "originId": "https://www.data.jma.go.jp/developer/xml/data/20251106192015_0_VPWW53_210000.xml",
      "title": "気象特別警報・警報・注意報",
      "content": "【岐阜県気象警報・注意報】美濃地方では、７日まで空気の乾燥した状態が続くため、火の取り扱いに注意してください。",
      "observedAt": "2025-11-06T19:20:14.000Z",
      "placeCountry": "日本",
      "placePref": "岐阜県",
      "placeCity": null,
      "latitude": 35.7867449,
      "longitude": 137.0460777
    },
    {
      "originId": "https://www.data.jma.go.jp/developer/xml/data/20251106191713_0_VPWW53_170000.xml",
      "title": "気象特別警報・警報・注意報",
      "content": "【石川県気象警報・注意報】注意報を解除します。",
      "observedAt": "2025-11-06T19:17:13.000Z",
      "placeCountry": "日本",
      "placePref": "石川県",
      "placeCity": null,
      "latitude": 36.9888678,
      "longitude": 136.8163563
    },
    {
      "originId": "https://www.data.jma.go.jp/developer/xml/data/20251106191714_0_VPWW53_030000.xml",
      "title": "気象特別警報・警報・注意報",
      "content": "【岩手県気象警報・注意報】沿岸北部、沿岸南部では７日夜遅くまで、内陸では７日昼前から７日夕方まで、強風に注意してください。",
      "observedAt": "2025-11-06T19:17:13.000Z",
      "placeCountry": "日本",
      "placePref": "岩手県",
      "placeCity": null,
      "latitude": 39.5713763,
      "longitude": 141.4253574
    },
    {
      "originId": "https://www.data.jma.go.jp/developer/xml/data/20251106191712_0_VPWW53_020000.xml",
      "title": "気象特別警報・警報・注意報",
      "content": "【青森県気象警報・注意報】津軽、三八上北では、強風に注意してください。青森県では、高波に注意してください。三八上北では、高潮に注意してください。",
      "observedAt": "2025-11-06T19:17:11.000Z",
      "placeCountry": "日本",
      "placePref": "青森県",
      "placeCity": null,
      "latitude": 40.886943,
      "longitude": 140.590121
    },
    {
      "originId": "https://www.data.jma.go.jp/developer/xml/data/20251106191632_0_VPWW53_120000.xml",
      "title": "気象特別警報・警報・注意報",
      "content": "【千葉県気象警報・注意報】北東部、南部では、高波に注意してください。千葉県では、空気の乾燥した状態が続くため、火の取り扱いに注意してください。",
      "observedAt": "2025-11-06T19:16:31.000Z",
      "placeCountry": "日本",
      "placePref": "千葉県",
      "placeCity": null,
      "latitude": 35.549399,
      "longitude": 140.2647303
    },
    {
      "originId": "https://www.data.jma.go.jp/developer/xml/data/20251106191316_0_VPWW53_080000.xml",
      "title": "気象特別警報・警報・注意報",
      "content": "【茨城県気象警報・注意報】茨城県では、高波に注意してください。",
      "observedAt": "2025-11-06T19:13:15.000Z",
      "placeCountry": "日本",
      "placePref": "茨城県",
      "placeCity": null,
      "latitude": 36.2869536,
      "longitude": 140.4703384
    },
    {
      "originId": "https://www.data.jma.go.jp/developer/xml/data/20251106191312_0_VPWW53_380000.xml",
      "title": "気象特別警報・警報・注意報",
      "content": "【愛媛県気象警報・注意報】南予では７日朝から７日昼前まで、東予では７日昼前から７日昼過ぎまで、高潮に注意してください。",
      "observedAt": "2025-11-06T19:13:11.000Z",
      "placeCountry": "日本",
      "placePref": "愛媛県",
      "placeCity": null,
      "latitude": 33.6013646,
      "longitude": 132.8185275
    },
    {
      "originId": "https://www.data.jma.go.jp/developer/xml/data/20251106191310_0_VPWW53_360000.xml",
      "title": "気象特別警報・警報・注意報",
      "content": "【徳島県気象警報・注意報】南部では、８日明け方まで強風に注意してください。",
      "observedAt": "2025-11-06T19:13:09.000Z",
      "placeCountry": "日本",
      "placePref": "徳島県",
      "placeCity": null,
      "latitude": 33.9196418,
      "longitude": 134.2509634
    },
    {
      "originId": "https://www.data.jma.go.jp/developer/xml/data/20251106191229_0_VPWW53_370000.xml",
      "title": "気象特別警報・警報・注意報",
      "content": "【香川県気象警報・注意報】香川県では、７日昼前から７日昼過ぎまで高潮に注意してください。",
      "observedAt": "2025-11-06T19:12:28.000Z",
      "placeCountry": "日本",
      "placePref": "香川県",
      "placeCity": null,
      "latitude": 34.2480104,
      "longitude": 134.0586579
    },
    {
      "originId": "https://www.data.jma.go.jp/developer/xml/data/20251106190952_0_VPWW53_280000.xml",
      "title": "気象特別警報・警報・注意報",
      "content": "【兵庫県気象警報・注意報】兵庫県では、７日昼前まで濃霧による視程障害に注意してください。",
      "observedAt": "2025-11-06T19:09:51.000Z",
      "placeCountry": "日本",
      "placePref": "兵庫県",
      "placeCity": null,
      "latitude": 34.914934,
      "longitude": 134.860666
    },
    {
      "originId": "https://www.data.jma.go.jp/developer/xml/data/20251106190924_0_VPWW53_070000.xml",
      "title": "気象特別警報・警報・注意報",
      "content": "【福島県気象警報・注意報】中通り、浜通りでは、７日昼前から７日夕方まで強風に注意してください。",
      "observedAt": "2025-11-06T19:09:23.000Z",
      "placeCountry": "日本",
      "placePref": "福島県",
      "placeCity": null,
      "latitude": 37.3662591,
      "longitude": 140.2511854
    },
    {
      "originId": "https://www.data.jma.go.jp/developer/xml/data/20251106190920_0_VPWW53_040000.xml",
      "title": "気象特別警報・警報・注意報",
      "content": "【宮城県気象警報・注意報】東部では、７日昼前から７日夕方まで強風に注意してください。宮城県では、７日まで空気の乾燥した状態が続くため、火の取り扱いに注意してください。",
      "observedAt": "2025-11-06T19:09:20.000Z",
      "placeCountry": "日本",
      "placePref": "宮城県",
      "placeCity": null,
      "latitude": 38.3880155,
      "longitude": 140.9761025
    },
    {
      "originId": "https://www.data.jma.go.jp/developer/xml/data/20251106190617_0_VPWW53_130000.xml",
      "title": "気象特別警報・警報・注意報",
      "content": "【東京都気象警報・注意報】伊豆諸島北部、伊豆諸島南部、小笠原諸島では、高波に注意してください。",
      "observedAt": "2025-11-06T19:06:17.000Z",
      "placeCountry": "日本",
      "placePref": "東京都",
      "placeCity": null,
      "latitude": 35.6828387,
      "longitude": 139.7594549
    },
    {
      "originId": "https://www.data.jma.go.jp/developer/xml/data/20251106190445_0_VPWW53_140000.xml",
      "title": "気象特別警報・警報・注意報",
      "content": "【神奈川県気象警報・注意報】注意報を解除します。",
      "observedAt": "2025-11-06T19:04:44.000Z",
      "placeCountry": "日本",
      "placePref": "神奈川県",
      "placeCity": null,
      "latitude": 35.4342935,
      "longitude": 139.374753
    },
    {
      "originId": "https://www.data.jma.go.jp/developer/xml/data/20251106181235_0_VPWW53_320000.xml",
      "title": "気象特別警報・警報・注意報",
      "content": "【島根県気象警報・注意報】東部、西部では、７日昼前まで濃霧による視程障害に注意してください。",
      "observedAt": "2025-11-06T18:12:34.000Z",
      "placeCountry": "日本",
      "placePref": "島根県",
      "placeCity": null,
      "latitude": 34.9418212,
      "longitude": 132.537439
    },
    {
      "originId": "https://www.data.jma.go.jp/developer/xml/data/20251106181017_0_VPWW53_340000.xml",
      "title": "気象特別警報・警報・注意報",
      "content": "【広島県気象警報・注意報】南部では、７日昼前から７日昼過ぎまで高潮に、８日まで空気の乾燥した状態が続くため、火の取り扱いに注意してください。北部では、７日昼前まで濃霧による視程障害に注意してください。",
      "observedAt": "2025-11-06T18:10:17.000Z",
      "placeCountry": "日本",
      "placePref": "広島県",
      "placeCity": null,
      "latitude": 34.5666725,
      "longitude": 132.753565
    },
    {
      "originId": "https://www.data.jma.go.jp/developer/xml/data/20251106180805_0_VPWW53_390000.xml",
      "title": "気象特別警報・警報・注意報",
      "content": "【高知県気象警報・注意報】東部では、強風や高潮に注意してください。東部、西部では、高波に注意してください。",
      "observedAt": "2025-11-06T18:08:05.000Z",
      "placeCountry": "日本",
      "placePref": "高知県",
      "placeCity": null,
      "latitude": 33.6569018,
      "longitude": 133.5606241
    }
  ]
}