{
  "generatedAt": "2026-02-25T05:34:19.925Z",
  "timeZone": "Asia/Tokyo",
  "hourPath": "2026/02/25/14",
  "source": "http://www.data.jma.go.jp/developer/xml/feed/extra.xml",
  "totalItems": 67,
  "items": [
    {
      "originId": "https://www.data.jma.go.jp/developer/xml/data/20260225045051_0_VPWW53_150000.xml",
      "title": "気象特別警報・警報・注意報",
      "content": "【新潟県気象警報・注意報】中越、上越では、２５日夜遅くまで濃霧による視程障害に注意してください。下越、中越、上越では、２７日までなだれに注意してください。",
      "observedAt": "2026-02-25T04:50:50.000Z",
      "placeCountry": "日本",
      "placePref": "新潟県",
      "placeCity": null,
      "latitude": 37.6452283,
      "longitude": 138.7669125
    },
    {
      "originId": "https://www.data.jma.go.jp/developer/xml/data/20260225043137_0_VPWW53_230000.xml",
      "title": "気象特別警報・警報・注意報",
      "content": "【愛知県気象警報・注意報】東部では、２５日夜のはじめ頃から２６日明け方まで強風に注意してください。",
      "observedAt": "2026-02-25T04:31:36.000Z",
      "placeCountry": "日本",
      "placePref": "愛知県",
      "placeCity": null,
      "latitude": 34.9991645,
      "longitude": 137.254574
    },
    {
      "originId": "https://www.data.jma.go.jp/developer/xml/data/20260225042825_0_VPWW53_220000.xml",
      "title": "気象特別警報・警報・注意報",
      "content": "【静岡県気象警報・注意報】伊豆では２５日夕方から、中部、東部、西部では２５日夜のはじめ頃から２６日明け方まで、強風に注意してください。静岡県では、２５日夕方まで急な強い雨や落雷に注意してください。",
      "observedAt": "2026-02-25T04:28:25.000Z",
      "placeCountry": "日本",
      "placePref": "静岡県",
      "placeCity": null,
      "latitude": 34.9332488,
      "longitude": 138.0955398
    },
    {
      "originId": "https://www.data.jma.go.jp/developer/xml/data/20260225032035_0_VPWW53_030000.xml",
      "title": "気象特別警報・警報・注意報",
      "content": "【岩手県気象警報・注意報】岩手県では、２５日夕方まで強風に注意してください。内陸、沿岸北部では、ここしばらくなだれに注意してください。",
      "observedAt": "2026-02-25T03:20:34.000Z",
      "placeCountry": "日本",
      "placePref": "岩手県",
      "placeCity": null,
      "latitude": 39.5713763,
      "longitude": 141.4253574
    },
    {
      "originId": "https://www.data.jma.go.jp/developer/xml/data/20260225025512_0_VPWW53_140000.xml",
      "title": "気象特別警報・警報・注意報",
      "content": "【神奈川県気象警報・注意報】東部では、２５日夕方まで土砂災害に、２６日昼前まで高波に注意してください。神奈川県では、２５日昼過ぎから強風に注意してください。",
      "observedAt": "2026-02-25T02:55:11.000Z",
      "placeCountry": "日本",
      "placePref": "神奈川県",
      "placeCity": null,
      "latitude": 35.4342935,
      "longitude": 139.374753
    },
    {
      "originId": "https://www.data.jma.go.jp/developer/xml/data/20260225023534_0_VPWW53_390000.xml",
      "title": "気象特別警報・警報・注意報",
      "content": "【高知県気象警報・注意報】東部、西部では、強風に注意してください。西部では、高波に注意してください。高知県では、急な強い雨や落雷に注意してください。",
      "observedAt": "2026-02-25T02:35:34.000Z",
      "placeCountry": "日本",
      "placePref": "高知県",
      "placeCity": null,
      "latitude": 33.6569018,
      "longitude": 133.5606241
    },
    {
      "originId": "https://www.data.jma.go.jp/developer/xml/data/20260225023323_0_VPWW53_150000.xml",
      "title": "気象特別警報・警報・注意報",
      "content": "【新潟県気象警報・注意報】下越、中越、上越では、２７日までなだれに注意してください。",
      "observedAt": "2026-02-25T02:33:22.000Z",
      "placeCountry": "日本",
      "placePref": "新潟県",
      "placeCity": null,
      "latitude": 37.6452283,
      "longitude": 138.7669125
    },
    {
      "originId": "https://www.data.jma.go.jp/developer/xml/data/20260225022029_0_VPWW53_420000.xml",
      "title": "気象特別警報・警報・注意報",
      "content": "【長崎県気象警報・注意報】長崎県では、強風や高波に注意してください。",
      "observedAt": "2026-02-25T02:20:28.000Z",
      "placeCountry": "日本",
      "placePref": "長崎県",
      "placeCity": null,
      "latitude": 33.1154683,
      "longitude": 129.7874339
    },
    {
      "originId": "https://www.data.jma.go.jp/developer/xml/data/20260225021936_0_VPWW53_200000.xml",
      "title": "気象特別警報・警報・注意報",
      "content": "【長野県気象警報・注意報】中部、南部では、２５日夜のはじめ頃まで融雪による土砂災害に注意してください。長野県では、２６日までなだれに注意してください。",
      "observedAt": "2026-02-25T02:19:35.000Z",
      "placeCountry": "日本",
      "placePref": "長野県",
      "placeCity": null,
      "latitude": 36.1143945,
      "longitude": 138.0319015
    },
    {
      "originId": "https://www.data.jma.go.jp/developer/xml/data/20260225014310_0_VPWW53_350000.xml",
      "title": "気象特別警報・警報・注意報",
      "content": "【山口県気象警報・注意報】山口県では、強風に注意してください。西部、東部、北部では、高波に注意してください。",
      "observedAt": "2026-02-25T01:43:09.000Z",
      "placeCountry": "日本",
      "placePref": "山口県",
      "placeCity": null,
      "latitude": 34.2379614,
      "longitude": 131.5873845
    },
    {
      "originId": "https://www.data.jma.go.jp/developer/xml/data/20260225014245_0_VPWW53_140000.xml",
      "title": "気象特別警報・警報・注意報",
      "content": "【神奈川県気象警報・注意報】東部では、２５日夕方まで土砂災害に、２６日昼前まで高波に注意してください。神奈川県では、２５日昼過ぎから強風に、２５日昼前まで落雷に注意してください。",
      "observedAt": "2026-02-25T01:42:44.000Z",
      "placeCountry": "日本",
      "placePref": "神奈川県",
      "placeCity": null,
      "latitude": 35.4342935,
      "longitude": 139.374753
    },
    {
      "originId": "https://www.data.jma.go.jp/developer/xml/data/20260225012414_0_VPWW53_220000.xml",
      "title": "気象特別警報・警報・注意報",
      "content": "【静岡県気象警報・注意報】伊豆では、２５日夕方から強風に注意してください。静岡県では、２５日夕方まで急な強い雨や落雷に注意してください。",
      "observedAt": "2026-02-25T01:24:13.000Z",
      "placeCountry": "日本",
      "placePref": "静岡県",
      "placeCity": null,
      "latitude": 34.9332488,
      "longitude": 138.0955398
    },
    {
      "originId": "https://www.data.jma.go.jp/developer/xml/data/20260225012305_0_VPWW53_380000.xml",
      "title": "気象特別警報・警報・注意報",
      "content": "【愛媛県気象警報・注意報】南予では、２５日夜遅くまで強風や高波に注意してください。",
      "observedAt": "2026-02-25T01:23:04.000Z",
      "placeCountry": "日本",
      "placePref": "愛媛県",
      "placeCity": null,
      "latitude": 33.6013646,
      "longitude": 132.8185275
    },
    {
      "originId": "https://www.data.jma.go.jp/developer/xml/data/20260225012239_0_VPWW53_080000.xml",
      "title": "気象特別警報・警報・注意報",
      "content": "【茨城県気象警報・注意報】南部では、低い土地の浸水や落雷に注意してください。茨城県では、強風や高波に注意してください。",
      "observedAt": "2026-02-25T01:22:38.000Z",
      "placeCountry": "日本",
      "placePref": "茨城県",
      "placeCity": null,
      "latitude": 36.2869536,
      "longitude": 140.4703384
    },
    {
      "originId": "https://www.data.jma.go.jp/developer/xml/data/20260225012040_0_VPWW53_110000.xml",
      "title": "気象特別警報・警報・注意報",
      "content": "【埼玉県気象警報・注意報】秩父地方では、２６日昼前まで濃霧による視程障害に注意してください。",
      "observedAt": "2026-02-25T01:20:40.000Z",
      "placeCountry": "日本",
      "placePref": "埼玉県",
      "placeCity": null,
      "latitude": 35.9754168,
      "longitude": 139.4160114
    },
    {
      "originId": "https://www.data.jma.go.jp/developer/xml/data/20260225011552_0_VPWW53_300000.xml",
      "title": "気象特別警報・警報・注意報",
      "content": "【和歌山県気象警報・注意報】南部では、２５日夕方から２６日明け方まで強風に、２５日夜のはじめ頃から高波に注意してください。和歌山県では、２５日夕方まで急な強い雨や落雷に注意してください。",
      "observedAt": "2026-02-25T01:15:51.000Z",
      "placeCountry": "日本",
      "placePref": "和歌山県",
      "placeCity": null,
      "latitude": 33.8070292,
      "longitude": 135.5930743
    },
    {
      "originId": "https://www.data.jma.go.jp/developer/xml/data/20260225011330_0_VPWW53_320000.xml",
      "title": "気象特別警報・警報・注意報",
      "content": "【島根県気象警報・注意報】島根県では、２５日夕方まで強風に、２６日明け方まで高波に注意してください。",
      "observedAt": "2026-02-25T01:13:29.000Z",
      "placeCountry": "日本",
      "placePref": "島根県",
      "placeCity": null,
      "latitude": 34.9418212,
      "longitude": 132.537439
    },
    {
      "originId": "https://www.data.jma.go.jp/developer/xml/data/20260225011035_0_VPWW53_460040.xml",
      "title": "気象特別警報・警報・注意報",
      "content": "【奄美地方（鹿児島県）気象警報・注意報】奄美地方では、２６日明け方まで高波に注意してください。",
      "observedAt": "2026-02-25T01:10:35.000Z",
      "placeCountry": "日本",
      "placePref": "鹿児島県",
      "placeCity": null,
      "latitude": 31.521587,
      "longitude": 130.5474077
    },
    {
      "originId": "https://www.data.jma.go.jp/developer/xml/data/20260225010905_0_VPWW53_120000.xml",
      "title": "気象特別警報・警報・注意報",
      "content": "【千葉県気象警報・注意報】千葉県では、低い土地の浸水や強風、高波、落雷に注意してください。北西部、南部では、河川の増水に注意してください。",
      "observedAt": "2026-02-25T01:09:04.000Z",
      "placeCountry": "日本",
      "placePref": "千葉県",
      "placeCity": null,
      "latitude": 35.549399,
      "longitude": 140.2647303
    },
    {
      "originId": "https://www.data.jma.go.jp/developer/xml/data/20260225010835_0_VPWW53_130000.xml",
      "title": "気象特別警報・警報・注意報",
      "content": "【東京都気象警報・注意報】東京地方、伊豆諸島北部、伊豆諸島南部では強風に、東京都では高波に、伊豆諸島北部、伊豆諸島南部では竜巻などの激しい突風や急な強い雨、落雷、濃霧による視程障害に注意してください。",
      "observedAt": "2026-02-25T01:08:34.000Z",
      "placeCountry": "日本",
      "placePref": "東京都",
      "placeCity": null,
      "latitude": 35.6828387,
      "longitude": 139.7594549
    },
    {
      "originId": "https://www.data.jma.go.jp/developer/xml/data/20260225010613_0_VPWW53_430000.xml",
      "title": "気象特別警報・警報・注意報",
      "content": "【熊本県気象警報・注意報】熊本、天草・芦北地方では、２６日朝まで強風に注意してください。",
      "observedAt": "2026-02-25T01:06:13.000Z",
      "placeCountry": "日本",
      "placePref": "熊本県",
      "placeCity": null,
      "latitude": 32.6450475,
      "longitude": 130.6341345
    },
    {
      "originId": "https://www.data.jma.go.jp/developer/xml/data/20260225010507_0_VPWW53_310000.xml",
      "title": "気象特別警報・警報・注意報",
      "content": "【鳥取県気象警報・注意報】鳥取県では、２５日夜のはじめ頃から２６日明け方まで高波に、２７日までなだれに注意してください。",
      "observedAt": "2026-02-25T01:05:07.000Z",
      "placeCountry": "日本",
      "placePref": "鳥取県",
      "placeCity": null,
      "latitude": 35.3555075,
      "longitude": 133.8678525
    },
    {
      "originId": "https://www.data.jma.go.jp/developer/xml/data/20260225010444_0_VPWW53_460100.xml",
      "title": "気象特別警報・警報・注意報",
      "content": "【鹿児島県（奄美地方を除く）気象警報・注意報】薩摩地方では、２５日夜のはじめ頃まで強風に注意してください。薩摩、大隅、種子島・屋久島地方では、２５日夜のはじめ頃まで高波に注意してください。",
      "observedAt": "2026-02-25T01:04:43.000Z",
      "placeCountry": "日本",
      "placePref": "鹿児島県",
      "placeCity": null,
      "latitude": 31.521587,
      "longitude": 130.5474077
    },
    {
      "originId": "https://www.data.jma.go.jp/developer/xml/data/20260225010411_0_VPWW53_170000.xml",
      "title": "気象特別警報・警報・注意報",
      "content": "【石川県気象警報・注意報】石川県では、２５日夜のはじめ頃まで強風に注意してください。能登では、２５日昼過ぎから２５日夜遅くまで高波に注意してください。加賀では、ここしばらくなだれに注意してください。",
      "observedAt": "2026-02-25T01:04:10.000Z",
      "placeCountry": "日本",
      "placePref": "石川県",
      "placeCity": null,
      "latitude": 36.9888678,
      "longitude": 136.8163563
    },
    {
      "originId": "https://www.data.jma.go.jp/developer/xml/data/20260225005435_0_VPWW53_070000.xml",
      "title": "気象特別警報・警報・注意報",
      "content": "【福島県気象警報・注意報】浜通りでは、強風や高波に注意してください。福島県では、濃霧による視程障害に注意してください。中通り、会津では、なだれに注意してください。",
      "observedAt": "2026-02-25T00:54:33.000Z",
      "placeCountry": "日本",
      "placePref": "福島県",
      "placeCity": null,
      "latitude": 37.3662591,
      "longitude": 140.2511854
    },
    {
      "originId": "https://www.data.jma.go.jp/developer/xml/data/20260225005020_0_VPWW53_440000.xml",
      "title": "気象特別警報・警報・注意報",
      "content": "【大分県気象警報・注意報】中部、北部、南部では、強風や高波に注意してください。",
      "observedAt": "2026-02-25T00:50:20.000Z",
      "placeCountry": "日本",
      "placePref": "大分県",
      "placeCity": null,
      "latitude": 33.1819875,
      "longitude": 131.4270217
    },
    {
      "originId": "https://www.data.jma.go.jp/developer/xml/data/20260225004925_0_VPWW53_040000.xml",
      "title": "気象特別警報・警報・注意報",
      "content": "【宮城県気象警報・注意報】東部では、強風や高波に注意してください。西部では、なだれに注意してください。",
      "observedAt": "2026-02-25T00:49:24.000Z",
      "placeCountry": "日本",
      "placePref": "宮城県",
      "placeCity": null,
      "latitude": 38.3880155,
      "longitude": 140.9761025
    },
    {
      "originId": "https://www.data.jma.go.jp/developer/xml/data/20260225004514_0_VPWW53_200000.xml",
      "title": "気象特別警報・警報・注意報",
      "content": "【長野県気象警報・注意報】中部、南部では、融雪による土砂災害に注意してください。北部、中部では、濃霧による視程障害に注意してください。長野県では、なだれに注意してください。",
      "observedAt": "2026-02-25T00:45:13.000Z",
      "placeCountry": "日本",
      "placePref": "長野県",
      "placeCity": null,
      "latitude": 36.1143945,
      "longitude": 138.0319015
    },
    {
      "originId": "https://www.data.jma.go.jp/developer/xml/data/20260225004512_0_VPWW53_050000.xml",
      "title": "気象特別警報・警報・注意報",
      "content": "【秋田県気象警報・注意報】秋田県では、ここしばらくなだれに注意してください。",
      "observedAt": "2026-02-25T00:45:11.000Z",
      "placeCountry": "日本",
      "placePref": "秋田県",
      "placeCity": null,
      "latitude": 39.6898802,
      "longitude": 140.342608
    },
    {
      "originId": "https://www.data.jma.go.jp/developer/xml/data/20260225003433_0_VPWW53_250000.xml",
      "title": "気象特別警報・警報・注意報",
      "content": "【滋賀県気象警報・注意報】北部では、２７日までなだれに注意してください。",
      "observedAt": "2026-02-25T00:34:33.000Z",
      "placeCountry": "日本",
      "placePref": "滋賀県",
      "placeCity": null,
      "latitude": 35.247154,
      "longitude": 136.109385
    },
    {
      "originId": "https://www.data.jma.go.jp/developer/xml/data/20260225002253_0_VPWW53_180000.xml",
      "title": "気象特別警報・警報・注意報",
      "content": "【福井県気象警報・注意報】福井県では、２５日夕方まで濃霧による視程障害に注意してください。嶺北では、ここしばらくなだれに注意してください。",
      "observedAt": "2026-02-25T00:22:52.000Z",
      "placeCountry": "日本",
      "placePref": "福井県",
      "placeCity": null,
      "latitude": 35.9263502,
      "longitude": 136.6068127
    },
    {
      "originId": "https://www.data.jma.go.jp/developer/xml/data/20260225001807_0_VPWW53_450000.xml",
      "title": "気象特別警報・警報・注意報",
      "content": "【宮崎県気象警報・注意報】北部平野部では、２５日昼過ぎから２５日夜遅くまで強風に注意してください。南部平野部、北部平野部では、２５日夕方まで高波に注意してください。",
      "observedAt": "2026-02-25T00:18:06.000Z",
      "placeCountry": "日本",
      "placePref": "宮崎県",
      "placeCity": null,
      "latitude": 32.097681,
      "longitude": 131.294542
    },
    {
      "originId": "https://www.data.jma.go.jp/developer/xml/data/20260225001614_0_VPWW53_120000.xml",
      "title": "気象特別警報・警報・注意報",
      "content": "【千葉県気象警報・注意報】千葉県では、低い土地の浸水や強風、高波、落雷に注意してください。北西部、南部では、河川の増水に注意してください。",
      "observedAt": "2026-02-25T00:16:12.000Z",
      "placeCountry": "日本",
      "placePref": "千葉県",
      "placeCity": null,
      "latitude": 35.549399,
      "longitude": 140.2647303
    },
    {
      "originId": "https://www.data.jma.go.jp/developer/xml/data/20260224225748_0_VPWW53_120000.xml",
      "title": "気象特別警報・警報・注意報",
      "content": "【千葉県気象警報・注意報】千葉県では、２５日昼過ぎまで低い土地の浸水に、２５日夕方まで落雷に注意してください。北東部、南部では、２５日昼前から強風や高波に注意してください。",
      "observedAt": "2026-02-24T22:57:47.000Z",
      "placeCountry": "日本",
      "placePref": "千葉県",
      "placeCity": null,
      "latitude": 35.549399,
      "longitude": 140.2647303
    },
    {
      "originId": "https://www.data.jma.go.jp/developer/xml/data/20260224225620_0_VPWW53_150000.xml",
      "title": "気象特別警報・警報・注意報",
      "content": "【新潟県気象警報・注意報】上越では、２５日夜遅くまで濃霧による視程障害に注意してください。下越、中越、上越では、２６日までなだれに注意してください。",
      "observedAt": "2026-02-24T22:56:19.000Z",
      "placeCountry": "日本",
      "placePref": "新潟県",
      "placeCity": null,
      "latitude": 37.6452283,
      "longitude": 138.7669125
    },
    {
      "originId": "https://www.data.jma.go.jp/developer/xml/data/20260224222151_0_VPWW53_280000.xml",
      "title": "気象特別警報・警報・注意報",
      "content": "【兵庫県気象警報・注意報】南部では、２５日夕方まで強風や高波に注意してください。兵庫県では、２６日までなだれに注意してください。",
      "observedAt": "2026-02-24T22:21:50.000Z",
      "placeCountry": "日本",
      "placePref": "兵庫県",
      "placeCity": null,
      "latitude": 34.914934,
      "longitude": 134.860666
    },
    {
      "originId": "https://www.data.jma.go.jp/developer/xml/data/20260224221838_0_VPWW53_420000.xml",
      "title": "気象特別警報・警報・注意報",
      "content": "【長崎県気象警報・注意報】北部、壱岐・対馬、五島の海上では、２５日昼前まで暴風に警戒してください。",
      "observedAt": "2026-02-24T22:18:37.000Z",
      "placeCountry": "日本",
      "placePref": "長崎県",
      "placeCity": null,
      "latitude": 33.1154683,
      "longitude": 129.7874339
    },
    {
      "originId": "https://www.data.jma.go.jp/developer/xml/data/20260224220507_0_VPWW53_460100.xml",
      "title": "気象特別警報・警報・注意報",
      "content": "【鹿児島県（奄美地方を除く）気象警報・注意報】薩摩、大隅地方では、強風に注意してください。薩摩、大隅、種子島・屋久島地方では、高波や急な強い雨、落雷に注意してください。",
      "observedAt": "2026-02-24T22:05:06.000Z",
      "placeCountry": "日本",
      "placePref": "鹿児島県",
      "placeCity": null,
      "latitude": 31.521587,
      "longitude": 130.5474077
    },
    {
      "originId": "https://www.data.jma.go.jp/developer/xml/data/20260224220346_0_VPWW53_200000.xml",
      "title": "気象特別警報・警報・注意報",
      "content": "【長野県気象警報・注意報】中部、南部では、融雪による土砂災害に注意してください。北部、中部では、濃霧による視程障害に注意してください。長野県では、なだれに注意してください。",
      "observedAt": "2026-02-24T22:03:45.000Z",
      "placeCountry": "日本",
      "placePref": "長野県",
      "placeCity": null,
      "latitude": 36.1143945,
      "longitude": 138.0319015
    },
    {
      "originId": "https://www.data.jma.go.jp/developer/xml/data/20260224214507_0_VPWW53_070000.xml",
      "title": "気象特別警報・警報・注意報",
      "content": "【福島県気象警報・注意報】浜通りでは、強風に注意してください。福島県では、濃霧による視程障害に注意してください。中通り、会津では、なだれに注意してください。",
      "observedAt": "2026-02-24T21:45:06.000Z",
      "placeCountry": "日本",
      "placePref": "福島県",
      "placeCity": null,
      "latitude": 37.3662591,
      "longitude": 140.2511854
    },
    {
      "originId": "https://www.data.jma.go.jp/developer/xml/data/20260224213953_0_VPWW53_140000.xml",
      "title": "気象特別警報・警報・注意報",
      "content": "【神奈川県気象警報・注意報】神奈川県では、２５日昼過ぎから強風に、２５日昼前まで急な強い雨や落雷に注意してください。東部では、２５日昼前から高波に注意してください。",
      "observedAt": "2026-02-24T21:39:52.000Z",
      "placeCountry": "日本",
      "placePref": "神奈川県",
      "placeCity": null,
      "latitude": 35.4342935,
      "longitude": 139.374753
    },
    {
      "originId": "https://www.data.jma.go.jp/developer/xml/data/20260224204045_0_VPWW53_400000.xml",
      "title": "気象特別警報・警報・注意報",
      "content": "【福岡県気象警報・注意報】福岡、北九州地方では、強風や高波に注意してください。",
      "observedAt": "2026-02-24T20:40:44.000Z",
      "placeCountry": "日本",
      "placePref": "福岡県",
      "placeCity": null,
      "latitude": 33.6251241,
      "longitude": 130.6180016
    },
    {
      "originId": "https://www.data.jma.go.jp/developer/xml/data/20260224203201_0_VPWW53_460100.xml",
      "title": "気象特別警報・警報・注意報",
      "content": "【鹿児島県（奄美地方を除く）気象警報・注意報】薩摩地方では、低い土地の浸水や河川の増水に注意してください。薩摩、大隅地方では、強風に注意してください。薩摩、大隅、種子島・屋久島地方では、高波や落雷に注意してください。",
      "observedAt": "2026-02-24T20:32:00.000Z",
      "placeCountry": "日本",
      "placePref": "鹿児島県",
      "placeCity": null,
      "latitude": 31.521587,
      "longitude": 130.5474077
    },
    {
      "originId": "https://www.data.jma.go.jp/developer/xml/data/20260224200742_0_VPWW53_230000.xml",
      "title": "気象特別警報・警報・注意報",
      "content": "【愛知県気象警報・注意報】東部では、２５日夕方まで急な強い雨や落雷に注意してください。",
      "observedAt": "2026-02-24T20:07:41.000Z",
      "placeCountry": "日本",
      "placePref": "愛知県",
      "placeCity": null,
      "latitude": 34.9991645,
      "longitude": 137.254574
    },
    {
      "originId": "https://www.data.jma.go.jp/developer/xml/data/20260224200305_0_VPWW53_240000.xml",
      "title": "気象特別警報・警報・注意報",
      "content": "【三重県気象警報・注意報】南部では、２５日夕方まで急な強い雨や落雷に注意してください。",
      "observedAt": "2026-02-24T20:03:05.000Z",
      "placeCountry": "日本",
      "placePref": "三重県",
      "placeCity": null,
      "latitude": 34.7339685,
      "longitude": 136.5154489
    },
    {
      "originId": "https://www.data.jma.go.jp/developer/xml/data/20260224193746_0_VPWW53_300000.xml",
      "title": "気象特別警報・警報・注意報",
      "content": "【和歌山県気象警報・注意報】和歌山県では、２５日夕方まで急な強い雨や落雷に注意してください。",
      "observedAt": "2026-02-24T19:37:46.000Z",
      "placeCountry": "日本",
      "placePref": "和歌山県",
      "placeCity": null,
      "latitude": 33.8070292,
      "longitude": 135.5930743
    },
    {
      "originId": "https://www.data.jma.go.jp/developer/xml/data/20260224193216_0_VPWW53_460100.xml",
      "title": "気象特別警報・警報・注意報",
      "content": "【鹿児島県（奄美地方を除く）気象警報・注意報】薩摩、大隅地方では、強風に注意してください。薩摩、大隅、種子島・屋久島地方では、高波や急な強い雨、落雷に注意してください。",
      "observedAt": "2026-02-24T19:32:15.000Z",
      "placeCountry": "日本",
      "placePref": "鹿児島県",
      "placeCity": null,
      "latitude": 31.521587,
      "longitude": 130.5474077
    },
    {
      "originId": "https://www.data.jma.go.jp/developer/xml/data/20260224192338_0_VPWW53_450000.xml",
      "title": "気象特別警報・警報・注意報",
      "content": "【宮崎県気象警報・注意報】宮崎県では、２５日夕方まで高波に、２５日昼前まで急な強い雨や落雷に注意してください。",
      "observedAt": "2026-02-24T19:23:37.000Z",
      "placeCountry": "日本",
      "placePref": "宮崎県",
      "placeCity": null,
      "latitude": 32.097681,
      "longitude": 131.294542
    },
    {
      "originId": "https://www.data.jma.go.jp/developer/xml/data/20260224192249_0_VPWW53_460040.xml",
      "title": "気象特別警報・警報・注意報",
      "content": "【奄美地方（鹿児島県）気象警報・注意報】奄美地方では、２６日明け方まで高波に、２５日昼前まで急な強い雨や落雷に注意してください。",
      "observedAt": "2026-02-24T19:22:48.000Z",
      "placeCountry": "日本",
      "placePref": "鹿児島県",
      "placeCity": null,
      "latitude": 31.521587,
      "longitude": 130.5474077
    },
    {
      "originId": "https://www.data.jma.go.jp/developer/xml/data/20260224192230_0_VPWW53_280000.xml",
      "title": "気象特別警報・警報・注意報",
      "content": "【兵庫県気象警報・注意報】兵庫県では、２６日までなだれに注意してください。",
      "observedAt": "2026-02-24T19:22:29.000Z",
      "placeCountry": "日本",
      "placePref": "兵庫県",
      "placeCity": null,
      "latitude": 34.914934,
      "longitude": 134.860666
    },
    {
      "originId": "https://www.data.jma.go.jp/developer/xml/data/20260224192116_0_VPWW53_410000.xml",
      "title": "気象特別警報・警報・注意報",
      "content": "【佐賀県気象警報・注意報】佐賀県では、強風に注意してください。北部では、高波に注意してください。",
      "observedAt": "2026-02-24T19:21:15.000Z",
      "placeCountry": "日本",
      "placePref": "佐賀県",
      "placeCity": null,
      "latitude": 33.2185408,
      "longitude": 130.1296585
    },
    {
      "originId": "https://www.data.jma.go.jp/developer/xml/data/20260224192110_0_VPWW53_420000.xml",
      "title": "気象特別警報・警報・注意報",
      "content": "【長崎県気象警報・注意報】北部、壱岐・対馬、五島の海上では、２５日昼前まで暴風に警戒してください。",
      "observedAt": "2026-02-24T19:21:09.000Z",
      "placeCountry": "日本",
      "placePref": "長崎県",
      "placeCity": null,
      "latitude": 33.1154683,
      "longitude": 129.7874339
    },
    {
      "originId": "https://www.data.jma.go.jp/developer/xml/data/20260224191728_0_VPWW53_360000.xml",
      "title": "気象特別警報・警報・注意報",
      "content": "【徳島県気象警報・注意報】南部では、２５日昼前から２６日明け方まで強風に注意してください。徳島県では、２５日夕方まで急な強い雨や落雷に注意してください。",
      "observedAt": "2026-02-24T19:17:27.000Z",
      "placeCountry": "日本",
      "placePref": "徳島県",
      "placeCity": null,
      "latitude": 33.9196418,
      "longitude": 134.2509634
    },
    {
      "originId": "https://www.data.jma.go.jp/developer/xml/data/20260224191630_0_VPWW53_120000.xml",
      "title": "気象特別警報・警報・注意報",
      "content": "【千葉県気象警報・注意報】北東部、南部では、２５日昼前から強風や高波に注意してください。千葉県では、２５日夕方まで急な強い雨や落雷に注意してください。",
      "observedAt": "2026-02-24T19:16:29.000Z",
      "placeCountry": "日本",
      "placePref": "千葉県",
      "placeCity": null,
      "latitude": 35.549399,
      "longitude": 140.2647303
    },
    {
      "originId": "https://www.data.jma.go.jp/developer/xml/data/20260224191233_0_VPWW53_080000.xml",
      "title": "気象特別警報・警報・注意報",
      "content": "【茨城県気象警報・注意報】茨城県では、２５日朝から強風や高波に注意してください。南部では、２５日朝から２５日夕方まで急な強い雨や落雷に注意してください。",
      "observedAt": "2026-02-24T19:12:32.000Z",
      "placeCountry": "日本",
      "placePref": "茨城県",
      "placeCity": null,
      "latitude": 36.2869536,
      "longitude": 140.4703384
    },
    {
      "originId": "https://www.data.jma.go.jp/developer/xml/data/20260224190926_0_VPWW53_180000.xml",
      "title": "気象特別警報・警報・注意報",
      "content": "【福井県気象警報・注意報】嶺北では、ここしばらくなだれに注意してください。",
      "observedAt": "2026-02-24T19:09:26.000Z",
      "placeCountry": "日本",
      "placePref": "福井県",
      "placeCity": null,
      "latitude": 35.9263502,
      "longitude": 136.6068127
    },
    {
      "originId": "https://www.data.jma.go.jp/developer/xml/data/20260224190904_0_VPWW53_390000.xml",
      "title": "気象特別警報・警報・注意報",
      "content": "【高知県気象警報・注意報】中部では、低い土地の浸水に注意してください。東部、西部では、強風に注意してください。西部では、高波に注意してください。高知県では、落雷に注意してください。",
      "observedAt": "2026-02-24T19:09:03.000Z",
      "placeCountry": "日本",
      "placePref": "高知県",
      "placeCity": null,
      "latitude": 33.6569018,
      "longitude": 133.5606241
    },
    {
      "originId": "https://www.data.jma.go.jp/developer/xml/data/20260224190846_0_VPWW53_350000.xml",
      "title": "気象特別警報・警報・注意報",
      "content": "【山口県気象警報・注意報】山口県では、強風に注意してください。西部、東部、北部では、高波に注意してください。",
      "observedAt": "2026-02-24T19:08:45.000Z",
      "placeCountry": "日本",
      "placePref": "山口県",
      "placeCity": null,
      "latitude": 34.2379614,
      "longitude": 131.5873845
    },
    {
      "originId": "https://www.data.jma.go.jp/developer/xml/data/20260224190823_0_VPWW53_170000.xml",
      "title": "気象特別警報・警報・注意報",
      "content": "【石川県気象警報・注意報】石川県では、２５日昼前から２５日夜のはじめ頃まで強風に注意してください。加賀では、２５日昼前まで融雪による土砂災害に、ここしばらくなだれに注意してください。",
      "observedAt": "2026-02-24T19:08:22.000Z",
      "placeCountry": "日本",
      "placePref": "石川県",
      "placeCity": null,
      "latitude": 36.9888678,
      "longitude": 136.8163563
    },
    {
      "originId": "https://www.data.jma.go.jp/developer/xml/data/20260224190806_0_VPWW53_160000.xml",
      "title": "気象特別警報・警報・注意報",
      "content": "【富山県気象警報・注意報】富山県では、２５日昼前から２５日夜遅くまで強風に、２６日までなだれに注意してください。",
      "observedAt": "2026-02-24T19:08:06.000Z",
      "placeCountry": "日本",
      "placePref": "富山県",
      "placeCity": null,
      "latitude": 36.6468015,
      "longitude": 137.2183531
    },
    {
      "originId": "https://www.data.jma.go.jp/developer/xml/data/20260224190614_0_VPWW53_380000.xml",
      "title": "気象特別警報・警報・注意報",
      "content": "【愛媛県気象警報・注意報】南予では、２５日昼前から２５日夜遅くまで強風や高波に注意してください。愛媛県では、２５日昼過ぎまで急な強い雨や落雷に注意してください。",
      "observedAt": "2026-02-24T19:06:14.000Z",
      "placeCountry": "日本",
      "placePref": "愛媛県",
      "placeCity": null,
      "latitude": 33.6013646,
      "longitude": 132.8185275
    },
    {
      "originId": "https://www.data.jma.go.jp/developer/xml/data/20260224190542_0_VPWW53_440000.xml",
      "title": "気象特別警報・警報・注意報",
      "content": "【大分県気象警報・注意報】中部、北部、南部では、強風や高波に注意してください。",
      "observedAt": "2026-02-24T19:05:41.000Z",
      "placeCountry": "日本",
      "placePref": "大分県",
      "placeCity": null,
      "latitude": 33.1819875,
      "longitude": 131.4270217
    },
    {
      "originId": "https://www.data.jma.go.jp/developer/xml/data/20260224190532_0_VPWW53_430000.xml",
      "title": "気象特別警報・警報・注意報",
      "content": "【熊本県気象警報・注意報】熊本、天草・芦北地方では、強風に注意してください。天草・芦北地方では、高波に注意してください。熊本県では、急な強い雨や落雷に注意してください。",
      "observedAt": "2026-02-24T19:05:31.000Z",
      "placeCountry": "日本",
      "placePref": "熊本県",
      "placeCity": null,
      "latitude": 32.6450475,
      "longitude": 130.6341345
    },
    {
      "originId": "https://www.data.jma.go.jp/developer/xml/data/20260224190507_0_VPWW53_320000.xml",
      "title": "気象特別警報・警報・注意報",
      "content": "【島根県気象警報・注意報】島根県では、２５日夕方まで強風に注意してください。西部では２６日明け方まで、東部、隠岐では２５日昼前から２６日明け方まで、高波に注意してください。",
      "observedAt": "2026-02-24T19:05:06.000Z",
      "placeCountry": "日本",
      "placePref": "島根県",
      "placeCity": null,
      "latitude": 34.9418212,
      "longitude": 132.537439
    },
    {
      "originId": "https://www.data.jma.go.jp/developer/xml/data/20260224190442_0_VPWW53_140000.xml",
      "title": "気象特別警報・警報・注意報",
      "content": "【神奈川県気象警報・注意報】東部では、２５日昼前から高波に注意してください。神奈川県では、２５日昼前まで急な強い雨や落雷に注意してください。",
      "observedAt": "2026-02-24T19:04:41.000Z",
      "placeCountry": "日本",
      "placePref": "神奈川県",
      "placeCity": null,
      "latitude": 35.4342935,
      "longitude": 139.374753
    },
    {
      "originId": "https://www.data.jma.go.jp/developer/xml/data/20260224190409_0_VPWW53_130000.xml",
      "title": "気象特別警報・警報・注意報",
      "content": "【東京都気象警報・注意報】伊豆諸島北部、伊豆諸島南部では、強風や竜巻などの激しい突風、急な強い雨、落雷に注意してください。伊豆諸島北部、伊豆諸島南部、小笠原諸島では、高波に注意してください。",
      "observedAt": "2026-02-24T19:04:09.000Z",
      "placeCountry": "日本",
      "placePref": "東京都",
      "placeCity": null,
      "latitude": 35.6828387,
      "longitude": 139.7594549
    },
    {
      "originId": "https://www.data.jma.go.jp/developer/xml/data/20260224190323_0_VPWW53_200000.xml",
      "title": "気象特別警報・警報・注意報",
      "content": "【長野県気象警報・注意報】中部、南部では、２５日夕方まで融雪による土砂災害に注意してください。長野県では、２６日までなだれに注意してください。",
      "observedAt": "2026-02-24T19:03:22.000Z",
      "placeCountry": "日本",
      "placePref": "長野県",
      "placeCity": null,
      "latitude": 36.1143945,
      "longitude": 138.0319015
    }
  ]
}