{
  "generatedAt": "2026-04-04T03:09:18.087Z",
  "timeZone": "Asia/Tokyo",
  "hourPath": "2026/04/04/12",
  "source": "http://www.data.jma.go.jp/developer/xml/feed/extra.xml",
  "totalItems": 85,
  "items": [
    {
      "originId": "https://www.data.jma.go.jp/developer/xml/data/20260404025117_0_VPWW53_430000.xml",
      "title": "気象特別警報・警報・注意報",
      "content": "【熊本県気象警報・注意報】熊本、阿蘇地方では４日夕方まで、天草・芦北地方では４日夜遅くまで、強風に注意してください。熊本地方では４日夕方まで、天草・芦北地方では４日夜遅くまで、高波に注意してください。",
      "observedAt": "2026-04-04T02:51:16.000Z",
      "placeCountry": "日本",
      "placePref": "熊本県",
      "placeCity": null,
      "latitude": 32.6450475,
      "longitude": 130.6341345
    },
    {
      "originId": "https://www.data.jma.go.jp/developer/xml/data/20260404024352_0_VPWW53_450000.xml",
      "title": "気象特別警報・警報・注意報",
      "content": "【宮崎県気象警報・注意報】南部平野部では、低い土地の浸水に注意してください。南部平野部、北部平野部では、強風や高波に注意してください。宮崎県では、落雷に注意してください。",
      "observedAt": "2026-04-04T02:43:52.000Z",
      "placeCountry": "日本",
      "placePref": "宮崎県",
      "placeCity": null,
      "latitude": 32.097681,
      "longitude": 131.294542
    },
    {
      "originId": "https://www.data.jma.go.jp/developer/xml/data/20260404024028_0_VPWW53_440000.xml",
      "title": "気象特別警報・警報・注意報",
      "content": "【大分県気象警報・注意報】中部、南部では、４日昼過ぎまで高波に警戒してください。",
      "observedAt": "2026-04-04T02:40:28.000Z",
      "placeCountry": "日本",
      "placePref": "大分県",
      "placeCity": null,
      "latitude": 33.1819875,
      "longitude": 131.4270217
    },
    {
      "originId": "https://www.data.jma.go.jp/developer/xml/data/20260404023051_0_VPWW53_400000.xml",
      "title": "気象特別警報・警報・注意報",
      "content": "【福岡県気象警報・注意報】筑豊、筑後地方では４日夕方まで、福岡、北九州地方では４日夜遅くまで、強風に注意してください。筑後地方では４日夕方まで、福岡、北九州地方では４日夜遅くまで、高波に注意してください。",
      "observedAt": "2026-04-04T02:30:50.000Z",
      "placeCountry": "日本",
      "placePref": "福岡県",
      "placeCity": null,
      "latitude": 33.6251241,
      "longitude": 130.6180016
    },
    {
      "originId": "https://www.data.jma.go.jp/developer/xml/data/20260404021845_0_VPWW53_460100.xml",
      "title": "気象特別警報・警報・注意報",
      "content": "【鹿児島県（奄美地方を除く）気象警報・注意報】大隅、種子島・屋久島地方では土砂災害や河川の増水に、大隅地方では低い土地の浸水に、薩摩、大隅、種子島・屋久島地方では強風や高波、竜巻などの激しい突風、落雷に注意してください。",
      "observedAt": "2026-04-04T02:18:44.000Z",
      "placeCountry": "日本",
      "placePref": "鹿児島県",
      "placeCity": null,
      "latitude": 31.521587,
      "longitude": 130.5474077
    },
    {
      "originId": "https://www.data.jma.go.jp/developer/xml/data/20260404020209_0_VPWW53_350000.xml",
      "title": "気象特別警報・警報・注意報",
      "content": "【山口県気象警報・注意報】山口県では、強風や高波に注意してください。",
      "observedAt": "2026-04-04T02:02:09.000Z",
      "placeCountry": "日本",
      "placePref": "山口県",
      "placeCity": null,
      "latitude": 34.2379614,
      "longitude": 131.5873845
    },
    {
      "originId": "https://www.data.jma.go.jp/developer/xml/data/20260404013328_0_VPWW53_460100.xml",
      "title": "気象特別警報・警報・注意報",
      "content": "【鹿児島県（奄美地方を除く）気象警報・注意報】薩摩、大隅地方の海上では、４日昼前まで暴風に警戒してください。",
      "observedAt": "2026-04-04T01:33:26.000Z",
      "placeCountry": "日本",
      "placePref": "鹿児島県",
      "placeCity": null,
      "latitude": 31.521587,
      "longitude": 130.5474077
    },
    {
      "originId": "https://www.data.jma.go.jp/developer/xml/data/20260404013122_0_VPWW53_400000.xml",
      "title": "気象特別警報・警報・注意報",
      "content": "【福岡県気象警報・注意報】福岡県では、強風や急な強い雨、落雷に注意してください。福岡、北九州、筑後地方では、高波に注意してください。筑後地方では、高潮に注意してください。",
      "observedAt": "2026-04-04T01:31:21.000Z",
      "placeCountry": "日本",
      "placePref": "福岡県",
      "placeCity": null,
      "latitude": 33.6251241,
      "longitude": 130.6180016
    },
    {
      "originId": "https://www.data.jma.go.jp/developer/xml/data/20260404012633_0_VPWW53_220000.xml",
      "title": "気象特別警報・警報・注意報",
      "content": "【静岡県気象警報・注意報】静岡県では、強風や高波、急な強い雨、落雷に注意してください。東部では、なだれに注意してください。",
      "observedAt": "2026-04-04T01:26:32.000Z",
      "placeCountry": "日本",
      "placePref": "静岡県",
      "placeCity": null,
      "latitude": 34.9332488,
      "longitude": 138.0955398
    },
    {
      "originId": "https://www.data.jma.go.jp/developer/xml/data/20260404012546_0_VPWW53_430000.xml",
      "title": "気象特別警報・警報・注意報",
      "content": "【熊本県気象警報・注意報】熊本、阿蘇、天草・芦北地方では強風に、熊本、天草・芦北地方では高波に、天草・芦北地方では高潮に、熊本県では急な強い雨や落雷に注意してください。",
      "observedAt": "2026-04-04T01:25:45.000Z",
      "placeCountry": "日本",
      "placePref": "熊本県",
      "placeCity": null,
      "latitude": 32.6450475,
      "longitude": 130.6341345
    },
    {
      "originId": "https://www.data.jma.go.jp/developer/xml/data/20260404012453_0_VPWW53_230000.xml",
      "title": "気象特別警報・警報・注意報",
      "content": "【愛知県気象警報・注意報】愛知県では、４日夜遅くまで強風に、４日昼過ぎから５日昼前まで高波に、４日夕方から５日未明まで急な強い雨や落雷に注意してください。",
      "observedAt": "2026-04-04T01:24:52.000Z",
      "placeCountry": "日本",
      "placePref": "愛知県",
      "placeCity": null,
      "latitude": 34.9991645,
      "longitude": 137.254574
    },
    {
      "originId": "https://www.data.jma.go.jp/developer/xml/data/20260404012048_0_VPWW53_450000.xml",
      "title": "気象特別警報・警報・注意報",
      "content": "【宮崎県気象警報・注意報】南部平野部、北部平野部では、４日昼過ぎまで強風に、５日明け方まで高波に注意してください。宮崎県では、４日昼過ぎまで急な強い雨や落雷に注意してください。",
      "observedAt": "2026-04-04T01:20:47.000Z",
      "placeCountry": "日本",
      "placePref": "宮崎県",
      "placeCity": null,
      "latitude": 32.097681,
      "longitude": 131.294542
    },
    {
      "originId": "https://www.data.jma.go.jp/developer/xml/data/20260404011225_0_VPWW53_380000.xml",
      "title": "気象特別警報・警報・注意報",
      "content": "【愛媛県気象警報・注意報】南予では、４日夕方まで暴風や高波に警戒してください。",
      "observedAt": "2026-04-04T01:12:25.000Z",
      "placeCountry": "日本",
      "placePref": "愛媛県",
      "placeCity": null,
      "latitude": 33.6013646,
      "longitude": 132.8185275
    },
    {
      "originId": "https://www.data.jma.go.jp/developer/xml/data/20260404011138_0_VPWW53_140000.xml",
      "title": "気象特別警報・警報・注意報",
      "content": "【神奈川県気象警報・注意報】神奈川県では、強風や高波、急な強い雨、落雷に注意してください。",
      "observedAt": "2026-04-04T01:11:38.000Z",
      "placeCountry": "日本",
      "placePref": "神奈川県",
      "placeCity": null,
      "latitude": 35.4342935,
      "longitude": 139.374753
    },
    {
      "originId": "https://www.data.jma.go.jp/developer/xml/data/20260404010751_0_VPWW53_180000.xml",
      "title": "気象特別警報・警報・注意報",
      "content": "【福井県気象警報・注意報】福井県では、４日夜のはじめ頃まで強風に注意してください。嶺北では、４日夕方から４日夜のはじめ頃まで高波に注意してください。",
      "observedAt": "2026-04-04T01:07:51.000Z",
      "placeCountry": "日本",
      "placePref": "福井県",
      "placeCity": null,
      "latitude": 35.9263502,
      "longitude": 136.6068127
    },
    {
      "originId": "https://www.data.jma.go.jp/developer/xml/data/20260404010635_0_VPWW53_460100.xml",
      "title": "気象特別警報・警報・注意報",
      "content": "【鹿児島県（奄美地方を除く）気象警報・注意報】薩摩、大隅地方の海上では、４日昼前まで暴風に警戒してください。",
      "observedAt": "2026-04-04T01:06:35.000Z",
      "placeCountry": "日本",
      "placePref": "鹿児島県",
      "placeCity": null,
      "latitude": 31.521587,
      "longitude": 130.5474077
    },
    {
      "originId": "https://www.data.jma.go.jp/developer/xml/data/20260404010630_0_VPWW53_170000.xml",
      "title": "気象特別警報・警報・注意報",
      "content": "【石川県気象警報・注意報】石川県では、強風や高波に注意してください。",
      "observedAt": "2026-04-04T01:06:30.000Z",
      "placeCountry": "日本",
      "placePref": "石川県",
      "placeCity": null,
      "latitude": 36.9888678,
      "longitude": 136.8163563
    },
    {
      "originId": "https://www.data.jma.go.jp/developer/xml/data/20260404010552_0_VPWW53_370000.xml",
      "title": "気象特別警報・警報・注意報",
      "content": "【香川県気象警報・注意報】香川県では、４日夜のはじめ頃まで強風や高波、竜巻などの激しい突風、急な強い雨、落雷に注意してください。",
      "observedAt": "2026-04-04T01:05:52.000Z",
      "placeCountry": "日本",
      "placePref": "香川県",
      "placeCity": null,
      "latitude": 34.2480104,
      "longitude": 134.0586579
    },
    {
      "originId": "https://www.data.jma.go.jp/developer/xml/data/20260404010316_0_VPWW53_160000.xml",
      "title": "気象特別警報・警報・注意報",
      "content": "【富山県気象警報・注意報】富山県では、強風や融雪による土砂災害に注意してください。東部では、なだれに注意してください。",
      "observedAt": "2026-04-04T01:03:15.000Z",
      "placeCountry": "日本",
      "placePref": "富山県",
      "placeCity": null,
      "latitude": 36.6468015,
      "longitude": 137.2183531
    },
    {
      "originId": "https://www.data.jma.go.jp/developer/xml/data/20260404010136_0_VPWW53_410000.xml",
      "title": "気象特別警報・警報・注意報",
      "content": "【佐賀県気象警報・注意報】佐賀県では、強風や高波に注意してください。",
      "observedAt": "2026-04-04T01:01:35.000Z",
      "placeCountry": "日本",
      "placePref": "佐賀県",
      "placeCity": null,
      "latitude": 33.2185408,
      "longitude": 130.1296585
    },
    {
      "originId": "https://www.data.jma.go.jp/developer/xml/data/20260404005610_0_VPWW53_050000.xml",
      "title": "気象特別警報・警報・注意報",
      "content": "【秋田県気象警報・注意報】秋田県では、ここしばらくなだれに注意してください。",
      "observedAt": "2026-04-04T00:56:10.000Z",
      "placeCountry": "日本",
      "placePref": "秋田県",
      "placeCity": null,
      "latitude": 39.6898802,
      "longitude": 140.342608
    },
    {
      "originId": "https://www.data.jma.go.jp/developer/xml/data/20260404005526_0_VPWW53_060000.xml",
      "title": "気象特別警報・警報・注意報",
      "content": "【山形県気象警報・注意報】山形県では、ここしばらくなだれに注意してください。",
      "observedAt": "2026-04-04T00:55:26.000Z",
      "placeCountry": "日本",
      "placePref": "山形県",
      "placeCity": null,
      "latitude": 38.4746705,
      "longitude": 140.083237
    },
    {
      "originId": "https://www.data.jma.go.jp/developer/xml/data/20260404005326_0_VPWW53_030000.xml",
      "title": "気象特別警報・警報・注意報",
      "content": "【岩手県気象警報・注意報】内陸では５日未明まで、沿岸北部、沿岸南部では５日朝まで、強風に注意してください。内陸では、ここしばらくなだれに注意してください。",
      "observedAt": "2026-04-04T00:53:25.000Z",
      "placeCountry": "日本",
      "placePref": "岩手県",
      "placeCity": null,
      "latitude": 39.5713763,
      "longitude": 141.4253574
    },
    {
      "originId": "https://www.data.jma.go.jp/developer/xml/data/20260404005244_0_VPWW53_460040.xml",
      "title": "気象特別警報・警報・注意報",
      "content": "【奄美地方（鹿児島県）気象警報・注意報】奄美地方では、４日夜遅くまで土砂災害や竜巻などの激しい突風、落雷に、４日夕方まで強風に、５日明け方まで高波に注意してください。",
      "observedAt": "2026-04-04T00:52:43.000Z",
      "placeCountry": "日本",
      "placePref": "鹿児島県",
      "placeCity": null,
      "latitude": 31.521587,
      "longitude": 130.5474077
    },
    {
      "originId": "https://www.data.jma.go.jp/developer/xml/data/20260404005101_0_VPWW53_290000.xml",
      "title": "気象特別警報・警報・注意報",
      "content": "【奈良県気象警報・注意報】奈良県では、４日夕方から４日夜遅くまで急な強い雨や落雷に注意してください。",
      "observedAt": "2026-04-04T00:51:00.000Z",
      "placeCountry": "日本",
      "placePref": "奈良県",
      "placeCity": null,
      "latitude": 34.2963089,
      "longitude": 135.8816819
    },
    {
      "originId": "https://www.data.jma.go.jp/developer/xml/data/20260404005053_0_VPWW53_300000.xml",
      "title": "気象特別警報・警報・注意報",
      "content": "【和歌山県気象警報・注意報】和歌山県では、４日夜遅くまで強風に、４日昼過ぎから４日夜遅くまで急な強い雨や落雷に注意してください。北部では５日明け方まで、南部では５日昼前まで、高波に注意してください。",
      "observedAt": "2026-04-04T00:50:52.000Z",
      "placeCountry": "日本",
      "placePref": "和歌山県",
      "placeCity": null,
      "latitude": 33.8070292,
      "longitude": 135.5930743
    },
    {
      "originId": "https://www.data.jma.go.jp/developer/xml/data/20260404004831_0_VPWW53_250000.xml",
      "title": "気象特別警報・警報・注意報",
      "content": "【滋賀県気象警報・注意報】滋賀県では、４日夜のはじめ頃まで強風に、４日夕方から４日夜遅くまで急な強い雨や落雷に注意してください。",
      "observedAt": "2026-04-04T00:48:30.000Z",
      "placeCountry": "日本",
      "placePref": "滋賀県",
      "placeCity": null,
      "latitude": 35.247154,
      "longitude": 136.109385
    },
    {
      "originId": "https://www.data.jma.go.jp/developer/xml/data/20260404004749_0_VPWW53_390000.xml",
      "title": "気象特別警報・警報・注意報",
      "content": "【高知県気象警報・注意報】高知県では、低い土地の浸水や強風、高波、竜巻などの激しい突風、落雷に注意してください。",
      "observedAt": "2026-04-04T00:47:48.000Z",
      "placeCountry": "日本",
      "placePref": "高知県",
      "placeCity": null,
      "latitude": 33.6569018,
      "longitude": 133.5606241
    },
    {
      "originId": "https://www.data.jma.go.jp/developer/xml/data/20260404004445_0_VPWW53_260000.xml",
      "title": "気象特別警報・警報・注意報",
      "content": "【京都府気象警報・注意報】北部では、４日夜のはじめ頃まで強風に注意してください。京都府では、４日夕方から４日夜遅くまで急な強い雨や落雷に注意してください。",
      "observedAt": "2026-04-04T00:44:44.000Z",
      "placeCountry": "日本",
      "placePref": "京都府",
      "placeCity": null,
      "latitude": 35.242552,
      "longitude": 135.454601
    },
    {
      "originId": "https://www.data.jma.go.jp/developer/xml/data/20260404004229_0_VPWW53_150000.xml",
      "title": "気象特別警報・警報・注意報",
      "content": "【新潟県気象警報・注意報】新潟県では、強風に注意してください。下越、中越、上越では、融雪による土砂災害やなだれに注意してください。",
      "observedAt": "2026-04-04T00:42:28.000Z",
      "placeCountry": "日本",
      "placePref": "新潟県",
      "placeCity": null,
      "latitude": 37.6452283,
      "longitude": 138.7669125
    },
    {
      "originId": "https://www.data.jma.go.jp/developer/xml/data/20260404004011_0_VPWW53_270000.xml",
      "title": "気象特別警報・警報・注意報",
      "content": "【大阪府気象警報・注意報】大阪府では、４日夜遅くまで強風や高波に、４日夕方から４日夜遅くまで急な強い雨や落雷に注意してください。",
      "observedAt": "2026-04-04T00:40:10.000Z",
      "placeCountry": "日本",
      "placePref": "大阪府",
      "placeCity": null,
      "latitude": 34.6198813,
      "longitude": 135.490357
    },
    {
      "originId": "https://www.data.jma.go.jp/developer/xml/data/20260404003920_0_VPWW53_210000.xml",
      "title": "気象特別警報・警報・注意報",
      "content": "【岐阜県気象警報・注意報】岐阜県では、４日夕方から５日未明まで急な強い雨や落雷に注意してください。",
      "observedAt": "2026-04-04T00:39:19.000Z",
      "placeCountry": "日本",
      "placePref": "岐阜県",
      "placeCity": null,
      "latitude": 35.7867449,
      "longitude": 137.0460777
    },
    {
      "originId": "https://www.data.jma.go.jp/developer/xml/data/20260404003308_0_VPWW53_420000.xml",
      "title": "気象特別警報・警報・注意報",
      "content": "【長崎県気象警報・注意報】長崎県では、４日夜遅くまで強風に、５日明け方まで高波に注意してください。",
      "observedAt": "2026-04-04T00:33:07.000Z",
      "placeCountry": "日本",
      "placePref": "長崎県",
      "placeCity": null,
      "latitude": 33.1154683,
      "longitude": 129.7874339
    },
    {
      "originId": "https://www.data.jma.go.jp/developer/xml/data/20260403232108_0_VPWW53_380000.xml",
      "title": "気象特別警報・警報・注意報",
      "content": "【愛媛県気象警報・注意報】南予では、４日夕方まで暴風や高波に警戒してください。",
      "observedAt": "2026-04-03T23:21:07.000Z",
      "placeCountry": "日本",
      "placePref": "愛媛県",
      "placeCity": null,
      "latitude": 33.6013646,
      "longitude": 132.8185275
    },
    {
      "originId": "https://www.data.jma.go.jp/developer/xml/data/20260403231508_0_VPWW53_280000.xml",
      "title": "気象特別警報・警報・注意報",
      "content": "【兵庫県気象警報・注意報】南部では、４日昼過ぎから４日夜のはじめ頃まで高波に警戒してください。",
      "observedAt": "2026-04-03T23:15:07.000Z",
      "placeCountry": "日本",
      "placePref": "兵庫県",
      "placeCity": null,
      "latitude": 34.914934,
      "longitude": 134.860666
    },
    {
      "originId": "https://www.data.jma.go.jp/developer/xml/data/20260403222505_0_VPWW53_230000.xml",
      "title": "気象特別警報・警報・注意報",
      "content": "【愛知県気象警報・注意報】愛知県では、４日昼前から４日夜遅くまで強風に、４日昼過ぎから高波に注意してください。",
      "observedAt": "2026-04-03T22:25:04.000Z",
      "placeCountry": "日本",
      "placePref": "愛知県",
      "placeCity": null,
      "latitude": 34.9991645,
      "longitude": 137.254574
    },
    {
      "originId": "https://www.data.jma.go.jp/developer/xml/data/20260403222444_0_VPWW53_240000.xml",
      "title": "気象特別警報・警報・注意報",
      "content": "【三重県気象警報・注意報】三重県では、強風や高波、急な強い雨、落雷に注意してください。",
      "observedAt": "2026-04-03T22:24:43.000Z",
      "placeCountry": "日本",
      "placePref": "三重県",
      "placeCity": null,
      "latitude": 34.7339685,
      "longitude": 136.5154489
    },
    {
      "originId": "https://www.data.jma.go.jp/developer/xml/data/20260403221219_0_VPWW53_360000.xml",
      "title": "気象特別警報・警報・注意報",
      "content": "【徳島県気象警報・注意報】南部では、土砂災害に注意してください。徳島県では、強風や高波、竜巻などの激しい突風、落雷に注意してください。",
      "observedAt": "2026-04-03T22:12:18.000Z",
      "placeCountry": "日本",
      "placePref": "徳島県",
      "placeCity": null,
      "latitude": 33.9196418,
      "longitude": 134.2509634
    },
    {
      "originId": "https://www.data.jma.go.jp/developer/xml/data/20260403220533_0_VPWW53_190000.xml",
      "title": "気象特別警報・警報・注意報",
      "content": "【山梨県気象警報・注意報】東部・富士五湖では、５日までなだれに注意してください。",
      "observedAt": "2026-04-03T22:05:32.000Z",
      "placeCountry": "日本",
      "placePref": "山梨県",
      "placeCity": null,
      "latitude": 35.6399328,
      "longitude": 138.6380495
    },
    {
      "originId": "https://www.data.jma.go.jp/developer/xml/data/20260403214912_0_VPWW53_200000.xml",
      "title": "気象特別警報・警報・注意報",
      "content": "【長野県気象警報・注意報】中部では、４日昼前から４日夜遅くまで強風に注意してください。北部、中部では、４日昼前から融雪による土砂災害に、６日までなだれに注意してください。",
      "observedAt": "2026-04-03T21:49:12.000Z",
      "placeCountry": "日本",
      "placePref": "長野県",
      "placeCity": null,
      "latitude": 36.1143945,
      "longitude": 138.0319015
    },
    {
      "originId": "https://www.data.jma.go.jp/developer/xml/data/20260403214836_0_VPWW53_100000.xml",
      "title": "気象特別警報・警報・注意報",
      "content": "【群馬県気象警報・注意報】群馬県では、４日昼前から濃霧による視程障害に注意してください。北部では、６日までなだれに注意してください。",
      "observedAt": "2026-04-03T21:48:36.000Z",
      "placeCountry": "日本",
      "placePref": "群馬県",
      "placeCity": null,
      "latitude": 36.52198,
      "longitude": 139.033483
    },
    {
      "originId": "https://www.data.jma.go.jp/developer/xml/data/20260403214737_0_VPWW53_090000.xml",
      "title": "気象特別警報・警報・注意報",
      "content": "【栃木県気象警報・注意報】栃木県では、４日昼前から濃霧による視程障害に注意してください。",
      "observedAt": "2026-04-03T21:47:36.000Z",
      "placeCountry": "日本",
      "placePref": "栃木県",
      "placeCity": null,
      "latitude": 36.6782167,
      "longitude": 139.8096549
    },
    {
      "originId": "https://www.data.jma.go.jp/developer/xml/data/20260403212206_0_VPWW53_400000.xml",
      "title": "気象特別警報・警報・注意報",
      "content": "【福岡県気象警報・注意報】福岡、北九州地方の海上では、４日昼前まで暴風に警戒してください。",
      "observedAt": "2026-04-03T21:22:05.000Z",
      "placeCountry": "日本",
      "placePref": "福岡県",
      "placeCity": null,
      "latitude": 33.6251241,
      "longitude": 130.6180016
    },
    {
      "originId": "https://www.data.jma.go.jp/developer/xml/data/20260403212016_0_VPWW53_040000.xml",
      "title": "気象特別警報・警報・注意報",
      "content": "【宮城県気象警報・注意報】東部では、４日昼前から５日明け方まで強風に、４日昼過ぎから高波に注意してください。",
      "observedAt": "2026-04-03T21:20:16.000Z",
      "placeCountry": "日本",
      "placePref": "宮城県",
      "placeCity": null,
      "latitude": 38.3880155,
      "longitude": 140.9761025
    },
    {
      "originId": "https://www.data.jma.go.jp/developer/xml/data/20260403211637_0_VPWW53_120000.xml",
      "title": "気象特別警報・警報・注意報",
      "content": "【千葉県気象警報・注意報】千葉県では、強風や高波に注意してください。",
      "observedAt": "2026-04-03T21:16:36.000Z",
      "placeCountry": "日本",
      "placePref": "千葉県",
      "placeCity": null,
      "latitude": 35.549399,
      "longitude": 140.2647303
    },
    {
      "originId": "https://www.data.jma.go.jp/developer/xml/data/20260403211618_0_VPWW53_110000.xml",
      "title": "気象特別警報・警報・注意報",
      "content": "【埼玉県気象警報・注意報】南部、北部では、４日昼過ぎから４日夕方まで強風に注意してください。",
      "observedAt": "2026-04-03T21:16:17.000Z",
      "placeCountry": "日本",
      "placePref": "埼玉県",
      "placeCity": null,
      "latitude": 35.9754168,
      "longitude": 139.4160114
    },
    {
      "originId": "https://www.data.jma.go.jp/developer/xml/data/20260403211343_0_VPWW53_070000.xml",
      "title": "気象特別警報・警報・注意報",
      "content": "【福島県気象警報・注意報】中通り、浜通りでは、強風に注意してください。浜通りでは、高波に注意してください。会津では、なだれに注意してください。",
      "observedAt": "2026-04-03T21:13:41.000Z",
      "placeCountry": "日本",
      "placePref": "福島県",
      "placeCity": null,
      "latitude": 37.3662591,
      "longitude": 140.2511854
    },
    {
      "originId": "https://www.data.jma.go.jp/developer/xml/data/20260403211338_0_VPWW53_060000.xml",
      "title": "気象特別警報・警報・注意報",
      "content": "【山形県気象警報・注意報】村山、置賜、最上では、４日昼前まで濃霧による視程障害に注意してください。山形県では、ここしばらくなだれに注意してください。",
      "observedAt": "2026-04-03T21:13:37.000Z",
      "placeCountry": "日本",
      "placePref": "山形県",
      "placeCity": null,
      "latitude": 38.4746705,
      "longitude": 140.083237
    },
    {
      "originId": "https://www.data.jma.go.jp/developer/xml/data/20260403211336_0_VPWW53_050000.xml",
      "title": "気象特別警報・警報・注意報",
      "content": "【秋田県気象警報・注意報】秋田県では、４日昼前まで濃霧による視程障害に、ここしばらくなだれに注意してください。",
      "observedAt": "2026-04-03T21:13:36.000Z",
      "placeCountry": "日本",
      "placePref": "秋田県",
      "placeCity": null,
      "latitude": 39.6898802,
      "longitude": 140.342608
    },
    {
      "originId": "https://www.data.jma.go.jp/developer/xml/data/20260403210648_0_VPWW53_030000.xml",
      "title": "気象特別警報・警報・注意報",
      "content": "【岩手県気象警報・注意報】岩手県では、強風に注意してください。内陸では、濃霧による視程障害やなだれに注意してください。",
      "observedAt": "2026-04-03T21:06:47.000Z",
      "placeCountry": "日本",
      "placePref": "岩手県",
      "placeCity": null,
      "latitude": 39.5713763,
      "longitude": 141.4253574
    },
    {
      "originId": "https://www.data.jma.go.jp/developer/xml/data/20260403210624_0_VPWW53_160000.xml",
      "title": "気象特別警報・警報・注意報",
      "content": "【富山県気象警報・注意報】富山県では、強風や融雪による土砂災害に注意してください。東部では、なだれに注意してください。",
      "observedAt": "2026-04-03T21:06:24.000Z",
      "placeCountry": "日本",
      "placePref": "富山県",
      "placeCity": null,
      "latitude": 36.6468015,
      "longitude": 137.2183531
    },
    {
      "originId": "https://www.data.jma.go.jp/developer/xml/data/20260403193629_0_VPWW53_450000.xml",
      "title": "気象特別警報・警報・注意報",
      "content": "【宮崎県気象警報・注意報】南部平野部、北部平野部、南部山沿いでは強風に、南部平野部、北部平野部では高波に、宮崎県では竜巻などの激しい突風や急な強い雨、落雷に注意してください。",
      "observedAt": "2026-04-03T19:36:28.000Z",
      "placeCountry": "日本",
      "placePref": "宮崎県",
      "placeCity": null,
      "latitude": 32.097681,
      "longitude": 131.294542
    },
    {
      "originId": "https://www.data.jma.go.jp/developer/xml/data/20260403193140_0_VPWW53_460040.xml",
      "title": "気象特別警報・警報・注意報",
      "content": "【奄美地方（鹿児島県）気象警報・注意報】奄美地方では、４日夕方まで強風に、５日明け方まで高波に、４日夜遅くまで竜巻などの激しい突風や急な強い雨、落雷に注意してください。",
      "observedAt": "2026-04-03T19:31:39.000Z",
      "placeCountry": "日本",
      "placePref": "鹿児島県",
      "placeCity": null,
      "latitude": 31.521587,
      "longitude": 130.5474077
    },
    {
      "originId": "https://www.data.jma.go.jp/developer/xml/data/20260403193054_0_VPWW53_300000.xml",
      "title": "気象特別警報・警報・注意報",
      "content": "【和歌山県気象警報・注意報】和歌山県では、４日夜遅くまで強風に注意してください。北部では４日昼前から５日明け方まで、南部では４日昼前から、高波に注意してください。",
      "observedAt": "2026-04-03T19:30:53.000Z",
      "placeCountry": "日本",
      "placePref": "和歌山県",
      "placeCity": null,
      "latitude": 33.8070292,
      "longitude": 135.5930743
    },
    {
      "originId": "https://www.data.jma.go.jp/developer/xml/data/20260403192726_0_VPWW53_460100.xml",
      "title": "気象特別警報・警報・注意報",
      "content": "【鹿児島県（奄美地方を除く）気象警報・注意報】薩摩地方の海上では４日昼前まで、大隅地方の海上では４日朝から４日昼前まで、暴風に警戒してください。",
      "observedAt": "2026-04-03T19:27:25.000Z",
      "placeCountry": "日本",
      "placePref": "鹿児島県",
      "placeCity": null,
      "latitude": 31.521587,
      "longitude": 130.5474077
    },
    {
      "originId": "https://www.data.jma.go.jp/developer/xml/data/20260403192714_0_VPWW53_270000.xml",
      "title": "気象特別警報・警報・注意報",
      "content": "【大阪府気象警報・注意報】大阪府では、４日昼前から４日夜のはじめ頃まで強風や高波に注意してください。",
      "observedAt": "2026-04-03T19:27:13.000Z",
      "placeCountry": "日本",
      "placePref": "大阪府",
      "placeCity": null,
      "latitude": 34.6198813,
      "longitude": 135.490357
    },
    {
      "originId": "https://www.data.jma.go.jp/developer/xml/data/20260403192613_0_VPWW53_250000.xml",
      "title": "気象特別警報・警報・注意報",
      "content": "【滋賀県気象警報・注意報】滋賀県では、４日朝から４日夕方まで強風に注意してください。",
      "observedAt": "2026-04-03T19:26:12.000Z",
      "placeCountry": "日本",
      "placePref": "滋賀県",
      "placeCity": null,
      "latitude": 35.247154,
      "longitude": 136.109385
    },
    {
      "originId": "https://www.data.jma.go.jp/developer/xml/data/20260403192611_0_VPWW53_260000.xml",
      "title": "気象特別警報・警報・注意報",
      "content": "【京都府気象警報・注意報】北部では、４日朝から４日夕方まで強風に注意してください。",
      "observedAt": "2026-04-03T19:26:11.000Z",
      "placeCountry": "日本",
      "placePref": "京都府",
      "placeCity": null,
      "latitude": 35.242552,
      "longitude": 135.454601
    },
    {
      "originId": "https://www.data.jma.go.jp/developer/xml/data/20260403192509_0_VPWW53_180000.xml",
      "title": "気象特別警報・警報・注意報",
      "content": "【福井県気象警報・注意報】嶺南では４日朝から４日夜のはじめ頃まで、嶺北では４日昼前から４日夜のはじめ頃まで、強風に注意してください。",
      "observedAt": "2026-04-03T19:25:08.000Z",
      "placeCountry": "日本",
      "placePref": "福井県",
      "placeCity": null,
      "latitude": 35.9263502,
      "longitude": 136.6068127
    },
    {
      "originId": "https://www.data.jma.go.jp/developer/xml/data/20260403192450_0_VPWW53_380000.xml",
      "title": "気象特別警報・警報・注意報",
      "content": "【愛媛県気象警報・注意報】南予では、４日昼前から４日夕方まで高波に警戒してください。",
      "observedAt": "2026-04-03T19:24:49.000Z",
      "placeCountry": "日本",
      "placePref": "愛媛県",
      "placeCity": null,
      "latitude": 33.6013646,
      "longitude": 132.8185275
    },
    {
      "originId": "https://www.data.jma.go.jp/developer/xml/data/20260403192431_0_VPWW53_370000.xml",
      "title": "気象特別警報・警報・注意報",
      "content": "【香川県気象警報・注意報】香川県では、４日朝から４日夕方まで強風や高波に、４日昼前から４日夜のはじめ頃まで竜巻などの激しい突風や急な強い雨、落雷に注意してください。",
      "observedAt": "2026-04-03T19:24:30.000Z",
      "placeCountry": "日本",
      "placePref": "香川県",
      "placeCity": null,
      "latitude": 34.2480104,
      "longitude": 134.0586579
    },
    {
      "originId": "https://www.data.jma.go.jp/developer/xml/data/20260403192321_0_VPWW53_170000.xml",
      "title": "気象特別警報・警報・注意報",
      "content": "【石川県気象警報・注意報】加賀では４日昼前から４日夜遅くまで、能登では４日昼過ぎから５日明け方まで、強風に注意してください。",
      "observedAt": "2026-04-03T19:23:21.000Z",
      "placeCountry": "日本",
      "placePref": "石川県",
      "placeCity": null,
      "latitude": 36.9888678,
      "longitude": 136.8163563
    },
    {
      "originId": "https://www.data.jma.go.jp/developer/xml/data/20260403192247_0_VPWW53_240000.xml",
      "title": "気象特別警報・警報・注意報",
      "content": "【三重県気象警報・注意報】三重県では、４日昼前から４日夜遅くまで強風に注意してください。",
      "observedAt": "2026-04-03T19:22:46.000Z",
      "placeCountry": "日本",
      "placePref": "三重県",
      "placeCity": null,
      "latitude": 34.7339685,
      "longitude": 136.5154489
    },
    {
      "originId": "https://www.data.jma.go.jp/developer/xml/data/20260403192131_0_VPWW53_230000.xml",
      "title": "気象特別警報・警報・注意報",
      "content": "【愛知県気象警報・注意報】愛知県では、４日昼前から４日夜遅くまで強風に注意してください。",
      "observedAt": "2026-04-03T19:21:31.000Z",
      "placeCountry": "日本",
      "placePref": "愛知県",
      "placeCity": null,
      "latitude": 34.9991645,
      "longitude": 137.254574
    },
    {
      "originId": "https://www.data.jma.go.jp/developer/xml/data/20260403192031_0_VPWW53_390000.xml",
      "title": "気象特別警報・警報・注意報",
      "content": "【高知県気象警報・注意報】中部では、低い土地の浸水に注意してください。高知県では、強風や高波、竜巻などの激しい突風、落雷に注意してください。",
      "observedAt": "2026-04-03T19:20:30.000Z",
      "placeCountry": "日本",
      "placePref": "高知県",
      "placeCity": null,
      "latitude": 33.6569018,
      "longitude": 133.5606241
    },
    {
      "originId": "https://www.data.jma.go.jp/developer/xml/data/20260403192029_0_VPWW53_360000.xml",
      "title": "気象特別警報・警報・注意報",
      "content": "【徳島県気象警報・注意報】徳島県では、強風や高波、竜巻などの激しい突風、急な強い雨、落雷に注意してください。",
      "observedAt": "2026-04-03T19:20:28.000Z",
      "placeCountry": "日本",
      "placePref": "徳島県",
      "placeCity": null,
      "latitude": 33.9196418,
      "longitude": 134.2509634
    },
    {
      "originId": "https://www.data.jma.go.jp/developer/xml/data/20260403191813_0_VPWW53_320000.xml",
      "title": "気象特別警報・警報・注意報",
      "content": "【島根県気象警報・注意報】島根県では、強風や高波、急な強い雨、落雷に注意してください。",
      "observedAt": "2026-04-03T19:18:13.000Z",
      "placeCountry": "日本",
      "placePref": "島根県",
      "placeCity": null,
      "latitude": 34.9418212,
      "longitude": 132.537439
    },
    {
      "originId": "https://www.data.jma.go.jp/developer/xml/data/20260403191810_0_VPWW53_310000.xml",
      "title": "気象特別警報・警報・注意報",
      "content": "【鳥取県気象警報・注意報】鳥取県では、４日昼前から４日夜のはじめ頃まで強風や急な強い雨、落雷に注意してください。",
      "observedAt": "2026-04-03T19:18:09.000Z",
      "placeCountry": "日本",
      "placePref": "鳥取県",
      "placeCity": null,
      "latitude": 35.3555075,
      "longitude": 133.8678525
    },
    {
      "originId": "https://www.data.jma.go.jp/developer/xml/data/20260403191526_0_VPWW53_100000.xml",
      "title": "気象特別警報・警報・注意報",
      "content": "【群馬県気象警報・注意報】群馬県では、４日昼前から濃霧による視程障害に注意してください。北部では、６日までなだれに、４日朝は霜に対する農作物の管理に注意してください。",
      "observedAt": "2026-04-03T19:15:25.000Z",
      "placeCountry": "日本",
      "placePref": "群馬県",
      "placeCity": null,
      "latitude": 36.52198,
      "longitude": 139.033483
    },
    {
      "originId": "https://www.data.jma.go.jp/developer/xml/data/20260403191417_0_VPWW53_090000.xml",
      "title": "気象特別警報・警報・注意報",
      "content": "【栃木県気象警報・注意報】栃木県では、４日昼前から濃霧による視程障害に注意してください。北部では、４日朝は霜に対する農作物の管理に注意してください。",
      "observedAt": "2026-04-03T19:14:16.000Z",
      "placeCountry": "日本",
      "placePref": "栃木県",
      "placeCity": null,
      "latitude": 36.6782167,
      "longitude": 139.8096549
    },
    {
      "originId": "https://www.data.jma.go.jp/developer/xml/data/20260403190826_0_VPWW53_030000.xml",
      "title": "気象特別警報・警報・注意報",
      "content": "【岩手県気象警報・注意報】岩手県では、強風や霜に対する農作物の管理に注意してください。内陸では、濃霧による視程障害やなだれに注意してください。",
      "observedAt": "2026-04-03T19:08:25.000Z",
      "placeCountry": "日本",
      "placePref": "岩手県",
      "placeCity": null,
      "latitude": 39.5713763,
      "longitude": 141.4253574
    },
    {
      "originId": "https://www.data.jma.go.jp/developer/xml/data/20260403190822_0_VPWW53_020000.xml",
      "title": "気象特別警報・警報・注意報",
      "content": "【青森県気象警報・注意報】津軽、三八上北では、ここしばらくなだれに注意してください。",
      "observedAt": "2026-04-03T19:08:21.000Z",
      "placeCountry": "日本",
      "placePref": "青森県",
      "placeCity": null,
      "latitude": 40.886943,
      "longitude": 140.590121
    },
    {
      "originId": "https://www.data.jma.go.jp/developer/xml/data/20260403190745_0_VPWW53_420000.xml",
      "title": "気象特別警報・警報・注意報",
      "content": "【長崎県気象警報・注意報】長崎県の海上では、４日昼前まで暴風に警戒してください。",
      "observedAt": "2026-04-03T19:07:44.000Z",
      "placeCountry": "日本",
      "placePref": "長崎県",
      "placeCity": null,
      "latitude": 33.1154683,
      "longitude": 129.7874339
    },
    {
      "originId": "https://www.data.jma.go.jp/developer/xml/data/20260403190737_0_VPWW53_200000.xml",
      "title": "気象特別警報・警報・注意報",
      "content": "【長野県気象警報・注意報】中部では、強風に注意してください。北部、中部では、融雪による土砂災害やなだれに注意してください。中部、南部では、霜に対する農作物の管理に注意してください。",
      "observedAt": "2026-04-03T19:07:36.000Z",
      "placeCountry": "日本",
      "placePref": "長野県",
      "placeCity": null,
      "latitude": 36.1143945,
      "longitude": 138.0319015
    },
    {
      "originId": "https://www.data.jma.go.jp/developer/xml/data/20260403190726_0_VPWW53_340000.xml",
      "title": "気象特別警報・警報・注意報",
      "content": "【広島県気象警報・注意報】広島県では、４日昼前から４日夕方まで急な強い雨や落雷に注意してください。",
      "observedAt": "2026-04-03T19:07:25.000Z",
      "placeCountry": "日本",
      "placePref": "広島県",
      "placeCity": null,
      "latitude": 34.5666725,
      "longitude": 132.753565
    },
    {
      "originId": "https://www.data.jma.go.jp/developer/xml/data/20260403190714_0_VPWW53_140000.xml",
      "title": "気象特別警報・警報・注意報",
      "content": "【神奈川県気象警報・注意報】神奈川県では、４日昼前から５日明け方まで強風に注意してください。東部では、４日昼前から高波に注意してください。",
      "observedAt": "2026-04-03T19:07:13.000Z",
      "placeCountry": "日本",
      "placePref": "神奈川県",
      "placeCity": null,
      "latitude": 35.4342935,
      "longitude": 139.374753
    },
    {
      "originId": "https://www.data.jma.go.jp/developer/xml/data/20260403190222_0_VPWW53_080000.xml",
      "title": "気象特別警報・警報・注意報",
      "content": "【茨城県気象警報・注意報】茨城県では、４日昼前から５日明け方まで強風に、４日昼前から高波に注意してください。",
      "observedAt": "2026-04-03T19:02:21.000Z",
      "placeCountry": "日本",
      "placePref": "茨城県",
      "placeCity": null,
      "latitude": 36.2869536,
      "longitude": 140.4703384
    },
    {
      "originId": "https://www.data.jma.go.jp/developer/xml/data/20260403190206_0_VPWW53_130000.xml",
      "title": "気象特別警報・警報・注意報",
      "content": "【東京都気象警報・注意報】東京地方、伊豆諸島北部、伊豆諸島南部では、強風や高波に注意してください。",
      "observedAt": "2026-04-03T19:02:04.000Z",
      "placeCountry": "日本",
      "placePref": "東京都",
      "placeCity": null,
      "latitude": 35.6828387,
      "longitude": 139.7594549
    },
    {
      "originId": "https://www.data.jma.go.jp/developer/xml/data/20260403190151_0_VPWW53_440000.xml",
      "title": "気象特別警報・警報・注意報",
      "content": "【大分県気象警報・注意報】大分県の海上では、４日朝から４日昼前まで暴風に警戒してください。北部では４日朝から４日昼前まで、中部、南部では４日朝から４日昼過ぎまで、高波に警戒してください。",
      "observedAt": "2026-04-03T19:01:50.000Z",
      "placeCountry": "日本",
      "placePref": "大分県",
      "placeCity": null,
      "latitude": 33.1819875,
      "longitude": 131.4270217
    },
    {
      "originId": "https://www.data.jma.go.jp/developer/xml/data/20260403183910_0_VPWW53_040000.xml",
      "title": "気象特別警報・警報・注意報",
      "content": "【宮城県気象警報・注意報】東部では、４日昼前から５日明け方まで強風に注意してください。宮城県では、４日朝は霜に対する農作物の管理に注意してください。",
      "observedAt": "2026-04-03T18:39:09.000Z",
      "placeCountry": "日本",
      "placePref": "宮城県",
      "placeCity": null,
      "latitude": 38.3880155,
      "longitude": 140.9761025
    },
    {
      "originId": "https://www.data.jma.go.jp/developer/xml/data/20260403182419_0_VPWW53_070000.xml",
      "title": "気象特別警報・警報・注意報",
      "content": "【福島県気象警報・注意報】浜通りでは、４日昼前から５日明け方まで強風に注意してください。会津では、ここしばらくなだれに、４日朝は霜に対する農作物の管理に注意してください。",
      "observedAt": "2026-04-03T18:24:18.000Z",
      "placeCountry": "日本",
      "placePref": "福島県",
      "placeCity": null,
      "latitude": 37.3662591,
      "longitude": 140.2511854
    },
    {
      "originId": "https://www.data.jma.go.jp/developer/xml/data/20260403175223_0_VPWW53_430000.xml",
      "title": "気象特別警報・警報・注意報",
      "content": "【熊本県気象警報・注意報】天草・芦北地方の海上では、４日明け方から４日昼前まで暴風に警戒してください。",
      "observedAt": "2026-04-03T17:52:22.000Z",
      "placeCountry": "日本",
      "placePref": "熊本県",
      "placeCity": null,
      "latitude": 32.6450475,
      "longitude": 130.6341345
    },
    {
      "originId": "https://www.data.jma.go.jp/developer/xml/data/20260403173017_0_VPWW53_390000.xml",
      "title": "気象特別警報・警報・注意報",
      "content": "【高知県気象警報・注意報】高知県では、強風や高波、竜巻などの激しい突風、急な強い雨、落雷に注意してください。",
      "observedAt": "2026-04-03T17:30:15.000Z",
      "placeCountry": "日本",
      "placePref": "高知県",
      "placeCity": null,
      "latitude": 33.6569018,
      "longitude": 133.5606241
    },
    {
      "originId": "https://www.data.jma.go.jp/developer/xml/data/20260403170715_0_VPWW53_030000.xml",
      "title": "気象特別警報・警報・注意報",
      "content": "【岩手県気象警報・注意報】内陸では、４日昼前まで濃霧による視程障害に、ここしばらくなだれに注意してください。岩手県では、４日朝は霜に対する農作物の管理に注意してください。",
      "observedAt": "2026-04-03T17:07:14.000Z",
      "placeCountry": "日本",
      "placePref": "岩手県",
      "placeCity": null,
      "latitude": 39.5713763,
      "longitude": 141.4253574
    },
    {
      "originId": "https://www.data.jma.go.jp/developer/xml/data/20260403170310_0_VPWW53_060000.xml",
      "title": "気象特別警報・警報・注意報",
      "content": "【山形県気象警報・注意報】村山、置賜、最上では、４日昼前まで濃霧による視程障害に、４日朝は霜に対する農作物の管理に注意してください。山形県では、ここしばらくなだれに注意してください。",
      "observedAt": "2026-04-03T17:03:09.000Z",
      "placeCountry": "日本",
      "placePref": "山形県",
      "placeCity": null,
      "latitude": 38.4746705,
      "longitude": 140.083237
    }
  ]
}