{
  "generatedAt": "2026-01-13T01:37:17.888Z",
  "timeZone": "Asia/Tokyo",
  "hourPath": "2026/01/13/10",
  "source": "http://www.data.jma.go.jp/developer/xml/feed/extra.xml",
  "totalItems": 77,
  "items": [
    {
      "originId": "https://www.data.jma.go.jp/developer/xml/data/20260113012721_0_VPWW53_430000.xml",
      "title": "気象特別警報・警報・注意報",
      "content": "【熊本県気象警報・注意報】熊本、阿蘇、天草・芦北地方では強風に、天草・芦北地方では高波に、熊本県では落雷に、熊本、阿蘇、球磨地方では低温に注意してください。",
      "observedAt": "2026-01-13T01:27:20.000Z",
      "placeCountry": "日本",
      "placePref": "熊本県",
      "placeCity": null,
      "latitude": 32.6450475,
      "longitude": 130.6341345
    },
    {
      "originId": "https://www.data.jma.go.jp/developer/xml/data/20260113012429_0_VPWW53_400000.xml",
      "title": "気象特別警報・警報・注意報",
      "content": "【福岡県気象警報・注意報】福岡、北九州地方では、１４日明け方まで強風に、１４日朝まで高波に注意してください。福岡県では、１４日まで空気の乾燥した状態が続くため、火の取り扱いに注意してください。",
      "observedAt": "2026-01-13T01:24:28.000Z",
      "placeCountry": "日本",
      "placePref": "福岡県",
      "placeCity": null,
      "latitude": 33.6251241,
      "longitude": 130.6180016
    },
    {
      "originId": "https://www.data.jma.go.jp/developer/xml/data/20260113011732_0_VPWW53_460100.xml",
      "title": "気象特別警報・警報・注意報",
      "content": "【鹿児島県（奄美地方を除く）気象警報・注意報】薩摩、大隅、種子島・屋久島地方では、強風や高波、落雷に注意してください。種子島・屋久島地方では、霜に対する農作物の管理に注意してください。",
      "observedAt": "2026-01-13T01:17:31.000Z",
      "placeCountry": "日本",
      "placePref": "鹿児島県",
      "placeCity": null,
      "latitude": 31.521587,
      "longitude": 130.5474077
    },
    {
      "originId": "https://www.data.jma.go.jp/developer/xml/data/20260113011545_0_VPWW53_350000.xml",
      "title": "気象特別警報・警報・注意報",
      "content": "【山口県気象警報・注意報】山口県では、強風や高波と、空気の乾燥した状態が続くため火の取り扱いに注意してください。",
      "observedAt": "2026-01-13T01:15:44.000Z",
      "placeCountry": "日本",
      "placePref": "山口県",
      "placeCity": null,
      "latitude": 34.2379614,
      "longitude": 131.5873845
    },
    {
      "originId": "https://www.data.jma.go.jp/developer/xml/data/20260113011413_0_VPWW53_340000.xml",
      "title": "気象特別警報・警報・注意報",
      "content": "【広島県気象警報・注意報】南部では、１３日夕方まで強風や高波に、１４日まで空気の乾燥した状態が続くため、火の取り扱いに注意してください。広島県では、１３日昼過ぎまで急な強い雨や落雷に注意してください。",
      "observedAt": "2026-01-13T01:14:12.000Z",
      "placeCountry": "日本",
      "placePref": "広島県",
      "placeCity": null,
      "latitude": 34.5666725,
      "longitude": 132.753565
    },
    {
      "originId": "https://www.data.jma.go.jp/developer/xml/data/20260113011406_0_VPWW53_060000.xml",
      "title": "気象特別警報・警報・注意報",
      "content": "【山形県気象警報・注意報】庄内では、１３日昼過ぎから１４日明け方まで暴風に、１３日夕方から高波に警戒してください。",
      "observedAt": "2026-01-13T01:14:06.000Z",
      "placeCountry": "日本",
      "placePref": "山形県",
      "placeCity": null,
      "latitude": 38.4746705,
      "longitude": 140.083237
    },
    {
      "originId": "https://www.data.jma.go.jp/developer/xml/data/20260113011405_0_VPWW53_050000.xml",
      "title": "気象特別警報・警報・注意報",
      "content": "【秋田県気象警報・注意報】沿岸では、１３日昼過ぎから１４日明け方まで暴風に、１３日夕方から高波に警戒してください。",
      "observedAt": "2026-01-13T01:14:04.000Z",
      "placeCountry": "日本",
      "placePref": "秋田県",
      "placeCity": null,
      "latitude": 39.6898802,
      "longitude": 140.342608
    },
    {
      "originId": "https://www.data.jma.go.jp/developer/xml/data/20260113011221_0_VPWW53_420000.xml",
      "title": "気象特別警報・警報・注意報",
      "content": "【長崎県気象警報・注意報】長崎県では、１３日夜遅くまで強風や高波に、１４日まで空気の乾燥した状態が続くため、火の取り扱いに注意してください。",
      "observedAt": "2026-01-13T01:12:20.000Z",
      "placeCountry": "日本",
      "placePref": "長崎県",
      "placeCity": null,
      "latitude": 33.1154683,
      "longitude": 129.7874339
    },
    {
      "originId": "https://www.data.jma.go.jp/developer/xml/data/20260113011147_0_VPWW53_020000.xml",
      "title": "気象特別警報・警報・注意報",
      "content": "【青森県気象警報・注意報】青森県では、風雪や高波、竜巻などの激しい突風、落雷に注意してください。津軽では、大雪や電線等への着雪に注意してください。津軽、三八上北では、なだれに注意してください。",
      "observedAt": "2026-01-13T01:11:46.000Z",
      "placeCountry": "日本",
      "placePref": "青森県",
      "placeCity": null,
      "latitude": 40.886943,
      "longitude": 140.590121
    },
    {
      "originId": "https://www.data.jma.go.jp/developer/xml/data/20260113011046_0_VPWW53_180000.xml",
      "title": "気象特別警報・警報・注意報",
      "content": "【福井県気象警報・注意報】福井県では、強風や高波、竜巻などの激しい突風、落雷に注意してください。",
      "observedAt": "2026-01-13T01:10:46.000Z",
      "placeCountry": "日本",
      "placePref": "福井県",
      "placeCity": null,
      "latitude": 35.9263502,
      "longitude": 136.6068127
    },
    {
      "originId": "https://www.data.jma.go.jp/developer/xml/data/20260113011009_0_VPWW53_130000.xml",
      "title": "気象特別警報・警報・注意報",
      "content": "【東京都気象警報・注意報】東京地方、伊豆諸島北部、伊豆諸島南部では、強風や高波、竜巻などの激しい突風、急な強い雨、落雷、空気の乾燥した状態が続くため、火の取り扱いに注意してください。",
      "observedAt": "2026-01-13T01:10:08.000Z",
      "placeCountry": "日本",
      "placePref": "東京都",
      "placeCity": null,
      "latitude": 35.6828387,
      "longitude": 139.7594549
    },
    {
      "originId": "https://www.data.jma.go.jp/developer/xml/data/20260113010743_0_VPWW53_110000.xml",
      "title": "気象特別警報・警報・注意報",
      "content": "【埼玉県気象警報・注意報】南部、北部では、強風に注意してください。埼玉県では、空気の乾燥した状態が続くため、火の取り扱いに注意してください。",
      "observedAt": "2026-01-13T01:07:42.000Z",
      "placeCountry": "日本",
      "placePref": "埼玉県",
      "placeCity": null,
      "latitude": 35.9754168,
      "longitude": 139.4160114
    },
    {
      "originId": "https://www.data.jma.go.jp/developer/xml/data/20260113010720_0_VPWW53_030000.xml",
      "title": "気象特別警報・警報・注意報",
      "content": "【岩手県気象警報・注意報】沿岸北部、沿岸南部では、強風や高波に注意してください。内陸では、風雪や大雪、なだれ、電線等への着雪に注意してください。岩手県では、落雷に注意してください。",
      "observedAt": "2026-01-13T01:07:19.000Z",
      "placeCountry": "日本",
      "placePref": "岩手県",
      "placeCity": null,
      "latitude": 39.5713763,
      "longitude": 141.4253574
    },
    {
      "originId": "https://www.data.jma.go.jp/developer/xml/data/20260113010616_0_VPWW53_440000.xml",
      "title": "気象特別警報・警報・注意報",
      "content": "【大分県気象警報・注意報】中部、北部、南部では、強風や高波に注意してください。大分県では、空気の乾燥した状態が続くため、火の取り扱いに注意してください。",
      "observedAt": "2026-01-13T01:06:16.000Z",
      "placeCountry": "日本",
      "placePref": "大分県",
      "placeCity": null,
      "latitude": 33.1819875,
      "longitude": 131.4270217
    },
    {
      "originId": "https://www.data.jma.go.jp/developer/xml/data/20260113010607_0_VPWW53_150000.xml",
      "title": "気象特別警報・警報・注意報",
      "content": "【新潟県気象警報・注意報】佐渡では、１３日夜のはじめ頃まで暴風に警戒してください。下越、佐渡では、１３日夕方から１４日朝まで高波に警戒してください。",
      "observedAt": "2026-01-13T01:06:06.000Z",
      "placeCountry": "日本",
      "placePref": "新潟県",
      "placeCity": null,
      "latitude": 37.6452283,
      "longitude": 138.7669125
    },
    {
      "originId": "https://www.data.jma.go.jp/developer/xml/data/20260113010546_0_VPWW53_120000.xml",
      "title": "気象特別警報・警報・注意報",
      "content": "【千葉県気象警報・注意報】千葉県では、強風や高波と、空気の乾燥した状態が続くため火の取り扱いに注意してください。",
      "observedAt": "2026-01-13T01:05:45.000Z",
      "placeCountry": "日本",
      "placePref": "千葉県",
      "placeCity": null,
      "latitude": 35.549399,
      "longitude": 140.2647303
    },
    {
      "originId": "https://www.data.jma.go.jp/developer/xml/data/20260113010306_0_VPWW53_410000.xml",
      "title": "気象特別警報・警報・注意報",
      "content": "【佐賀県気象警報・注意報】南部では１３日夕方まで、北部では１３日夜遅くまで、強風に注意してください。北部では、１３日夜遅くまで高波に注意してください。佐賀県では、１４日まで低温に注意してください。",
      "observedAt": "2026-01-13T01:03:05.000Z",
      "placeCountry": "日本",
      "placePref": "佐賀県",
      "placeCity": null,
      "latitude": 33.2185408,
      "longitude": 130.1296585
    },
    {
      "originId": "https://www.data.jma.go.jp/developer/xml/data/20260113005610_0_VPWW53_070000.xml",
      "title": "気象特別警報・警報・注意報",
      "content": "【福島県気象警報・注意報】中通り、浜通りでは、強風に注意してください。会津では、風雪や落雷に注意してください。浜通りでは、高波と、空気の乾燥した状態が続くため火の取り扱いに注意してください。",
      "observedAt": "2026-01-13T00:56:09.000Z",
      "placeCountry": "日本",
      "placePref": "福島県",
      "placeCity": null,
      "latitude": 37.3662591,
      "longitude": 140.2511854
    },
    {
      "originId": "https://www.data.jma.go.jp/developer/xml/data/20260113005553_0_VPWW53_170000.xml",
      "title": "気象特別警報・警報・注意報",
      "content": "【石川県気象警報・注意報】石川県では、１３日昼過ぎから１４日朝まで高波に警戒してください。",
      "observedAt": "2026-01-13T00:55:52.000Z",
      "placeCountry": "日本",
      "placePref": "石川県",
      "placeCity": null,
      "latitude": 36.9888678,
      "longitude": 136.8163563
    },
    {
      "originId": "https://www.data.jma.go.jp/developer/xml/data/20260113005245_0_VPWW53_040000.xml",
      "title": "気象特別警報・警報・注意報",
      "content": "【宮城県気象警報・注意報】東部では、１３日夜遅くまで強風に、１３日昼過ぎから１３日夜遅くまで高波に、１４日まで空気の乾燥した状態が続くため、火の取り扱いに注意してください。",
      "observedAt": "2026-01-13T00:52:44.000Z",
      "placeCountry": "日本",
      "placePref": "宮城県",
      "placeCity": null,
      "latitude": 38.3880155,
      "longitude": 140.9761025
    },
    {
      "originId": "https://www.data.jma.go.jp/developer/xml/data/20260113004959_0_VPWW53_260000.xml",
      "title": "気象特別警報・警報・注意報",
      "content": "【京都府気象警報・注意報】北部では、強風や高波に注意してください。京都府では、落雷に注意してください。",
      "observedAt": "2026-01-13T00:49:58.000Z",
      "placeCountry": "日本",
      "placePref": "京都府",
      "placeCity": null,
      "latitude": 35.242552,
      "longitude": 135.454601
    },
    {
      "originId": "https://www.data.jma.go.jp/developer/xml/data/20260113004054_0_VPWW53_160000.xml",
      "title": "気象特別警報・警報・注意報",
      "content": "【富山県気象警報・注意報】東部の海上では、１３日昼過ぎから１３日夜遅くまで暴風に警戒してください。",
      "observedAt": "2026-01-13T00:40:53.000Z",
      "placeCountry": "日本",
      "placePref": "富山県",
      "placeCity": null,
      "latitude": 36.6468015,
      "longitude": 137.2183531
    },
    {
      "originId": "https://www.data.jma.go.jp/developer/xml/data/20260113003326_0_VPWW53_280000.xml",
      "title": "気象特別警報・警報・注意報",
      "content": "【兵庫県気象警報・注意報】兵庫県では、強風や高波、落雷、なだれに注意してください。北部では、高潮に注意してください。",
      "observedAt": "2026-01-13T00:33:25.000Z",
      "placeCountry": "日本",
      "placePref": "兵庫県",
      "placeCity": null,
      "latitude": 34.914934,
      "longitude": 134.860666
    },
    {
      "originId": "https://www.data.jma.go.jp/developer/xml/data/20260113003246_0_VPWW53_270000.xml",
      "title": "気象特別警報・警報・注意報",
      "content": "【大阪府気象警報・注意報】大阪府では、１３日夜のはじめ頃まで強風や高波に、１３日夕方まで落雷に注意してください。",
      "observedAt": "2026-01-13T00:32:45.000Z",
      "placeCountry": "日本",
      "placePref": "大阪府",
      "placeCity": null,
      "latitude": 34.6198813,
      "longitude": 135.490357
    },
    {
      "originId": "https://www.data.jma.go.jp/developer/xml/data/20260113001403_0_VPWW53_090000.xml",
      "title": "気象特別警報・警報・注意報",
      "content": "【栃木県気象警報・注意報】北部では、１４日明け方まで強風に、１３日までなだれに注意してください。栃木県では、１４日まで空気の乾燥した状態が続くため、火の取り扱いに注意してください。",
      "observedAt": "2026-01-13T00:14:02.000Z",
      "placeCountry": "日本",
      "placePref": "栃木県",
      "placeCity": null,
      "latitude": 36.6782167,
      "longitude": 139.8096549
    },
    {
      "originId": "https://www.data.jma.go.jp/developer/xml/data/20260112231720_0_VPWW53_080000.xml",
      "title": "気象特別警報・警報・注意報",
      "content": "【茨城県気象警報・注意報】茨城県では、強風や高波と、空気の乾燥した状態が続くため火の取り扱いに注意してください。",
      "observedAt": "2026-01-12T23:17:19.000Z",
      "placeCountry": "日本",
      "placePref": "茨城県",
      "placeCity": null,
      "latitude": 36.2869536,
      "longitude": 140.4703384
    },
    {
      "originId": "https://www.data.jma.go.jp/developer/xml/data/20260112231537_0_VPWW53_200000.xml",
      "title": "気象特別警報・警報・注意報",
      "content": "【長野県気象警報・注意報】中部では、１３日夕方まで強風に注意してください。北部では、１３日までなだれに注意してください。",
      "observedAt": "2026-01-12T23:15:37.000Z",
      "placeCountry": "日本",
      "placePref": "長野県",
      "placeCity": null,
      "latitude": 36.1143945,
      "longitude": 138.0319015
    },
    {
      "originId": "https://www.data.jma.go.jp/developer/xml/data/20260112231104_0_VPWW53_110000.xml",
      "title": "気象特別警報・警報・注意報",
      "content": "【埼玉県気象警報・注意報】秩父地方では１４日まで、南部、北部では１５日まで、空気の乾燥した状態が続くため、火の取り扱いに注意してください。",
      "observedAt": "2026-01-12T23:11:04.000Z",
      "placeCountry": "日本",
      "placePref": "埼玉県",
      "placeCity": null,
      "latitude": 35.9754168,
      "longitude": 139.4160114
    },
    {
      "originId": "https://www.data.jma.go.jp/developer/xml/data/20260112230041_0_VPWW53_240000.xml",
      "title": "気象特別警報・警報・注意報",
      "content": "【三重県気象警報・注意報】南部では、１３日昼前から１３日夜のはじめ頃まで強風に、１３日まで空気の乾燥した状態が続くため、火の取り扱いに注意してください。",
      "observedAt": "2026-01-12T23:00:40.000Z",
      "placeCountry": "日本",
      "placePref": "三重県",
      "placeCity": null,
      "latitude": 34.7339685,
      "longitude": 136.5154489
    },
    {
      "originId": "https://www.data.jma.go.jp/developer/xml/data/20260112222326_0_VPWW53_060000.xml",
      "title": "気象特別警報・警報・注意報",
      "content": "【山形県気象警報・注意報】庄内では、１３日昼過ぎから１４日明け方まで暴風に警戒してください。",
      "observedAt": "2026-01-12T22:23:25.000Z",
      "placeCountry": "日本",
      "placePref": "山形県",
      "placeCity": null,
      "latitude": 38.4746705,
      "longitude": 140.083237
    },
    {
      "originId": "https://www.data.jma.go.jp/developer/xml/data/20260112222323_0_VPWW53_050000.xml",
      "title": "気象特別警報・警報・注意報",
      "content": "【秋田県気象警報・注意報】沿岸では、１３日昼過ぎから１４日明け方まで暴風に警戒してください。",
      "observedAt": "2026-01-12T22:23:22.000Z",
      "placeCountry": "日本",
      "placePref": "秋田県",
      "placeCity": null,
      "latitude": 39.6898802,
      "longitude": 140.342608
    },
    {
      "originId": "https://www.data.jma.go.jp/developer/xml/data/20260112221716_0_VPWW53_230000.xml",
      "title": "気象特別警報・警報・注意報",
      "content": "【愛知県気象警報・注意報】東部では、１３日昼前から１３日夜のはじめ頃まで強風に注意してください。",
      "observedAt": "2026-01-12T22:17:16.000Z",
      "placeCountry": "日本",
      "placePref": "愛知県",
      "placeCity": null,
      "latitude": 34.9991645,
      "longitude": 137.254574
    },
    {
      "originId": "https://www.data.jma.go.jp/developer/xml/data/20260112221318_0_VPWW53_040000.xml",
      "title": "気象特別警報・警報・注意報",
      "content": "【宮城県気象警報・注意報】東部では、強風や高波と、空気の乾燥した状態が続くため火の取り扱いに注意してください。宮城県では、濃霧による視程障害に注意してください。",
      "observedAt": "2026-01-12T22:13:18.000Z",
      "placeCountry": "日本",
      "placePref": "宮城県",
      "placeCity": null,
      "latitude": 38.3880155,
      "longitude": 140.9761025
    },
    {
      "originId": "https://www.data.jma.go.jp/developer/xml/data/20260112214431_0_VPWW53_250000.xml",
      "title": "気象特別警報・警報・注意報",
      "content": "【滋賀県気象警報・注意報】滋賀県では、強風や落雷に注意してください。北部では、なだれに注意してください。",
      "observedAt": "2026-01-12T21:44:30.000Z",
      "placeCountry": "日本",
      "placePref": "滋賀県",
      "placeCity": null,
      "latitude": 35.247154,
      "longitude": 136.109385
    },
    {
      "originId": "https://www.data.jma.go.jp/developer/xml/data/20260112213433_0_VPWW53_070000.xml",
      "title": "気象特別警報・警報・注意報",
      "content": "【福島県気象警報・注意報】浜通りでは、強風や高波と、空気の乾燥した状態が続くため火の取り扱いに注意してください。会津では、落雷や濃霧による視程障害に注意してください。",
      "observedAt": "2026-01-12T21:34:32.000Z",
      "placeCountry": "日本",
      "placePref": "福島県",
      "placeCity": null,
      "latitude": 37.3662591,
      "longitude": 140.2511854
    },
    {
      "originId": "https://www.data.jma.go.jp/developer/xml/data/20260112213418_0_VPWW53_040000.xml",
      "title": "気象特別警報・警報・注意報",
      "content": "【宮城県気象警報・注意報】東部では、１３日昼前から１３日夜遅くまで強風に、１３日昼過ぎから１３日夜遅くまで高波に、１３日まで空気の乾燥した状態が続くため、火の取り扱いに注意してください。",
      "observedAt": "2026-01-12T21:34:17.000Z",
      "placeCountry": "日本",
      "placePref": "宮城県",
      "placeCity": null,
      "latitude": 38.3880155,
      "longitude": 140.9761025
    },
    {
      "originId": "https://www.data.jma.go.jp/developer/xml/data/20260112213324_0_VPWW53_210000.xml",
      "title": "気象特別警報・警報・注意報",
      "content": "【岐阜県気象警報・注意報】岐阜県では、１３日昼過ぎから１３日夜のはじめ頃まで急な強い雨や落雷に、１４日までなだれに注意してください。",
      "observedAt": "2026-01-12T21:33:23.000Z",
      "placeCountry": "日本",
      "placePref": "岐阜県",
      "placeCity": null,
      "latitude": 35.7867449,
      "longitude": 137.0460777
    },
    {
      "originId": "https://www.data.jma.go.jp/developer/xml/data/20260112212355_0_VPWW53_020000.xml",
      "title": "気象特別警報・警報・注意報",
      "content": "【青森県気象警報・注意報】青森県では、風雪や高波、竜巻などの激しい突風、落雷に注意してください。津軽では、大雪や電線等への着雪に注意してください。津軽、三八上北では、なだれに注意してください。",
      "observedAt": "2026-01-12T21:23:53.000Z",
      "placeCountry": "日本",
      "placePref": "青森県",
      "placeCity": null,
      "latitude": 40.886943,
      "longitude": 140.590121
    },
    {
      "originId": "https://www.data.jma.go.jp/developer/xml/data/20260112211413_0_VPWW53_170000.xml",
      "title": "気象特別警報・警報・注意報",
      "content": "【石川県気象警報・注意報】石川県では、１３日昼過ぎから１４日朝まで高波に警戒してください。",
      "observedAt": "2026-01-12T21:14:12.000Z",
      "placeCountry": "日本",
      "placePref": "石川県",
      "placeCity": null,
      "latitude": 36.9888678,
      "longitude": 136.8163563
    },
    {
      "originId": "https://www.data.jma.go.jp/developer/xml/data/20260112210553_0_VPWW53_160000.xml",
      "title": "気象特別警報・警報・注意報",
      "content": "【富山県気象警報・注意報】東部の海上では、１３日昼過ぎから１３日夜遅くまで暴風に警戒してください。",
      "observedAt": "2026-01-12T21:05:52.000Z",
      "placeCountry": "日本",
      "placePref": "富山県",
      "placeCity": null,
      "latitude": 36.6468015,
      "longitude": 137.2183531
    },
    {
      "originId": "https://www.data.jma.go.jp/developer/xml/data/20260112200539_0_VPWW53_150000.xml",
      "title": "気象特別警報・警報・注意報",
      "content": "【新潟県気象警報・注意報】佐渡では、１３日昼前から１３日夜のはじめ頃まで暴風に警戒してください。",
      "observedAt": "2026-01-12T20:05:38.000Z",
      "placeCountry": "日本",
      "placePref": "新潟県",
      "placeCity": null,
      "latitude": 37.6452283,
      "longitude": 138.7669125
    },
    {
      "originId": "https://www.data.jma.go.jp/developer/xml/data/20260112195647_0_VPWW53_160000.xml",
      "title": "気象特別警報・警報・注意報",
      "content": "【富山県気象警報・注意報】富山県では、強風や竜巻などの激しい突風、落雷に注意してください。東部では、高波に注意してください。",
      "observedAt": "2026-01-12T19:56:47.000Z",
      "placeCountry": "日本",
      "placePref": "富山県",
      "placeCity": null,
      "latitude": 36.6468015,
      "longitude": 137.2183531
    },
    {
      "originId": "https://www.data.jma.go.jp/developer/xml/data/20260112195330_0_VPWW53_220000.xml",
      "title": "気象特別警報・警報・注意報",
      "content": "【静岡県気象警報・注意報】中部、伊豆、西部では強風や高波に、静岡県では竜巻などの激しい突風や急な強い雨、落雷に、中部では空気の乾燥した状態が続くため、火の取り扱いに注意してください。",
      "observedAt": "2026-01-12T19:53:28.000Z",
      "placeCountry": "日本",
      "placePref": "静岡県",
      "placeCity": null,
      "latitude": 34.9332488,
      "longitude": 138.0955398
    },
    {
      "originId": "https://www.data.jma.go.jp/developer/xml/data/20260112195221_0_VPWW53_240000.xml",
      "title": "気象特別警報・警報・注意報",
      "content": "【三重県気象警報・注意報】南部では、１３日昼前から１３日夜のはじめ頃まで強風に、１３日まで空気の乾燥した状態が続くため、火の取り扱いに注意してください。三重県では、１３日まで低温に注意してください。",
      "observedAt": "2026-01-12T19:52:21.000Z",
      "placeCountry": "日本",
      "placePref": "三重県",
      "placeCity": null,
      "latitude": 34.7339685,
      "longitude": 136.5154489
    },
    {
      "originId": "https://www.data.jma.go.jp/developer/xml/data/20260112195108_0_VPWW53_180000.xml",
      "title": "気象特別警報・警報・注意報",
      "content": "【福井県気象警報・注意報】福井県では、強風や高波、竜巻などの激しい突風、落雷に注意してください。",
      "observedAt": "2026-01-12T19:51:07.000Z",
      "placeCountry": "日本",
      "placePref": "福井県",
      "placeCity": null,
      "latitude": 35.9263502,
      "longitude": 136.6068127
    },
    {
      "originId": "https://www.data.jma.go.jp/developer/xml/data/20260112194910_0_VPWW53_170000.xml",
      "title": "気象特別警報・警報・注意報",
      "content": "【石川県気象警報・注意報】石川県では、強風や高波、竜巻などの激しい突風、落雷に注意してください。能登では、高潮に注意してください。",
      "observedAt": "2026-01-12T19:49:09.000Z",
      "placeCountry": "日本",
      "placePref": "石川県",
      "placeCity": null,
      "latitude": 36.9888678,
      "longitude": 136.8163563
    },
    {
      "originId": "https://www.data.jma.go.jp/developer/xml/data/20260112193403_0_VPWW53_070000.xml",
      "title": "気象特別警報・警報・注意報",
      "content": "【福島県気象警報・注意報】浜通りでは、１３日昼前から強風に、１５日まで空気の乾燥した状態が続くため、火の取り扱いに注意してください。会津では、１３日昼前まで濃霧による視程障害に注意してください。",
      "observedAt": "2026-01-12T19:34:03.000Z",
      "placeCountry": "日本",
      "placePref": "福島県",
      "placeCity": null,
      "latitude": 37.3662591,
      "longitude": 140.2511854
    },
    {
      "originId": "https://www.data.jma.go.jp/developer/xml/data/20260112193352_0_VPWW53_040000.xml",
      "title": "気象特別警報・警報・注意報",
      "content": "【宮城県気象警報・注意報】東部では、１３日昼前から１３日夜遅くまで強風に、１３日まで空気の乾燥した状態が続くため、火の取り扱いに注意してください。",
      "observedAt": "2026-01-12T19:33:51.000Z",
      "placeCountry": "日本",
      "placePref": "宮城県",
      "placeCity": null,
      "latitude": 38.3880155,
      "longitude": 140.9761025
    },
    {
      "originId": "https://www.data.jma.go.jp/developer/xml/data/20260112193218_0_VPWW53_280000.xml",
      "title": "気象特別警報・警報・注意報",
      "content": "【兵庫県気象警報・注意報】兵庫県では、強風や高波、落雷、なだれに注意してください。北部では、高潮に注意してください。南部では、空気の乾燥した状態が続くため、火の取り扱いに注意してください。",
      "observedAt": "2026-01-12T19:32:17.000Z",
      "placeCountry": "日本",
      "placePref": "兵庫県",
      "placeCity": null,
      "latitude": 34.914934,
      "longitude": 134.860666
    },
    {
      "originId": "https://www.data.jma.go.jp/developer/xml/data/20260112193216_0_VPWW53_030000.xml",
      "title": "気象特別警報・警報・注意報",
      "content": "【岩手県気象警報・注意報】沿岸北部、沿岸南部では、強風に注意してください。内陸では、風雪や大雪、なだれ、電線等への着雪に注意してください。岩手県では、落雷に注意してください。",
      "observedAt": "2026-01-12T19:32:15.000Z",
      "placeCountry": "日本",
      "placePref": "岩手県",
      "placeCity": null,
      "latitude": 39.5713763,
      "longitude": 141.4253574
    },
    {
      "originId": "https://www.data.jma.go.jp/developer/xml/data/20260112193121_0_VPWW53_270000.xml",
      "title": "気象特別警報・警報・注意報",
      "content": "【大阪府気象警報・注意報】大阪府では、１３日昼前から１３日夜のはじめ頃まで強風や高波に、１３日昼前から１３日夕方まで落雷に、１３日まで空気の乾燥した状態が続くため、火の取り扱いに注意してください。",
      "observedAt": "2026-01-12T19:31:19.000Z",
      "placeCountry": "日本",
      "placePref": "大阪府",
      "placeCity": null,
      "latitude": 34.6198813,
      "longitude": 135.490357
    },
    {
      "originId": "https://www.data.jma.go.jp/developer/xml/data/20260112192514_0_VPWW53_260000.xml",
      "title": "気象特別警報・警報・注意報",
      "content": "【京都府気象警報・注意報】北部では、強風や高波に注意してください。京都府では、落雷に注意してください。南部では、空気の乾燥した状態が続くため、火の取り扱いに注意してください。",
      "observedAt": "2026-01-12T19:25:13.000Z",
      "placeCountry": "日本",
      "placePref": "京都府",
      "placeCity": null,
      "latitude": 35.242552,
      "longitude": 135.454601
    },
    {
      "originId": "https://www.data.jma.go.jp/developer/xml/data/20260112192243_0_VPWW53_060000.xml",
      "title": "気象特別警報・警報・注意報",
      "content": "【山形県気象警報・注意報】庄内では、強風や高波に注意してください。山形県では、竜巻などの激しい突風や落雷に注意してください。",
      "observedAt": "2026-01-12T19:22:42.000Z",
      "placeCountry": "日本",
      "placePref": "山形県",
      "placeCity": null,
      "latitude": 38.4746705,
      "longitude": 140.083237
    },
    {
      "originId": "https://www.data.jma.go.jp/developer/xml/data/20260112192242_0_VPWW53_050000.xml",
      "title": "気象特別警報・警報・注意報",
      "content": "【秋田県気象警報・注意報】秋田県では、風雪や高波、高潮、竜巻などの激しい突風、落雷に注意してください。",
      "observedAt": "2026-01-12T19:22:41.000Z",
      "placeCountry": "日本",
      "placePref": "秋田県",
      "placeCity": null,
      "latitude": 39.6898802,
      "longitude": 140.342608
    },
    {
      "originId": "https://www.data.jma.go.jp/developer/xml/data/20260112191932_0_VPWW53_320000.xml",
      "title": "気象特別警報・警報・注意報",
      "content": "【島根県気象警報・注意報】島根県では、強風や高波、急な強い雨、落雷に注意してください。",
      "observedAt": "2026-01-12T19:19:31.000Z",
      "placeCountry": "日本",
      "placePref": "島根県",
      "placeCity": null,
      "latitude": 34.9418212,
      "longitude": 132.537439
    },
    {
      "originId": "https://www.data.jma.go.jp/developer/xml/data/20260112191656_0_VPWW53_360000.xml",
      "title": "気象特別警報・警報・注意報",
      "content": "【徳島県気象警報・注意報】徳島県では、１３日昼前から１３日夜のはじめ頃まで強風に、１４日まで空気の乾燥した状態が続くため、火の取り扱いに注意してください。",
      "observedAt": "2026-01-12T19:16:55.000Z",
      "placeCountry": "日本",
      "placePref": "徳島県",
      "placeCity": null,
      "latitude": 33.9196418,
      "longitude": 134.2509634
    },
    {
      "originId": "https://www.data.jma.go.jp/developer/xml/data/20260112191645_0_VPWW53_390000.xml",
      "title": "気象特別警報・警報・注意報",
      "content": "【高知県気象警報・注意報】東部では１３日夜遅くまで、西部では１４日明け方まで、強風に注意してください。高知県では、１４日まで空気の乾燥した状態が続くため、火の取り扱いに注意してください。",
      "observedAt": "2026-01-12T19:16:44.000Z",
      "placeCountry": "日本",
      "placePref": "高知県",
      "placeCity": null,
      "latitude": 33.6569018,
      "longitude": 133.5606241
    },
    {
      "originId": "https://www.data.jma.go.jp/developer/xml/data/20260112191642_0_VPWW53_020000.xml",
      "title": "気象特別警報・警報・注意報",
      "content": "【青森県気象警報・注意報】津軽では、大雪や高波、電線等への着雪に注意してください。青森県では、竜巻などの激しい突風や落雷に注意してください。津軽、三八上北では、なだれに注意してください。",
      "observedAt": "2026-01-12T19:16:41.000Z",
      "placeCountry": "日本",
      "placePref": "青森県",
      "placeCity": null,
      "latitude": 40.886943,
      "longitude": 140.590121
    },
    {
      "originId": "https://www.data.jma.go.jp/developer/xml/data/20260112191416_0_VPWW53_130000.xml",
      "title": "気象特別警報・警報・注意報",
      "content": "【東京都気象警報・注意報】東京地方、伊豆諸島北部、伊豆諸島南部では、強風や高波、竜巻などの激しい突風、急な強い雨、落雷、空気の乾燥した状態が続くため、火の取り扱いに注意してください。",
      "observedAt": "2026-01-12T19:14:15.000Z",
      "placeCountry": "日本",
      "placePref": "東京都",
      "placeCity": null,
      "latitude": 35.6828387,
      "longitude": 139.7594549
    },
    {
      "originId": "https://www.data.jma.go.jp/developer/xml/data/20260112191324_0_VPWW53_380000.xml",
      "title": "気象特別警報・警報・注意報",
      "content": "【愛媛県気象警報・注意報】中予、東予では１３日朝から１３日夜遅くまで、南予では１３日朝から１４日明け方まで、強風や高波に注意してください。中予、東予では、１３日朝から１３日夕方まで落雷に注意してください。",
      "observedAt": "2026-01-12T19:13:23.000Z",
      "placeCountry": "日本",
      "placePref": "愛媛県",
      "placeCity": null,
      "latitude": 33.6013646,
      "longitude": 132.8185275
    },
    {
      "originId": "https://www.data.jma.go.jp/developer/xml/data/20260112191311_0_VPWW53_370000.xml",
      "title": "気象特別警報・警報・注意報",
      "content": "【香川県気象警報・注意報】香川県では、１３日昼前から１３日夜のはじめ頃まで強風や高波に、１３日昼前から１３日夕方まで落雷に、１３日まで空気の乾燥した状態が続くため、火の取り扱いに注意してください。",
      "observedAt": "2026-01-12T19:13:10.000Z",
      "placeCountry": "日本",
      "placePref": "香川県",
      "placeCity": null,
      "latitude": 34.2480104,
      "longitude": 134.0586579
    },
    {
      "originId": "https://www.data.jma.go.jp/developer/xml/data/20260112191042_0_VPWW53_330000.xml",
      "title": "気象特別警報・警報・注意報",
      "content": "【岡山県気象警報・注意報】南部では、１３日昼前から１３日夜のはじめ頃まで強風や高波に注意してください。岡山県では、１３日夕方まで急な強い雨や落雷に注意してください。",
      "observedAt": "2026-01-12T19:10:41.000Z",
      "placeCountry": "日本",
      "placePref": "岡山県",
      "placeCity": null,
      "latitude": 34.8581334,
      "longitude": 133.7759256
    },
    {
      "originId": "https://www.data.jma.go.jp/developer/xml/data/20260112191039_0_VPWW53_340000.xml",
      "title": "気象特別警報・警報・注意報",
      "content": "【広島県気象警報・注意報】南部では、１３日夕方まで強風や高波に注意してください。広島県では、１３日昼過ぎまで急な強い雨や落雷に注意してください。",
      "observedAt": "2026-01-12T19:10:38.000Z",
      "placeCountry": "日本",
      "placePref": "広島県",
      "placeCity": null,
      "latitude": 34.5666725,
      "longitude": 132.753565
    },
    {
      "originId": "https://www.data.jma.go.jp/developer/xml/data/20260112191019_0_VPWW53_120000.xml",
      "title": "気象特別警報・警報・注意報",
      "content": "【千葉県気象警報・注意報】千葉県では、強風や高波と、空気の乾燥した状態が続くため火の取り扱いに注意してください。",
      "observedAt": "2026-01-12T19:10:18.000Z",
      "placeCountry": "日本",
      "placePref": "千葉県",
      "placeCity": null,
      "latitude": 35.549399,
      "longitude": 140.2647303
    },
    {
      "originId": "https://www.data.jma.go.jp/developer/xml/data/20260112190607_0_VPWW53_100000.xml",
      "title": "気象特別警報・警報・注意報",
      "content": "【群馬県気象警報・注意報】群馬県では、１５日まで空気の乾燥した状態が続くため、火の取り扱いに注意してください。北部では、１３日までなだれに注意してください。",
      "observedAt": "2026-01-12T19:06:06.000Z",
      "placeCountry": "日本",
      "placePref": "群馬県",
      "placeCity": null,
      "latitude": 36.52198,
      "longitude": 139.033483
    },
    {
      "originId": "https://www.data.jma.go.jp/developer/xml/data/20260112190605_0_VPWW53_450000.xml",
      "title": "気象特別警報・警報・注意報",
      "content": "【宮崎県気象警報・注意報】南部平野部では、１３日昼前から１３日昼過ぎまで強風に注意してください。",
      "observedAt": "2026-01-12T19:06:05.000Z",
      "placeCountry": "日本",
      "placePref": "宮崎県",
      "placeCity": null,
      "latitude": 32.097681,
      "longitude": 131.294542
    },
    {
      "originId": "https://www.data.jma.go.jp/developer/xml/data/20260112190526_0_VPWW53_080000.xml",
      "title": "気象特別警報・警報・注意報",
      "content": "【茨城県気象警報・注意報】茨城県では、強風や高波、乾燥、低温に注意してください。",
      "observedAt": "2026-01-12T19:05:25.000Z",
      "placeCountry": "日本",
      "placePref": "茨城県",
      "placeCity": null,
      "latitude": 36.2869536,
      "longitude": 140.4703384
    },
    {
      "originId": "https://www.data.jma.go.jp/developer/xml/data/20260112190416_0_VPWW53_290000.xml",
      "title": "気象特別警報・警報・注意報",
      "content": "【奈良県気象警報・注意報】奈良県では、１３日昼前から１３日夕方まで落雷に、１３日まで空気の乾燥した状態が続くため、火の取り扱いに注意してください。",
      "observedAt": "2026-01-12T19:04:15.000Z",
      "placeCountry": "日本",
      "placePref": "奈良県",
      "placeCity": null,
      "latitude": 34.2963089,
      "longitude": 135.8816819
    },
    {
      "originId": "https://www.data.jma.go.jp/developer/xml/data/20260112190415_0_VPWW53_300000.xml",
      "title": "気象特別警報・警報・注意報",
      "content": "【和歌山県気象警報・注意報】和歌山県では、強風や落雷と、空気の乾燥した状態が続くため火の取り扱いに注意してください。南部では、高波に注意してください。",
      "observedAt": "2026-01-12T19:04:14.000Z",
      "placeCountry": "日本",
      "placePref": "和歌山県",
      "placeCity": null,
      "latitude": 33.8070292,
      "longitude": 135.5930743
    },
    {
      "originId": "https://www.data.jma.go.jp/developer/xml/data/20260112190350_0_VPWW53_090000.xml",
      "title": "気象特別警報・警報・注意報",
      "content": "【栃木県気象警報・注意報】北部では、強風やなだれに注意してください。栃木県では、乾燥や低温に注意してください。",
      "observedAt": "2026-01-12T19:03:49.000Z",
      "placeCountry": "日本",
      "placePref": "栃木県",
      "placeCity": null,
      "latitude": 36.6782167,
      "longitude": 139.8096549
    },
    {
      "originId": "https://www.data.jma.go.jp/developer/xml/data/20260112190249_0_VPWW53_200000.xml",
      "title": "気象特別警報・警報・注意報",
      "content": "【長野県気象警報・注意報】中部では、１３日朝から１３日夕方まで強風に注意してください。北部では、１３日昼前まで濃霧による視程障害に、１３日までなだれに注意してください。",
      "observedAt": "2026-01-12T19:02:48.000Z",
      "placeCountry": "日本",
      "placePref": "長野県",
      "placeCity": null,
      "latitude": 36.1143945,
      "longitude": 138.0319015
    },
    {
      "originId": "https://www.data.jma.go.jp/developer/xml/data/20260112190025_0_VPWW53_460040.xml",
      "title": "気象特別警報・警報・注意報",
      "content": "【奄美地方（鹿児島県）気象警報・注意報】奄美地方では、１３日昼前から１３日夜遅くまで高波に、１３日朝から１３日昼前まで急な強い雨や落雷に注意してください。",
      "observedAt": "2026-01-12T19:00:24.000Z",
      "placeCountry": "日本",
      "placePref": "鹿児島県",
      "placeCity": null,
      "latitude": 31.521587,
      "longitude": 130.5474077
    },
    {
      "originId": "https://www.data.jma.go.jp/developer/xml/data/20260112190010_0_VPWW53_460100.xml",
      "title": "気象特別警報・警報・注意報",
      "content": "【鹿児島県（奄美地方を除く）気象警報・注意報】薩摩、大隅地方では、強風に注意してください。薩摩、大隅、種子島・屋久島地方では、高波や落雷に注意してください。",
      "observedAt": "2026-01-12T19:00:09.000Z",
      "placeCountry": "日本",
      "placePref": "鹿児島県",
      "placeCity": null,
      "latitude": 31.521587,
      "longitude": 130.5474077
    },
    {
      "originId": "https://www.data.jma.go.jp/developer/xml/data/20260112185644_0_VPWW53_430000.xml",
      "title": "気象特別警報・警報・注意報",
      "content": "【熊本県気象警報・注意報】熊本、阿蘇、天草・芦北地方では、強風に注意してください。天草・芦北地方では、高波に注意してください。熊本県では、落雷に注意してください。",
      "observedAt": "2026-01-12T18:56:43.000Z",
      "placeCountry": "日本",
      "placePref": "熊本県",
      "placeCity": null,
      "latitude": 32.6450475,
      "longitude": 130.6341345
    },
    {
      "originId": "https://www.data.jma.go.jp/developer/xml/data/20260112184007_0_VPWW53_400000.xml",
      "title": "気象特別警報・警報・注意報",
      "content": "【福岡県気象警報・注意報】福岡、北九州地方では、強風や高波に注意してください。福岡県では、落雷に注意してください。",
      "observedAt": "2026-01-12T18:40:06.000Z",
      "placeCountry": "日本",
      "placePref": "福岡県",
      "placeCity": null,
      "latitude": 33.6251241,
      "longitude": 130.6180016
    },
    {
      "originId": "https://www.data.jma.go.jp/developer/xml/data/20260112182246_0_VPWW53_140000.xml",
      "title": "気象特別警報・警報・注意報",
      "content": "【神奈川県気象警報・注意報】神奈川県では、強風と、空気の乾燥した状態が続くため火の取り扱いに注意してください。東部では、高波に注意してください。",
      "observedAt": "2026-01-12T18:22:46.000Z",
      "placeCountry": "日本",
      "placePref": "神奈川県",
      "placeCity": null,
      "latitude": 35.4342935,
      "longitude": 139.374753
    },
    {
      "originId": "https://www.data.jma.go.jp/developer/xml/data/20260112180718_0_VPWW53_440000.xml",
      "title": "気象特別警報・警報・注意報",
      "content": "【大分県気象警報・注意報】中部、北部、南部では強風に、中部、北部では高波に、北部、西部では落雷に、大分県では空気の乾燥した状態が続くため、火の取り扱いに注意してください。",
      "observedAt": "2026-01-12T18:07:17.000Z",
      "placeCountry": "日本",
      "placePref": "大分県",
      "placeCity": null,
      "latitude": 33.1819875,
      "longitude": 131.4270217
    }
  ]
}