{
  "generatedAt": "2026-02-18T01:40:30.448Z",
  "timeZone": "Asia/Tokyo",
  "hourPath": "2026/02/18/10",
  "source": "http://www.data.jma.go.jp/developer/xml/feed/extra.xml",
  "totalItems": 74,
  "items": [
    {
      "originId": "https://www.data.jma.go.jp/developer/xml/data/20260218012436_0_VPWW53_180000.xml",
      "title": "気象特別警報・警報・注意報",
      "content": "【福井県気象警報・注意報】福井県では、風雪や高波、落雷に注意してください。",
      "observedAt": "2026-02-18T01:24:35.000Z",
      "placeCountry": "日本",
      "placePref": "福井県",
      "placeCity": null,
      "latitude": 35.9263502,
      "longitude": 136.6068127
    },
    {
      "originId": "https://www.data.jma.go.jp/developer/xml/data/20260218012210_0_VPWW53_170000.xml",
      "title": "気象特別警報・警報・注意報",
      "content": "【石川県気象警報・注意報】石川県では、強風や高波、竜巻などの激しい突風、落雷に注意してください。加賀では、なだれに注意してください。",
      "observedAt": "2026-02-18T01:22:09.000Z",
      "placeCountry": "日本",
      "placePref": "石川県",
      "placeCity": null,
      "latitude": 36.9888678,
      "longitude": 136.8163563
    },
    {
      "originId": "https://www.data.jma.go.jp/developer/xml/data/20260218012013_0_VPWW53_360000.xml",
      "title": "気象特別警報・警報・注意報",
      "content": "【徳島県気象警報・注意報】徳島県では、１８日夕方から１９日昼前まで強風に、１９日まで空気の乾燥した状態が続くため、火の取り扱いに注意してください。",
      "observedAt": "2026-02-18T01:20:12.000Z",
      "placeCountry": "日本",
      "placePref": "徳島県",
      "placeCity": null,
      "latitude": 33.9196418,
      "longitude": 134.2509634
    },
    {
      "originId": "https://www.data.jma.go.jp/developer/xml/data/20260218011520_0_VPWW53_460100.xml",
      "title": "気象特別警報・警報・注意報",
      "content": "【鹿児島県（奄美地方を除く）気象警報・注意報】薩摩、大隅、種子島・屋久島地方では、強風や高波と、空気の乾燥した状態が続くため火の取り扱いに注意してください。種子島・屋久島地方では、霜に対する農作物の管理に注意してください。",
      "observedAt": "2026-02-18T01:15:19.000Z",
      "placeCountry": "日本",
      "placePref": "鹿児島県",
      "placeCity": null,
      "latitude": 31.521587,
      "longitude": 130.5474077
    },
    {
      "originId": "https://www.data.jma.go.jp/developer/xml/data/20260218011435_0_VPWW53_130000.xml",
      "title": "気象特別警報・警報・注意報",
      "content": "【東京都気象警報・注意報】伊豆諸島北部、伊豆諸島南部では、強風や高波に注意してください。",
      "observedAt": "2026-02-18T01:14:34.000Z",
      "placeCountry": "日本",
      "placePref": "東京都",
      "placeCity": null,
      "latitude": 35.6828387,
      "longitude": 139.7594549
    },
    {
      "originId": "https://www.data.jma.go.jp/developer/xml/data/20260218011420_0_VPWW53_320000.xml",
      "title": "気象特別警報・警報・注意報",
      "content": "【島根県気象警報・注意報】島根県では、強風や高波に注意してください。東部では、なだれに注意してください。",
      "observedAt": "2026-02-18T01:14:19.000Z",
      "placeCountry": "日本",
      "placePref": "島根県",
      "placeCity": null,
      "latitude": 34.9418212,
      "longitude": 132.537439
    },
    {
      "originId": "https://www.data.jma.go.jp/developer/xml/data/20260218011416_0_VPWW53_380000.xml",
      "title": "気象特別警報・警報・注意報",
      "content": "【愛媛県気象警報・注意報】南予では、１８日昼過ぎから１８日夜遅くまで強風や高波に注意してください。愛媛県では、１９日まで低温に注意してください。",
      "observedAt": "2026-02-18T01:14:15.000Z",
      "placeCountry": "日本",
      "placePref": "愛媛県",
      "placeCity": null,
      "latitude": 33.6013646,
      "longitude": 132.8185275
    },
    {
      "originId": "https://www.data.jma.go.jp/developer/xml/data/20260218010914_0_VPWW53_140000.xml",
      "title": "気象特別警報・警報・注意報",
      "content": "【神奈川県気象警報・注意報】神奈川県では、１８日夕方から１９日昼前まで強風に注意してください。東部では、１８日夜のはじめ頃から１９日明け方まで高波に注意してください。",
      "observedAt": "2026-02-18T01:09:14.000Z",
      "placeCountry": "日本",
      "placePref": "神奈川県",
      "placeCity": null,
      "latitude": 35.4342935,
      "longitude": 139.374753
    },
    {
      "originId": "https://www.data.jma.go.jp/developer/xml/data/20260218010537_0_VPWW53_350000.xml",
      "title": "気象特別警報・警報・注意報",
      "content": "【山口県気象警報・注意報】山口県では、強風や高波と、空気の乾燥した状態が続くため火の取り扱いに注意してください。中部、東部では、低温に注意してください。",
      "observedAt": "2026-02-18T01:05:36.000Z",
      "placeCountry": "日本",
      "placePref": "山口県",
      "placeCity": null,
      "latitude": 34.2379614,
      "longitude": 131.5873845
    },
    {
      "originId": "https://www.data.jma.go.jp/developer/xml/data/20260218010534_0_VPWW53_050000.xml",
      "title": "気象特別警報・警報・注意報",
      "content": "【秋田県気象警報・注意報】沿岸では、１９日昼前まで強風に注意してください。秋田県では、１８日昼過ぎから１９日明け方まで竜巻などの激しい突風や落雷に注意してください。",
      "observedAt": "2026-02-18T01:05:33.000Z",
      "placeCountry": "日本",
      "placePref": "秋田県",
      "placeCity": null,
      "latitude": 39.6898802,
      "longitude": 140.342608
    },
    {
      "originId": "https://www.data.jma.go.jp/developer/xml/data/20260218010523_0_VPWW53_200000.xml",
      "title": "気象特別警報・警報・注意報",
      "content": "【長野県気象警報・注意報】北部では、１８日夕方から１８日夜遅くまで落雷に注意してください。",
      "observedAt": "2026-02-18T01:05:22.000Z",
      "placeCountry": "日本",
      "placePref": "長野県",
      "placeCity": null,
      "latitude": 36.1143945,
      "longitude": 138.0319015
    },
    {
      "originId": "https://www.data.jma.go.jp/developer/xml/data/20260218010518_0_VPWW53_410000.xml",
      "title": "気象特別警報・警報・注意報",
      "content": "【佐賀県気象警報・注意報】佐賀県では、強風と、空気の乾燥した状態が続くため火の取り扱いに注意してください。",
      "observedAt": "2026-02-18T01:05:17.000Z",
      "placeCountry": "日本",
      "placePref": "佐賀県",
      "placeCity": null,
      "latitude": 33.2185408,
      "longitude": 130.1296585
    },
    {
      "originId": "https://www.data.jma.go.jp/developer/xml/data/20260218010340_0_VPWW53_060000.xml",
      "title": "気象特別警報・警報・注意報",
      "content": "【山形県気象警報・注意報】庄内では、１８日昼過ぎから１９日昼前まで強風に注意してください。山形県では、１８日夕方から１９日明け方まで竜巻などの激しい突風や落雷に注意してください。",
      "observedAt": "2026-02-18T01:03:39.000Z",
      "placeCountry": "日本",
      "placePref": "山形県",
      "placeCity": null,
      "latitude": 38.4746705,
      "longitude": 140.083237
    },
    {
      "originId": "https://www.data.jma.go.jp/developer/xml/data/20260218010236_0_VPWW53_220000.xml",
      "title": "気象特別警報・警報・注意報",
      "content": "【静岡県気象警報・注意報】中部、伊豆、西部では、強風に注意してください。西部では、空気の乾燥した状態が続くため、火の取り扱いに注意してください。",
      "observedAt": "2026-02-18T01:02:35.000Z",
      "placeCountry": "日本",
      "placePref": "静岡県",
      "placeCity": null,
      "latitude": 34.9332488,
      "longitude": 138.0955398
    },
    {
      "originId": "https://www.data.jma.go.jp/developer/xml/data/20260218010218_0_VPWW53_440000.xml",
      "title": "気象特別警報・警報・注意報",
      "content": "【大分県気象警報・注意報】中部、北部、南部では、１８日夜のはじめ頃まで強風や高波に注意してください。大分県では、１９日まで乾燥や低温に注意してください。",
      "observedAt": "2026-02-18T01:02:18.000Z",
      "placeCountry": "日本",
      "placePref": "大分県",
      "placeCity": null,
      "latitude": 33.1819875,
      "longitude": 131.4270217
    },
    {
      "originId": "https://www.data.jma.go.jp/developer/xml/data/20260218005853_0_VPWW53_030000.xml",
      "title": "気象特別警報・警報・注意報",
      "content": "【岩手県気象警報・注意報】内陸では、１８日夕方から１９日明け方まで落雷に注意してください。沿岸北部、沿岸南部では、１８日まで空気の乾燥した状態が続くため、火の取り扱いに注意してください。",
      "observedAt": "2026-02-18T00:58:53.000Z",
      "placeCountry": "日本",
      "placePref": "岩手県",
      "placeCity": null,
      "latitude": 39.5713763,
      "longitude": 141.4253574
    },
    {
      "originId": "https://www.data.jma.go.jp/developer/xml/data/20260218005706_0_VPWW53_310000.xml",
      "title": "気象特別警報・警報・注意報",
      "content": "【鳥取県気象警報・注意報】鳥取県では、１８日夜遅くまで強風に、１８日昼過ぎから１９日昼前まで高波に、１８日昼過ぎから１８日夜のはじめ頃まで急な強い雨や落雷に、２０日までなだれに注意してください。",
      "observedAt": "2026-02-18T00:57:05.000Z",
      "placeCountry": "日本",
      "placePref": "鳥取県",
      "placeCity": null,
      "latitude": 35.3555075,
      "longitude": 133.8678525
    },
    {
      "originId": "https://www.data.jma.go.jp/developer/xml/data/20260218005604_0_VPWW53_430000.xml",
      "title": "気象特別警報・警報・注意報",
      "content": "【熊本県気象警報・注意報】天草・芦北地方では１９日明け方まで、熊本地方では１８日昼過ぎから１８日夜のはじめ頃まで、強風に注意してください。",
      "observedAt": "2026-02-18T00:56:03.000Z",
      "placeCountry": "日本",
      "placePref": "熊本県",
      "placeCity": null,
      "latitude": 32.6450475,
      "longitude": 130.6341345
    },
    {
      "originId": "https://www.data.jma.go.jp/developer/xml/data/20260218005445_0_VPWW53_190000.xml",
      "title": "気象特別警報・警報・注意報",
      "content": "【山梨県気象警報・注意報】注意報を解除します。",
      "observedAt": "2026-02-18T00:54:45.000Z",
      "placeCountry": "日本",
      "placePref": "山梨県",
      "placeCity": null,
      "latitude": 35.6399328,
      "longitude": 138.6380495
    },
    {
      "originId": "https://www.data.jma.go.jp/developer/xml/data/20260218005424_0_VPWW53_280000.xml",
      "title": "気象特別警報・警報・注意報",
      "content": "【兵庫県気象警報・注意報】兵庫県では、強風や高波、落雷、なだれに注意してください。南部では、空気の乾燥した状態が続くため、火の取り扱いに注意してください。",
      "observedAt": "2026-02-18T00:54:22.000Z",
      "placeCountry": "日本",
      "placePref": "兵庫県",
      "placeCity": null,
      "latitude": 34.914934,
      "longitude": 134.860666
    },
    {
      "originId": "https://www.data.jma.go.jp/developer/xml/data/20260218005319_0_VPWW53_150000.xml",
      "title": "気象特別警報・警報・注意報",
      "content": "【新潟県気象警報・注意報】新潟県では、強風や高波、竜巻などの激しい突風、落雷に注意してください。下越、中越、上越では、なだれに注意してください。",
      "observedAt": "2026-02-18T00:53:18.000Z",
      "placeCountry": "日本",
      "placePref": "新潟県",
      "placeCity": null,
      "latitude": 37.6452283,
      "longitude": 138.7669125
    },
    {
      "originId": "https://www.data.jma.go.jp/developer/xml/data/20260218005240_0_VPWW53_300000.xml",
      "title": "気象特別警報・警報・注意報",
      "content": "【和歌山県気象警報・注意報】和歌山県では、１８日夕方から１９日明け方まで強風に、２０日まで空気の乾燥した状態が続くため、火の取り扱いに注意してください。",
      "observedAt": "2026-02-18T00:52:39.000Z",
      "placeCountry": "日本",
      "placePref": "和歌山県",
      "placeCity": null,
      "latitude": 33.8070292,
      "longitude": 135.5930743
    },
    {
      "originId": "https://www.data.jma.go.jp/developer/xml/data/20260218004904_0_VPWW53_270000.xml",
      "title": "気象特別警報・警報・注意報",
      "content": "【大阪府気象警報・注意報】大阪府では、１８日昼過ぎから１８日夜遅くまで強風や高波に、１９日まで空気の乾燥した状態が続くため、火の取り扱いに注意してください。",
      "observedAt": "2026-02-18T00:49:03.000Z",
      "placeCountry": "日本",
      "placePref": "大阪府",
      "placeCity": null,
      "latitude": 34.6198813,
      "longitude": 135.490357
    },
    {
      "originId": "https://www.data.jma.go.jp/developer/xml/data/20260218004812_0_VPWW53_070000.xml",
      "title": "気象特別警報・警報・注意報",
      "content": "【福島県気象警報・注意報】会津では、１８日夕方から１９日明け方まで落雷に注意してください。中通り、浜通りでは、ここしばらく空気の乾燥した状態が続くため、火の取り扱いに注意してください。",
      "observedAt": "2026-02-18T00:48:11.000Z",
      "placeCountry": "日本",
      "placePref": "福島県",
      "placeCity": null,
      "latitude": 37.3662591,
      "longitude": 140.2511854
    },
    {
      "originId": "https://www.data.jma.go.jp/developer/xml/data/20260218004718_0_VPWW53_250000.xml",
      "title": "気象特別警報・警報・注意報",
      "content": "【滋賀県気象警報・注意報】南部では、強風に注意してください。北部では、風雪や落雷、なだれに注意してください。",
      "observedAt": "2026-02-18T00:47:17.000Z",
      "placeCountry": "日本",
      "placePref": "滋賀県",
      "placeCity": null,
      "latitude": 35.247154,
      "longitude": 136.109385
    },
    {
      "originId": "https://www.data.jma.go.jp/developer/xml/data/20260218004246_0_VPWW53_260000.xml",
      "title": "気象特別警報・警報・注意報",
      "content": "【京都府気象警報・注意報】北部では、強風や高波、なだれに注意してください。京都府では、落雷に注意してください。南部では、空気の乾燥した状態が続くため、火の取り扱いに注意してください。",
      "observedAt": "2026-02-18T00:42:46.000Z",
      "placeCountry": "日本",
      "placePref": "京都府",
      "placeCity": null,
      "latitude": 35.242552,
      "longitude": 135.454601
    },
    {
      "originId": "https://www.data.jma.go.jp/developer/xml/data/20260218004212_0_VPWW53_420000.xml",
      "title": "気象特別警報・警報・注意報",
      "content": "【長崎県気象警報・注意報】長崎県では、強風に注意してください。南部、北部、五島では、空気の乾燥した状態が続くため、火の取り扱いに注意してください。",
      "observedAt": "2026-02-18T00:42:11.000Z",
      "placeCountry": "日本",
      "placePref": "長崎県",
      "placeCity": null,
      "latitude": 33.1154683,
      "longitude": 129.7874339
    },
    {
      "originId": "https://www.data.jma.go.jp/developer/xml/data/20260217230512_0_VPWW53_200000.xml",
      "title": "気象特別警報・警報・注意報",
      "content": "【長野県気象警報・注意報】北部では、１８日昼前まで濃霧による視程障害に注意してください。",
      "observedAt": "2026-02-17T23:05:12.000Z",
      "placeCountry": "日本",
      "placePref": "長野県",
      "placeCity": null,
      "latitude": 36.1143945,
      "longitude": 138.0319015
    },
    {
      "originId": "https://www.data.jma.go.jp/developer/xml/data/20260217225031_0_VPWW53_120000.xml",
      "title": "気象特別警報・警報・注意報",
      "content": "【千葉県気象警報・注意報】南部では、１８日昼過ぎから１９日明け方まで強風や高波に注意してください。",
      "observedAt": "2026-02-17T22:50:30.000Z",
      "placeCountry": "日本",
      "placePref": "千葉県",
      "placeCity": null,
      "latitude": 35.549399,
      "longitude": 140.2647303
    },
    {
      "originId": "https://www.data.jma.go.jp/developer/xml/data/20260217224416_0_VPWW53_250000.xml",
      "title": "気象特別警報・警報・注意報",
      "content": "【滋賀県気象警報・注意報】北部では、１８日までなだれに注意してください。",
      "observedAt": "2026-02-17T22:44:15.000Z",
      "placeCountry": "日本",
      "placePref": "滋賀県",
      "placeCity": null,
      "latitude": 35.247154,
      "longitude": 136.109385
    },
    {
      "originId": "https://www.data.jma.go.jp/developer/xml/data/20260217223836_0_VPWW53_430000.xml",
      "title": "気象特別警報・警報・注意報",
      "content": "【熊本県気象警報・注意報】天草・芦北地方では、１８日夜遅くまで強風に注意してください。球磨地方では、１８日昼前まで濃霧による視程障害に注意してください。",
      "observedAt": "2026-02-17T22:38:36.000Z",
      "placeCountry": "日本",
      "placePref": "熊本県",
      "placeCity": null,
      "latitude": 32.6450475,
      "longitude": 130.6341345
    },
    {
      "originId": "https://www.data.jma.go.jp/developer/xml/data/20260217223834_0_VPWW53_450000.xml",
      "title": "気象特別警報・警報・注意報",
      "content": "【宮崎県気象警報・注意報】宮崎県では、２０日まで空気の乾燥した状態が続くため、火の取り扱いに注意してください。",
      "observedAt": "2026-02-17T22:38:34.000Z",
      "placeCountry": "日本",
      "placePref": "宮崎県",
      "placeCity": null,
      "latitude": 32.097681,
      "longitude": 131.294542
    },
    {
      "originId": "https://www.data.jma.go.jp/developer/xml/data/20260217223228_0_VPWW53_380000.xml",
      "title": "気象特別警報・警報・注意報",
      "content": "【愛媛県気象警報・注意報】南予では、１８日昼過ぎから１８日夜遅くまで強風や高波に注意してください。",
      "observedAt": "2026-02-17T22:32:28.000Z",
      "placeCountry": "日本",
      "placePref": "愛媛県",
      "placeCity": null,
      "latitude": 33.6013646,
      "longitude": 132.8185275
    },
    {
      "originId": "https://www.data.jma.go.jp/developer/xml/data/20260217223122_0_VPWW53_390000.xml",
      "title": "気象特別警報・警報・注意報",
      "content": "【高知県気象警報・注意報】西部では、１８日昼過ぎから１８日夜遅くまで強風に注意してください。中部、西部では、１９日まで空気の乾燥した状態が続くため、火の取り扱いに注意してください。",
      "observedAt": "2026-02-17T22:31:22.000Z",
      "placeCountry": "日本",
      "placePref": "高知県",
      "placeCity": null,
      "latitude": 33.6569018,
      "longitude": 133.5606241
    },
    {
      "originId": "https://www.data.jma.go.jp/developer/xml/data/20260217223032_0_VPWW53_160000.xml",
      "title": "気象特別警報・警報・注意報",
      "content": "【富山県気象警報・注意報】富山県では、１８日昼過ぎから１８日夜遅くまで強風や竜巻などの激しい突風、落雷に、１８日までなだれに注意してください。",
      "observedAt": "2026-02-17T22:30:32.000Z",
      "placeCountry": "日本",
      "placePref": "富山県",
      "placeCity": null,
      "latitude": 36.6468015,
      "longitude": 137.2183531
    },
    {
      "originId": "https://www.data.jma.go.jp/developer/xml/data/20260217222709_0_VPWW53_280000.xml",
      "title": "気象特別警報・警報・注意報",
      "content": "【兵庫県気象警報・注意報】北部では、強風に注意してください。兵庫県では、濃霧による視程障害やなだれに注意してください。南部では、空気の乾燥した状態が続くため、火の取り扱いに注意してください。",
      "observedAt": "2026-02-17T22:27:08.000Z",
      "placeCountry": "日本",
      "placePref": "兵庫県",
      "placeCity": null,
      "latitude": 34.914934,
      "longitude": 134.860666
    },
    {
      "originId": "https://www.data.jma.go.jp/developer/xml/data/20260217222514_0_VPWW53_410000.xml",
      "title": "気象特別警報・警報・注意報",
      "content": "【佐賀県気象警報・注意報】北部では１８日夜遅くまで、南部では１８日昼過ぎから１８日夜のはじめ頃まで、強風に注意してください。",
      "observedAt": "2026-02-17T22:25:14.000Z",
      "placeCountry": "日本",
      "placePref": "佐賀県",
      "placeCity": null,
      "latitude": 33.2185408,
      "longitude": 130.1296585
    },
    {
      "originId": "https://www.data.jma.go.jp/developer/xml/data/20260217222510_0_VPWW53_420000.xml",
      "title": "気象特別警報・警報・注意報",
      "content": "【長崎県気象警報・注意報】長崎県では、強風に注意してください。南部、北部では、空気の乾燥した状態が続くため、火の取り扱いに注意してください。",
      "observedAt": "2026-02-17T22:25:09.000Z",
      "placeCountry": "日本",
      "placePref": "長崎県",
      "placeCity": null,
      "latitude": 33.1154683,
      "longitude": 129.7874339
    },
    {
      "originId": "https://www.data.jma.go.jp/developer/xml/data/20260217221411_0_VPWW53_200000.xml",
      "title": "気象特別警報・警報・注意報",
      "content": "【長野県気象警報・注意報】長野県では、１８日昼前まで濃霧による視程障害に注意してください。",
      "observedAt": "2026-02-17T22:14:10.000Z",
      "placeCountry": "日本",
      "placePref": "長野県",
      "placeCity": null,
      "latitude": 36.1143945,
      "longitude": 138.0319015
    },
    {
      "originId": "https://www.data.jma.go.jp/developer/xml/data/20260217221354_0_VPWW53_240000.xml",
      "title": "気象特別警報・警報・注意報",
      "content": "【三重県気象警報・注意報】三重県では、１９日まで空気の乾燥した状態が続くため、火の取り扱いに注意してください。",
      "observedAt": "2026-02-17T22:13:53.000Z",
      "placeCountry": "日本",
      "placePref": "三重県",
      "placeCity": null,
      "latitude": 34.7339685,
      "longitude": 136.5154489
    },
    {
      "originId": "https://www.data.jma.go.jp/developer/xml/data/20260217221141_0_VPWW53_130000.xml",
      "title": "気象特別警報・警報・注意報",
      "content": "【東京都気象警報・注意報】伊豆諸島北部、伊豆諸島南部では、１８日昼過ぎから１９日明け方まで強風に注意してください。伊豆諸島北部では、１８日昼過ぎから高波に注意してください。",
      "observedAt": "2026-02-17T22:11:40.000Z",
      "placeCountry": "日本",
      "placePref": "東京都",
      "placeCity": null,
      "latitude": 35.6828387,
      "longitude": 139.7594549
    },
    {
      "originId": "https://www.data.jma.go.jp/developer/xml/data/20260217220718_0_VPWW53_170000.xml",
      "title": "気象特別警報・警報・注意報",
      "content": "【石川県気象警報・注意報】能登では１８日昼前から１８日夜遅くまで、加賀では１８日昼過ぎから１８日夜遅くまで、強風や竜巻などの激しい突風、落雷に注意してください。加賀では、１９日までなだれに注意してください。",
      "observedAt": "2026-02-17T22:07:18.000Z",
      "placeCountry": "日本",
      "placePref": "石川県",
      "placeCity": null,
      "latitude": 36.9888678,
      "longitude": 136.8163563
    },
    {
      "originId": "https://www.data.jma.go.jp/developer/xml/data/20260217215241_0_VPWW53_060000.xml",
      "title": "気象特別警報・警報・注意報",
      "content": "【山形県気象警報・注意報】庄内では、１８日昼過ぎから強風に注意してください。村山、置賜、最上では、１８日昼前まで濃霧による視程障害に注意してください。",
      "observedAt": "2026-02-17T21:52:40.000Z",
      "placeCountry": "日本",
      "placePref": "山形県",
      "placeCity": null,
      "latitude": 38.4746705,
      "longitude": 140.083237
    },
    {
      "originId": "https://www.data.jma.go.jp/developer/xml/data/20260217214338_0_VPWW53_190000.xml",
      "title": "気象特別警報・警報・注意報",
      "content": "【山梨県気象警報・注意報】東部・富士五湖では、１８日昼前まで濃霧による視程障害に注意してください。",
      "observedAt": "2026-02-17T21:43:37.000Z",
      "placeCountry": "日本",
      "placePref": "山梨県",
      "placeCity": null,
      "latitude": 35.6399328,
      "longitude": 138.6380495
    },
    {
      "originId": "https://www.data.jma.go.jp/developer/xml/data/20260217212015_0_VPWW53_050000.xml",
      "title": "気象特別警報・警報・注意報",
      "content": "【秋田県気象警報・注意報】沿岸では、１８日昼前から強風に注意してください。秋田県では、１８日昼過ぎから１９日明け方まで竜巻などの激しい突風や落雷に注意してください。",
      "observedAt": "2026-02-17T21:20:14.000Z",
      "placeCountry": "日本",
      "placePref": "秋田県",
      "placeCity": null,
      "latitude": 39.6898802,
      "longitude": 140.342608
    },
    {
      "originId": "https://www.data.jma.go.jp/developer/xml/data/20260217211626_0_VPWW53_020000.xml",
      "title": "気象特別警報・警報・注意報",
      "content": "【青森県気象警報・注意報】青森県では、１８日昼過ぎから１９日明け方まで竜巻などの激しい突風や落雷に注意してください。",
      "observedAt": "2026-02-17T21:16:25.000Z",
      "placeCountry": "日本",
      "placePref": "青森県",
      "placeCity": null,
      "latitude": 40.886943,
      "longitude": 140.590121
    },
    {
      "originId": "https://www.data.jma.go.jp/developer/xml/data/20260217211519_0_VPWW53_460100.xml",
      "title": "気象特別警報・警報・注意報",
      "content": "【鹿児島県（奄美地方を除く）気象警報・注意報】種子島・屋久島地方では、１８日昼過ぎから１８日夜のはじめ頃まで強風に、１８日昼過ぎから１８日夜遅くまで高波に注意してください。",
      "observedAt": "2026-02-17T21:15:18.000Z",
      "placeCountry": "日本",
      "placePref": "鹿児島県",
      "placeCity": null,
      "latitude": 31.521587,
      "longitude": 130.5474077
    },
    {
      "originId": "https://www.data.jma.go.jp/developer/xml/data/20260217211336_0_VPWW53_150000.xml",
      "title": "気象特別警報・警報・注意報",
      "content": "【新潟県気象警報・注意報】新潟県では、強風や竜巻などの激しい突風、落雷に注意してください。下越、中越、上越では、なだれに注意してください。",
      "observedAt": "2026-02-17T21:13:35.000Z",
      "placeCountry": "日本",
      "placePref": "新潟県",
      "placeCity": null,
      "latitude": 37.6452283,
      "longitude": 138.7669125
    },
    {
      "originId": "https://www.data.jma.go.jp/developer/xml/data/20260217194323_0_VPWW53_260000.xml",
      "title": "気象特別警報・警報・注意報",
      "content": "【京都府気象警報・注意報】北部では、１８日昼前から１８日夜遅くまで強風に、１９日までなだれに注意してください。京都府では、１８日昼前まで濃霧による視程障害に注意してください。",
      "observedAt": "2026-02-17T19:43:23.000Z",
      "placeCountry": "日本",
      "placePref": "京都府",
      "placeCity": null,
      "latitude": 35.242552,
      "longitude": 135.454601
    },
    {
      "originId": "https://www.data.jma.go.jp/developer/xml/data/20260217193123_0_VPWW53_150000.xml",
      "title": "気象特別警報・警報・注意報",
      "content": "【新潟県気象警報・注意報】佐渡では、１８日昼前から強風に注意してください。下越、中越、上越では、１８日までなだれに注意してください。",
      "observedAt": "2026-02-17T19:31:22.000Z",
      "placeCountry": "日本",
      "placePref": "新潟県",
      "placeCity": null,
      "latitude": 37.6452283,
      "longitude": 138.7669125
    },
    {
      "originId": "https://www.data.jma.go.jp/developer/xml/data/20260217192032_0_VPWW53_210000.xml",
      "title": "気象特別警報・警報・注意報",
      "content": "【岐阜県気象警報・注意報】岐阜県では、１８日昼過ぎから１８日夜のはじめ頃まで急な強い雨や落雷に注意してください。美濃地方では、１９日まで空気の乾燥した状態が続くため、火の取り扱いに注意してください。",
      "observedAt": "2026-02-17T19:20:31.000Z",
      "placeCountry": "日本",
      "placePref": "岐阜県",
      "placeCity": null,
      "latitude": 35.7867449,
      "longitude": 137.0460777
    },
    {
      "originId": "https://www.data.jma.go.jp/developer/xml/data/20260217191953_0_VPWW53_360000.xml",
      "title": "気象特別警報・警報・注意報",
      "content": "【徳島県気象警報・注意報】徳島県では、１９日まで空気の乾燥した状態が続くため、火の取り扱いに注意してください。",
      "observedAt": "2026-02-17T19:19:52.000Z",
      "placeCountry": "日本",
      "placePref": "徳島県",
      "placeCity": null,
      "latitude": 33.9196418,
      "longitude": 134.2509634
    },
    {
      "originId": "https://www.data.jma.go.jp/developer/xml/data/20260217191925_0_VPWW53_390000.xml",
      "title": "気象特別警報・警報・注意報",
      "content": "【高知県気象警報・注意報】中部、西部では、１９日まで空気の乾燥した状態が続くため、火の取り扱いに注意してください。",
      "observedAt": "2026-02-17T19:19:24.000Z",
      "placeCountry": "日本",
      "placePref": "高知県",
      "placeCity": null,
      "latitude": 33.6569018,
      "longitude": 133.5606241
    },
    {
      "originId": "https://www.data.jma.go.jp/developer/xml/data/20260217191911_0_VPWW53_290000.xml",
      "title": "気象特別警報・警報・注意報",
      "content": "【奈良県気象警報・注意報】奈良県では、２０日まで空気の乾燥した状態が続くため、火の取り扱いに注意してください。",
      "observedAt": "2026-02-17T19:19:11.000Z",
      "placeCountry": "日本",
      "placePref": "奈良県",
      "placeCity": null,
      "latitude": 34.2963089,
      "longitude": 135.8816819
    },
    {
      "originId": "https://www.data.jma.go.jp/developer/xml/data/20260217191741_0_VPWW53_300000.xml",
      "title": "気象特別警報・警報・注意報",
      "content": "【和歌山県気象警報・注意報】和歌山県では、１９日まで空気の乾燥した状態が続くため、火の取り扱いに注意してください。",
      "observedAt": "2026-02-17T19:17:41.000Z",
      "placeCountry": "日本",
      "placePref": "和歌山県",
      "placeCity": null,
      "latitude": 33.8070292,
      "longitude": 135.5930743
    },
    {
      "originId": "https://www.data.jma.go.jp/developer/xml/data/20260217191634_0_VPWW53_050000.xml",
      "title": "気象特別警報・警報・注意報",
      "content": "【秋田県気象警報・注意報】沿岸では、１８日昼前から強風に注意してください。",
      "observedAt": "2026-02-17T19:16:34.000Z",
      "placeCountry": "日本",
      "placePref": "秋田県",
      "placeCity": null,
      "latitude": 39.6898802,
      "longitude": 140.342608
    },
    {
      "originId": "https://www.data.jma.go.jp/developer/xml/data/20260217191431_0_VPWW53_370000.xml",
      "title": "気象特別警報・警報・注意報",
      "content": "【香川県気象警報・注意報】香川県では、１８日昼前から１８日夜のはじめ頃まで強風や高波に、１９日まで空気の乾燥した状態が続くため、火の取り扱いに注意してください。",
      "observedAt": "2026-02-17T19:14:31.000Z",
      "placeCountry": "日本",
      "placePref": "香川県",
      "placeCity": null,
      "latitude": 34.2480104,
      "longitude": 134.0586579
    },
    {
      "originId": "https://www.data.jma.go.jp/developer/xml/data/20260217191033_0_VPWW53_310000.xml",
      "title": "気象特別警報・警報・注意報",
      "content": "【鳥取県気象警報・注意報】鳥取県では、１８日昼前から１８日夜遅くまで強風に、１９日までなだれに注意してください。",
      "observedAt": "2026-02-17T19:10:33.000Z",
      "placeCountry": "日本",
      "placePref": "鳥取県",
      "placeCity": null,
      "latitude": 35.3555075,
      "longitude": 133.8678525
    },
    {
      "originId": "https://www.data.jma.go.jp/developer/xml/data/20260217191032_0_VPWW53_320000.xml",
      "title": "気象特別警報・警報・注意報",
      "content": "【島根県気象警報・注意報】東部、隠岐では、１８日昼前から１８日夜のはじめ頃まで強風に注意してください。隠岐では、１８日昼過ぎから高波に注意してください。東部では、１９日までなだれに注意してください。",
      "observedAt": "2026-02-17T19:10:32.000Z",
      "placeCountry": "日本",
      "placePref": "島根県",
      "placeCity": null,
      "latitude": 34.9418212,
      "longitude": 132.537439
    },
    {
      "originId": "https://www.data.jma.go.jp/developer/xml/data/20260217190950_0_VPWW53_230000.xml",
      "title": "気象特別警報・警報・注意報",
      "content": "【愛知県気象警報・注意報】愛知県では、２０日まで空気の乾燥した状態が続くため、火の取り扱いに注意してください。",
      "observedAt": "2026-02-17T19:09:50.000Z",
      "placeCountry": "日本",
      "placePref": "愛知県",
      "placeCity": null,
      "latitude": 34.9991645,
      "longitude": 137.254574
    },
    {
      "originId": "https://www.data.jma.go.jp/developer/xml/data/20260217190946_0_VPWW53_220000.xml",
      "title": "気象特別警報・警報・注意報",
      "content": "【静岡県気象警報・注意報】中部、西部では１８日昼過ぎから、伊豆では１８日昼過ぎから１９日明け方まで、強風に注意してください。西部では、２０日まで空気の乾燥した状態が続くため、火の取り扱いに注意してください。",
      "observedAt": "2026-02-17T19:09:46.000Z",
      "placeCountry": "日本",
      "placePref": "静岡県",
      "placeCity": null,
      "latitude": 34.9332488,
      "longitude": 138.0955398
    },
    {
      "originId": "https://www.data.jma.go.jp/developer/xml/data/20260217190924_0_VPWW53_330000.xml",
      "title": "気象特別警報・警報・注意報",
      "content": "【岡山県気象警報・注意報】南部では、１８日昼前から１８日夜のはじめ頃まで強風や高波に注意してください。北部では、１８日までなだれに注意してください。",
      "observedAt": "2026-02-17T19:09:24.000Z",
      "placeCountry": "日本",
      "placePref": "岡山県",
      "placeCity": null,
      "latitude": 34.8581334,
      "longitude": 133.7759256
    },
    {
      "originId": "https://www.data.jma.go.jp/developer/xml/data/20260217190905_0_VPWW53_340000.xml",
      "title": "気象特別警報・警報・注意報",
      "content": "【広島県気象警報・注意報】南部では、１９日まで空気の乾燥した状態が続くため、火の取り扱いに注意してください。北部では、２０日までなだれに注意してください。",
      "observedAt": "2026-02-17T19:09:04.000Z",
      "placeCountry": "日本",
      "placePref": "広島県",
      "placeCity": null,
      "latitude": 34.5666725,
      "longitude": 132.753565
    },
    {
      "originId": "https://www.data.jma.go.jp/developer/xml/data/20260217190828_0_VPWW53_270000.xml",
      "title": "気象特別警報・警報・注意報",
      "content": "【大阪府気象警報・注意報】大阪府では、１９日まで空気の乾燥した状態が続くため、火の取り扱いに注意してください。",
      "observedAt": "2026-02-17T19:08:28.000Z",
      "placeCountry": "日本",
      "placePref": "大阪府",
      "placeCity": null,
      "latitude": 34.6198813,
      "longitude": 135.490357
    },
    {
      "originId": "https://www.data.jma.go.jp/developer/xml/data/20260217190815_0_VPWW53_460040.xml",
      "title": "気象特別警報・警報・注意報",
      "content": "【奄美地方（鹿児島県）気象警報・注意報】奄美地方では、１８日夜遅くまで高波に注意してください。",
      "observedAt": "2026-02-17T19:08:15.000Z",
      "placeCountry": "日本",
      "placePref": "鹿児島県",
      "placeCity": null,
      "latitude": 31.521587,
      "longitude": 130.5474077
    },
    {
      "originId": "https://www.data.jma.go.jp/developer/xml/data/20260217190813_0_VPWW53_280000.xml",
      "title": "気象特別警報・警報・注意報",
      "content": "【兵庫県気象警報・注意報】北部では、強風や低温に注意してください。兵庫県では、濃霧による視程障害やなだれに注意してください。南部では、空気の乾燥した状態が続くため、火の取り扱いに注意してください。",
      "observedAt": "2026-02-17T19:08:12.000Z",
      "placeCountry": "日本",
      "placePref": "兵庫県",
      "placeCity": null,
      "latitude": 34.914934,
      "longitude": 134.860666
    },
    {
      "originId": "https://www.data.jma.go.jp/developer/xml/data/20260217190349_0_VPWW53_130000.xml",
      "title": "気象特別警報・警報・注意報",
      "content": "【東京都気象警報・注意報】伊豆諸島南部では、１８日朝まで急な強い雨や落雷に注意してください。",
      "observedAt": "2026-02-17T19:03:48.000Z",
      "placeCountry": "日本",
      "placePref": "東京都",
      "placeCity": null,
      "latitude": 35.6828387,
      "longitude": 139.7594549
    },
    {
      "originId": "https://www.data.jma.go.jp/developer/xml/data/20260217190315_0_VPWW53_440000.xml",
      "title": "気象特別警報・警報・注意報",
      "content": "【大分県気象警報・注意報】中部、北部、南部では、１８日昼前から１８日夜のはじめ頃まで強風や高波に注意してください。大分県では、１９日まで空気の乾燥した状態が続くため、火の取り扱いに注意してください。",
      "observedAt": "2026-02-17T19:03:14.000Z",
      "placeCountry": "日本",
      "placePref": "大分県",
      "placeCity": null,
      "latitude": 33.1819875,
      "longitude": 131.4270217
    },
    {
      "originId": "https://www.data.jma.go.jp/developer/xml/data/20260217190304_0_VPWW53_110000.xml",
      "title": "気象特別警報・警報・注意報",
      "content": "【埼玉県気象警報・注意報】南部、北部では、２０日まで空気の乾燥した状態が続くため、火の取り扱いに注意してください。",
      "observedAt": "2026-02-17T19:03:03.000Z",
      "placeCountry": "日本",
      "placePref": "埼玉県",
      "placeCity": null,
      "latitude": 35.9754168,
      "longitude": 139.4160114
    },
    {
      "originId": "https://www.data.jma.go.jp/developer/xml/data/20260217190234_0_VPWW53_100000.xml",
      "title": "気象特別警報・警報・注意報",
      "content": "【群馬県気象警報・注意報】群馬県では、ここしばらく空気の乾燥した状態が続くため、火の取り扱いに注意してください。",
      "observedAt": "2026-02-17T19:02:33.000Z",
      "placeCountry": "日本",
      "placePref": "群馬県",
      "placeCity": null,
      "latitude": 36.52198,
      "longitude": 139.033483
    },
    {
      "originId": "https://www.data.jma.go.jp/developer/xml/data/20260217184913_0_VPWW53_400000.xml",
      "title": "気象特別警報・警報・注意報",
      "content": "【福岡県気象警報・注意報】福岡、北九州地方では、１８日朝から１８日夜遅くまで強風に注意してください。",
      "observedAt": "2026-02-17T18:49:12.000Z",
      "placeCountry": "日本",
      "placePref": "福岡県",
      "placeCity": null,
      "latitude": 33.6251241,
      "longitude": 130.6180016
    },
    {
      "originId": "https://www.data.jma.go.jp/developer/xml/data/20260217184904_0_VPWW53_350000.xml",
      "title": "気象特別警報・警報・注意報",
      "content": "【山口県気象警報・注意報】山口県では、強風と、空気の乾燥した状態が続くため火の取り扱いに注意してください。中部、東部では、高波に注意してください。",
      "observedAt": "2026-02-17T18:49:03.000Z",
      "placeCountry": "日本",
      "placePref": "山口県",
      "placeCity": null,
      "latitude": 34.2379614,
      "longitude": 131.5873845
    },
    {
      "originId": "https://www.data.jma.go.jp/developer/xml/data/20260217184731_0_VPWW53_040000.xml",
      "title": "気象特別警報・警報・注意報",
      "content": "【宮城県気象警報・注意報】西部では１８日まで、東部ではここしばらく、空気の乾燥した状態が続くため、火の取り扱いに注意してください。",
      "observedAt": "2026-02-17T18:47:30.000Z",
      "placeCountry": "日本",
      "placePref": "宮城県",
      "placeCity": null,
      "latitude": 38.3880155,
      "longitude": 140.9761025
    },
    {
      "originId": "https://www.data.jma.go.jp/developer/xml/data/20260217160217_0_VPWW53_060000.xml",
      "title": "気象特別警報・警報・注意報",
      "content": "【山形県気象警報・注意報】村山、置賜、最上では、１８日昼前まで濃霧による視程障害に、１８日まで低温に注意してください。",
      "observedAt": "2026-02-17T16:02:17.000Z",
      "placeCountry": "日本",
      "placePref": "山形県",
      "placeCity": null,
      "latitude": 38.4746705,
      "longitude": 140.083237
    }
  ]
}