{
  "generatedAt": "2025-12-10T16:11:05.143Z",
  "timeZone": "Asia/Tokyo",
  "hourPath": "2025/12/11/01",
  "source": "http://www.data.jma.go.jp/developer/xml/feed/extra.xml",
  "totalItems": 27,
  "items": [
    {
      "originId": "https://www.data.jma.go.jp/developer/xml/data/20251210131627_0_VPWW53_420000.xml",
      "title": "気象特別警報・警報・注意報",
      "content": "【長崎県気象警報・注意報】注意報を解除します。",
      "observedAt": "2025-12-10T13:16:26.000Z",
      "placeCountry": "日本",
      "placePref": "長崎県",
      "placeCity": null,
      "latitude": 33.1154683,
      "longitude": 129.7874339
    },
    {
      "originId": "https://www.data.jma.go.jp/developer/xml/data/20251210125204_0_VPWW53_460040.xml",
      "title": "気象特別警報・警報・注意報",
      "content": "【奄美地方（鹿児島県）気象警報・注意報】注意報を解除します。",
      "observedAt": "2025-12-10T12:52:03.000Z",
      "placeCountry": "日本",
      "placePref": "鹿児島県",
      "placeCity": null,
      "latitude": 31.521587,
      "longitude": 130.5474077
    },
    {
      "originId": "https://www.data.jma.go.jp/developer/xml/data/20251210125105_0_VPWW53_460100.xml",
      "title": "気象特別警報・警報・注意報",
      "content": "【鹿児島県（奄美地方を除く）気象警報・注意報】注意報を解除します。",
      "observedAt": "2025-12-10T12:51:04.000Z",
      "placeCountry": "日本",
      "placePref": "鹿児島県",
      "placeCity": null,
      "latitude": 31.521587,
      "longitude": 130.5474077
    },
    {
      "originId": "https://www.data.jma.go.jp/developer/xml/data/20251210122612_0_VPWW53_050000.xml",
      "title": "気象特別警報・警報・注意報",
      "content": "【秋田県気象警報・注意報】秋田県では、１１日明け方から１１日夜遅くまで竜巻などの激しい突風や急な強い雨、落雷に、１１日昼前まで濃霧による視程障害に注意してください。",
      "observedAt": "2025-12-10T12:26:11.000Z",
      "placeCountry": "日本",
      "placePref": "秋田県",
      "placeCity": null,
      "latitude": 39.6898802,
      "longitude": 140.342608
    },
    {
      "originId": "https://www.data.jma.go.jp/developer/xml/data/20251210113818_0_VPWW53_150000.xml",
      "title": "気象特別警報・警報・注意報",
      "content": "【新潟県気象警報・注意報】佐渡では、１１日未明から落雷に注意してください。下越、中越では、１１日未明から１１日昼前まで濃霧による視程障害に注意してください。",
      "observedAt": "2025-12-10T11:38:17.000Z",
      "placeCountry": "日本",
      "placePref": "新潟県",
      "placeCity": null,
      "latitude": 37.6452283,
      "longitude": 138.7669125
    },
    {
      "originId": "https://www.data.jma.go.jp/developer/xml/data/20251210112614_0_VPWW53_060000.xml",
      "title": "気象特別警報・警報・注意報",
      "content": "【山形県気象警報・注意報】庄内では、１１日明け方から竜巻などの激しい突風や急な強い雨、落雷に注意してください。村山、置賜、最上では、１１日昼前まで濃霧による視程障害に注意してください。",
      "observedAt": "2025-12-10T11:26:13.000Z",
      "placeCountry": "日本",
      "placePref": "山形県",
      "placeCity": null,
      "latitude": 38.4746705,
      "longitude": 140.083237
    },
    {
      "originId": "https://www.data.jma.go.jp/developer/xml/data/20251210112408_0_VPWW53_430000.xml",
      "title": "気象特別警報・警報・注意報",
      "content": "【熊本県気象警報・注意報】注意報を解除します。",
      "observedAt": "2025-12-10T11:24:08.000Z",
      "placeCountry": "日本",
      "placePref": "熊本県",
      "placeCity": null,
      "latitude": 32.6450475,
      "longitude": 130.6341345
    },
    {
      "originId": "https://www.data.jma.go.jp/developer/xml/data/20251210104537_0_VPWW53_300000.xml",
      "title": "気象特別警報・警報・注意報",
      "content": "【和歌山県気象警報・注意報】注意報を解除します。",
      "observedAt": "2025-12-10T10:45:37.000Z",
      "placeCountry": "日本",
      "placePref": "和歌山県",
      "placeCity": null,
      "latitude": 33.8070292,
      "longitude": 135.5930743
    },
    {
      "originId": "https://www.data.jma.go.jp/developer/xml/data/20251210104512_0_VPWW53_360000.xml",
      "title": "気象特別警報・警報・注意報",
      "content": "【徳島県気象警報・注意報】注意報を解除します。",
      "observedAt": "2025-12-10T10:45:12.000Z",
      "placeCountry": "日本",
      "placePref": "徳島県",
      "placeCity": null,
      "latitude": 33.9196418,
      "longitude": 134.2509634
    },
    {
      "originId": "https://www.data.jma.go.jp/developer/xml/data/20251210104511_0_VPWW53_380000.xml",
      "title": "気象特別警報・警報・注意報",
      "content": "【愛媛県気象警報・注意報】注意報を解除します。",
      "observedAt": "2025-12-10T10:45:11.000Z",
      "placeCountry": "日本",
      "placePref": "愛媛県",
      "placeCity": null,
      "latitude": 33.6013646,
      "longitude": 132.8185275
    },
    {
      "originId": "https://www.data.jma.go.jp/developer/xml/data/20251210104509_0_VPWW53_390000.xml",
      "title": "気象特別警報・警報・注意報",
      "content": "【高知県気象警報・注意報】注意報を解除します。",
      "observedAt": "2025-12-10T10:45:08.000Z",
      "placeCountry": "日本",
      "placePref": "高知県",
      "placeCity": null,
      "latitude": 33.6569018,
      "longitude": 133.5606241
    },
    {
      "originId": "https://www.data.jma.go.jp/developer/xml/data/20251210104507_0_VPWW53_370000.xml",
      "title": "気象特別警報・警報・注意報",
      "content": "【香川県気象警報・注意報】注意報を解除します。",
      "observedAt": "2025-12-10T10:45:06.000Z",
      "placeCountry": "日本",
      "placePref": "香川県",
      "placeCity": null,
      "latitude": 34.2480104,
      "longitude": 134.0586579
    },
    {
      "originId": "https://www.data.jma.go.jp/developer/xml/data/20251210100942_0_VPWW53_070000.xml",
      "title": "気象特別警報・警報・注意報",
      "content": "【福島県気象警報・注意報】会津では、１１日昼前まで濃霧による視程障害に注意してください。",
      "observedAt": "2025-12-10T10:09:41.000Z",
      "placeCountry": "日本",
      "placePref": "福島県",
      "placeCity": null,
      "latitude": 37.3662591,
      "longitude": 140.2511854
    },
    {
      "originId": "https://www.data.jma.go.jp/developer/xml/data/20251210093625_0_VPWW53_340000.xml",
      "title": "気象特別警報・警報・注意報",
      "content": "【広島県気象警報・注意報】注意報を解除します。",
      "observedAt": "2025-12-10T09:36:24.000Z",
      "placeCountry": "日本",
      "placePref": "広島県",
      "placeCity": null,
      "latitude": 34.5666725,
      "longitude": 132.753565
    },
    {
      "originId": "https://www.data.jma.go.jp/developer/xml/data/20251210092708_0_VPWW53_060000.xml",
      "title": "気象特別警報・警報・注意報",
      "content": "【山形県気象警報・注意報】庄内では、１１日明け方から竜巻などの激しい突風や急な強い雨、落雷に注意してください。",
      "observedAt": "2025-12-10T09:27:08.000Z",
      "placeCountry": "日本",
      "placePref": "山形県",
      "placeCity": null,
      "latitude": 38.4746705,
      "longitude": 140.083237
    },
    {
      "originId": "https://www.data.jma.go.jp/developer/xml/data/20251210092707_0_VPWW53_050000.xml",
      "title": "気象特別警報・警報・注意報",
      "content": "【秋田県気象警報・注意報】秋田県では、１１日明け方から竜巻などの激しい突風や急な強い雨、落雷に注意してください。",
      "observedAt": "2025-12-10T09:27:07.000Z",
      "placeCountry": "日本",
      "placePref": "秋田県",
      "placeCity": null,
      "latitude": 39.6898802,
      "longitude": 140.342608
    },
    {
      "originId": "https://www.data.jma.go.jp/developer/xml/data/20251210091343_0_VPWW53_120000.xml",
      "title": "気象特別警報・警報・注意報",
      "content": "【千葉県気象警報・注意報】注意報を解除します。",
      "observedAt": "2025-12-10T09:13:42.000Z",
      "placeCountry": "日本",
      "placePref": "千葉県",
      "placeCity": null,
      "latitude": 35.549399,
      "longitude": 140.2647303
    },
    {
      "originId": "https://www.data.jma.go.jp/developer/xml/data/20251210072051_0_VPWW53_200000.xml",
      "title": "気象特別警報・警報・注意報",
      "content": "【長野県気象警報・注意報】長野県では、１１日未明から１１日昼前まで濃霧による視程障害に注意してください。",
      "observedAt": "2025-12-10T07:20:50.000Z",
      "placeCountry": "日本",
      "placePref": "長野県",
      "placeCity": null,
      "latitude": 36.1143945,
      "longitude": 138.0319015
    },
    {
      "originId": "https://www.data.jma.go.jp/developer/xml/data/20251210071334_0_VPWW53_160000.xml",
      "title": "気象特別警報・警報・注意報",
      "content": "【富山県気象警報・注意報】注意報を解除します。",
      "observedAt": "2025-12-10T07:13:34.000Z",
      "placeCountry": "日本",
      "placePref": "富山県",
      "placeCity": null,
      "latitude": 36.6468015,
      "longitude": 137.2183531
    },
    {
      "originId": "https://www.data.jma.go.jp/developer/xml/data/20251210071232_0_VPWW53_150000.xml",
      "title": "気象特別警報・警報・注意報",
      "content": "【新潟県気象警報・注意報】中越、上越では、土砂災害に注意してください。佐渡では、落雷に注意してください。下越、中越では、濃霧による視程障害に注意してください。",
      "observedAt": "2025-12-10T07:12:31.000Z",
      "placeCountry": "日本",
      "placePref": "新潟県",
      "placeCity": null,
      "latitude": 37.6452283,
      "longitude": 138.7669125
    },
    {
      "originId": "https://www.data.jma.go.jp/developer/xml/data/20251210070624_0_VPWW53_350000.xml",
      "title": "気象特別警報・警報・注意報",
      "content": "【山口県気象警報・注意報】注意報を解除します。",
      "observedAt": "2025-12-10T07:06:23.000Z",
      "placeCountry": "日本",
      "placePref": "山口県",
      "placeCity": null,
      "latitude": 34.2379614,
      "longitude": 131.5873845
    },
    {
      "originId": "https://www.data.jma.go.jp/developer/xml/data/20251210065513_0_VPWW53_440000.xml",
      "title": "気象特別警報・警報・注意報",
      "content": "【大分県気象警報・注意報】大分県では、１１日まで空気の乾燥した状態が続くため、火の取り扱いに注意してください。",
      "observedAt": "2025-12-10T06:55:13.000Z",
      "placeCountry": "日本",
      "placePref": "大分県",
      "placeCity": null,
      "latitude": 33.1819875,
      "longitude": 131.4270217
    },
    {
      "originId": "https://www.data.jma.go.jp/developer/xml/data/20251210063547_0_VPWW53_270000.xml",
      "title": "気象特別警報・警報・注意報",
      "content": "【大阪府気象警報・注意報】大阪府では、１１日まで空気の乾燥した状態が続くため、火の取り扱いに注意してください。",
      "observedAt": "2025-12-10T06:35:46.000Z",
      "placeCountry": "日本",
      "placePref": "大阪府",
      "placeCity": null,
      "latitude": 34.6198813,
      "longitude": 135.490357
    },
    {
      "originId": "https://www.data.jma.go.jp/developer/xml/data/20251210061013_0_VPWW53_110000.xml",
      "title": "気象特別警報・警報・注意報",
      "content": "【埼玉県気象警報・注意報】南部、北部では、１２日まで空気の乾燥した状態が続くため、火の取り扱いに注意してください。",
      "observedAt": "2025-12-10T06:10:12.000Z",
      "placeCountry": "日本",
      "placePref": "埼玉県",
      "placeCity": null,
      "latitude": 35.9754168,
      "longitude": 139.4160114
    },
    {
      "originId": "https://www.data.jma.go.jp/developer/xml/data/20251210055012_0_VPWW53_210000.xml",
      "title": "気象特別警報・警報・注意報",
      "content": "【岐阜県気象警報・注意報】美濃地方では、１１日朝は霜に対する農作物の管理に注意してください。",
      "observedAt": "2025-12-10T05:50:11.000Z",
      "placeCountry": "日本",
      "placePref": "岐阜県",
      "placeCity": null,
      "latitude": 35.7867449,
      "longitude": 137.0460777
    },
    {
      "originId": "https://www.data.jma.go.jp/developer/xml/data/20251210054442_0_VPWW53_050000.xml",
      "title": "気象特別警報・警報・注意報",
      "content": "【秋田県気象警報・注意報】注意報を解除します。",
      "observedAt": "2025-12-10T05:44:42.000Z",
      "placeCountry": "日本",
      "placePref": "秋田県",
      "placeCity": null,
      "latitude": 39.6898802,
      "longitude": 140.342608
    },
    {
      "originId": "https://www.data.jma.go.jp/developer/xml/data/20251210043812_0_VPWW53_170000.xml",
      "title": "気象特別警報・警報・注意報",
      "content": "【石川県気象警報・注意報】注意報を解除します。",
      "observedAt": "2025-12-10T04:38:11.000Z",
      "placeCountry": "日本",
      "placePref": "石川県",
      "placeCity": null,
      "latitude": 36.9888678,
      "longitude": 136.8163563
    }
  ]
}