{
  "generatedAt": "2026-02-04T11:17:47.841Z",
  "timeZone": "Asia/Tokyo",
  "hourPath": "2026/02/04/20",
  "source": "http://www.data.jma.go.jp/developer/xml/feed/extra.xml",
  "totalItems": 18,
  "items": [
    {
      "originId": "https://www.data.jma.go.jp/developer/xml/data/20260204110906_0_VPWW53_290000.xml",
      "title": "気象特別警報・警報・注意報",
      "content": "【奈良県気象警報・注意報】注意報を解除します。",
      "observedAt": "2026-02-04T11:09:05.000Z",
      "placeCountry": "日本",
      "placePref": "奈良県",
      "placeCity": null,
      "latitude": 34.2963089,
      "longitude": 135.8816819
    },
    {
      "originId": "https://www.data.jma.go.jp/developer/xml/data/20260204110346_0_VPWW53_130000.xml",
      "title": "気象特別警報・警報・注意報",
      "content": "【東京都気象警報・注意報】東京地方、伊豆諸島北部、伊豆諸島南部では、６日まで空気の乾燥した状態が続くため、火の取り扱いに注意してください。",
      "observedAt": "2026-02-04T11:03:45.000Z",
      "placeCountry": "日本",
      "placePref": "東京都",
      "placeCity": null,
      "latitude": 35.6828387,
      "longitude": 139.7594549
    },
    {
      "originId": "https://www.data.jma.go.jp/developer/xml/data/20260204110305_0_VPWW53_260000.xml",
      "title": "気象特別警報・警報・注意報",
      "content": "【京都府気象警報・注意報】京都府では、５日未明から５日昼前まで濃霧による視程障害に注意してください。北部では、５日までなだれに注意してください。",
      "observedAt": "2026-02-04T11:03:04.000Z",
      "placeCountry": "日本",
      "placePref": "京都府",
      "placeCity": null,
      "latitude": 35.242552,
      "longitude": 135.454601
    },
    {
      "originId": "https://www.data.jma.go.jp/developer/xml/data/20260204092416_0_VPWW53_220000.xml",
      "title": "気象特別警報・警報・注意報",
      "content": "【静岡県気象警報・注意報】伊豆では、５日明け方まで強風に注意してください。中部では、５日まで空気の乾燥した状態が続くため、火の取り扱いに注意してください。",
      "observedAt": "2026-02-04T09:24:15.000Z",
      "placeCountry": "日本",
      "placePref": "静岡県",
      "placeCity": null,
      "latitude": 34.9332488,
      "longitude": 138.0955398
    },
    {
      "originId": "https://www.data.jma.go.jp/developer/xml/data/20260204090925_0_VPWW53_240000.xml",
      "title": "気象特別警報・警報・注意報",
      "content": "【三重県気象警報・注意報】注意報を解除します。",
      "observedAt": "2026-02-04T09:09:24.000Z",
      "placeCountry": "日本",
      "placePref": "三重県",
      "placeCity": null,
      "latitude": 34.7339685,
      "longitude": 136.5154489
    },
    {
      "originId": "https://www.data.jma.go.jp/developer/xml/data/20260204085435_0_VPWW53_420000.xml",
      "title": "気象特別警報・警報・注意報",
      "content": "【長崎県気象警報・注意報】壱岐・対馬では、４日夜遅くまで強風に注意してください。長崎県では、４日まで空気の乾燥した状態が続くため、火の取り扱いに注意してください。",
      "observedAt": "2026-02-04T08:54:35.000Z",
      "placeCountry": "日本",
      "placePref": "長崎県",
      "placeCity": null,
      "latitude": 33.1154683,
      "longitude": 129.7874339
    },
    {
      "originId": "https://www.data.jma.go.jp/developer/xml/data/20260204082932_0_VPWW53_050000.xml",
      "title": "気象特別警報・警報・注意報",
      "content": "【秋田県気象警報・注意報】秋田県では、５日朝まで落雷に、５日昼前まで濃霧による視程障害に、６日までなだれに注意してください。",
      "observedAt": "2026-02-04T08:29:31.000Z",
      "placeCountry": "日本",
      "placePref": "秋田県",
      "placeCity": null,
      "latitude": 39.6898802,
      "longitude": 140.342608
    },
    {
      "originId": "https://www.data.jma.go.jp/developer/xml/data/20260204070342_0_VPWW53_060000.xml",
      "title": "気象特別警報・警報・注意報",
      "content": "【山形県気象警報・注意報】山形県では、５日朝まで落雷に、６日までなだれに注意してください。",
      "observedAt": "2026-02-04T07:03:41.000Z",
      "placeCountry": "日本",
      "placePref": "山形県",
      "placeCity": null,
      "latitude": 38.4746705,
      "longitude": 140.083237
    },
    {
      "originId": "https://www.data.jma.go.jp/developer/xml/data/20260204064950_0_VPWW53_150000.xml",
      "title": "気象特別警報・警報・注意報",
      "content": "【新潟県気象警報・注意報】下越、佐渡では、高波や落雷に注意してください。下越、中越、上越では、濃霧による視程障害やなだれに注意してください。",
      "observedAt": "2026-02-04T06:49:50.000Z",
      "placeCountry": "日本",
      "placePref": "新潟県",
      "placeCity": null,
      "latitude": 37.6452283,
      "longitude": 138.7669125
    },
    {
      "originId": "https://www.data.jma.go.jp/developer/xml/data/20260204064806_0_VPWW53_050000.xml",
      "title": "気象特別警報・警報・注意報",
      "content": "【秋田県気象警報・注意報】秋田県では、５日朝まで落雷に、６日までなだれに注意してください。",
      "observedAt": "2026-02-04T06:48:05.000Z",
      "placeCountry": "日本",
      "placePref": "秋田県",
      "placeCity": null,
      "latitude": 39.6898802,
      "longitude": 140.342608
    },
    {
      "originId": "https://www.data.jma.go.jp/developer/xml/data/20260204063147_0_VPWW53_300000.xml",
      "title": "気象特別警報・警報・注意報",
      "content": "【和歌山県気象警報・注意報】北部では５日まで、南部では６日まで、空気の乾燥した状態が続くため、火の取り扱いに注意してください。",
      "observedAt": "2026-02-04T06:31:46.000Z",
      "placeCountry": "日本",
      "placePref": "和歌山県",
      "placeCity": null,
      "latitude": 33.8070292,
      "longitude": 135.5930743
    },
    {
      "originId": "https://www.data.jma.go.jp/developer/xml/data/20260204062918_0_VPWW53_160000.xml",
      "title": "気象特別警報・警報・注意報",
      "content": "【富山県気象警報・注意報】富山県では、６日までなだれに注意してください。",
      "observedAt": "2026-02-04T06:29:18.000Z",
      "placeCountry": "日本",
      "placePref": "富山県",
      "placeCity": null,
      "latitude": 36.6468015,
      "longitude": 137.2183531
    },
    {
      "originId": "https://www.data.jma.go.jp/developer/xml/data/20260204053511_0_VPWW53_210000.xml",
      "title": "気象特別警報・警報・注意報",
      "content": "【岐阜県気象警報・注意報】岐阜県では、６日までなだれに注意してください。",
      "observedAt": "2026-02-04T05:35:10.000Z",
      "placeCountry": "日本",
      "placePref": "岐阜県",
      "placeCity": null,
      "latitude": 35.7867449,
      "longitude": 137.0460777
    },
    {
      "originId": "https://www.data.jma.go.jp/developer/xml/data/20260204040424_0_VPWW53_050000.xml",
      "title": "気象特別警報・警報・注意報",
      "content": "【秋田県気象警報・注意報】沿岸では、低い土地の浸水や河川の増水、強風に注意してください。秋田県では、落雷やなだれに注意してください。",
      "observedAt": "2026-02-04T04:04:24.000Z",
      "placeCountry": "日本",
      "placePref": "秋田県",
      "placeCity": null,
      "latitude": 39.6898802,
      "longitude": 140.342608
    },
    {
      "originId": "https://www.data.jma.go.jp/developer/xml/data/20260204035410_0_VPWW53_050000.xml",
      "title": "気象特別警報・警報・注意報",
      "content": "【秋田県気象警報・注意報】沿岸では、低い土地の浸水や河川の増水に注意してください。秋田県では、落雷やなだれに注意してください。",
      "observedAt": "2026-02-04T03:54:10.000Z",
      "placeCountry": "日本",
      "placePref": "秋田県",
      "placeCity": null,
      "latitude": 39.6898802,
      "longitude": 140.342608
    },
    {
      "originId": "https://www.data.jma.go.jp/developer/xml/data/20260204011917_0_VPWW53_060000.xml",
      "title": "気象特別警報・警報・注意報",
      "content": "【山形県気象警報・注意報】庄内では４日昼過ぎから、村山、置賜、最上では４日夕方から、落雷に注意してください。山形県では、６日までなだれに注意してください。",
      "observedAt": "2026-02-04T01:19:16.000Z",
      "placeCountry": "日本",
      "placePref": "山形県",
      "placeCity": null,
      "latitude": 38.4746705,
      "longitude": 140.083237
    },
    {
      "originId": "https://www.data.jma.go.jp/developer/xml/data/20260204011312_0_VPWW53_330000.xml",
      "title": "気象特別警報・警報・注意報",
      "content": "【岡山県気象警報・注意報】北部では、５日までなだれに注意してください。",
      "observedAt": "2026-02-04T01:13:11.000Z",
      "placeCountry": "日本",
      "placePref": "岡山県",
      "placeCity": null,
      "latitude": 34.8581334,
      "longitude": 133.7759256
    },
    {
      "originId": "https://www.data.jma.go.jp/developer/xml/data/20260204011225_0_VPWW53_340000.xml",
      "title": "気象特別警報・警報・注意報",
      "content": "【広島県気象警報・注意報】南部では、４日まで空気の乾燥した状態が続くため、火の取り扱いに注意してください。北部では、５日までなだれに注意してください。",
      "observedAt": "2026-02-04T01:12:24.000Z",
      "placeCountry": "日本",
      "placePref": "広島県",
      "placeCity": null,
      "latitude": 34.5666725,
      "longitude": 132.753565
    }
  ]
}