{
  "generatedAt": "2026-04-04T16:14:20.006Z",
  "timeZone": "Asia/Tokyo",
  "hourPath": "2026/04/05/01",
  "source": "http://www.data.jma.go.jp/developer/xml/feed/extra.xml",
  "totalItems": 93,
  "items": [
    {
      "originId": "https://www.data.jma.go.jp/developer/xml/data/20260404160911_0_VPWW53_020000.xml",
      "title": "気象特別警報・警報・注意報",
      "content": "【青森県気象警報・注意報】下北、三八上北では、５日昼前まで高波に注意してください。青森県では、５日昼前まで濃霧による視程障害に注意してください。津軽、三八上北では、ここしばらくなだれに注意してください。",
      "observedAt": "2026-04-04T16:09:10.000Z",
      "placeCountry": "日本",
      "placePref": "青森県",
      "placeCity": null,
      "latitude": 40.886943,
      "longitude": 140.590121
    },
    {
      "originId": "https://www.data.jma.go.jp/developer/xml/data/20260404150650_0_VPWW53_180000.xml",
      "title": "気象特別警報・警報・注意報",
      "content": "【福井県気象警報・注意報】福井県では、５日明け方まで強風に注意してください。",
      "observedAt": "2026-04-04T15:06:49.000Z",
      "placeCountry": "日本",
      "placePref": "福井県",
      "placeCity": null,
      "latitude": 35.9263502,
      "longitude": 136.6068127
    },
    {
      "originId": "https://www.data.jma.go.jp/developer/xml/data/20260404150421_0_VPWW53_170000.xml",
      "title": "気象特別警報・警報・注意報",
      "content": "【石川県気象警報・注意報】石川県では、５日明け方まで強風に注意してください。能登では、５日明け方まで高波に注意してください。",
      "observedAt": "2026-04-04T15:04:20.000Z",
      "placeCountry": "日本",
      "placePref": "石川県",
      "placeCity": null,
      "latitude": 36.9888678,
      "longitude": 136.8163563
    },
    {
      "originId": "https://www.data.jma.go.jp/developer/xml/data/20260404150227_0_VPWW53_320000.xml",
      "title": "気象特別警報・警報・注意報",
      "content": "【島根県気象警報・注意報】注意報を解除します。",
      "observedAt": "2026-04-04T15:02:27.000Z",
      "placeCountry": "日本",
      "placePref": "島根県",
      "placeCity": null,
      "latitude": 34.9418212,
      "longitude": 132.537439
    },
    {
      "originId": "https://www.data.jma.go.jp/developer/xml/data/20260404145245_0_VPWW53_390000.xml",
      "title": "気象特別警報・警報・注意報",
      "content": "【高知県気象警報・注意報】東部では、５日明け方まで強風に注意してください。中部、西部では５日明け方まで、東部では５日昼前まで、高波に注意してください。",
      "observedAt": "2026-04-04T14:52:44.000Z",
      "placeCountry": "日本",
      "placePref": "高知県",
      "placeCity": null,
      "latitude": 33.6569018,
      "longitude": 133.5606241
    },
    {
      "originId": "https://www.data.jma.go.jp/developer/xml/data/20260404145045_0_VPWW53_240000.xml",
      "title": "気象特別警報・警報・注意報",
      "content": "【三重県気象警報・注意報】南部では、５日明け方まで土砂災害や強風に、５日昼前まで高波に注意してください。",
      "observedAt": "2026-04-04T14:50:44.000Z",
      "placeCountry": "日本",
      "placePref": "三重県",
      "placeCity": null,
      "latitude": 34.7339685,
      "longitude": 136.5154489
    },
    {
      "originId": "https://www.data.jma.go.jp/developer/xml/data/20260404145025_0_VPWW53_360000.xml",
      "title": "気象特別警報・警報・注意報",
      "content": "【徳島県気象警報・注意報】南部では、５日昼前まで高波に注意してください。",
      "observedAt": "2026-04-04T14:50:25.000Z",
      "placeCountry": "日本",
      "placePref": "徳島県",
      "placeCity": null,
      "latitude": 33.9196418,
      "longitude": 134.2509634
    },
    {
      "originId": "https://www.data.jma.go.jp/developer/xml/data/20260404144148_0_VPWW53_230000.xml",
      "title": "気象特別警報・警報・注意報",
      "content": "【愛知県気象警報・注意報】東部では、５日明け方まで強風に注意してください。愛知県では、５日昼前まで高波に、５日未明まで急な強い雨や落雷に注意してください。",
      "observedAt": "2026-04-04T14:41:47.000Z",
      "placeCountry": "日本",
      "placePref": "愛知県",
      "placeCity": null,
      "latitude": 34.9991645,
      "longitude": 137.254574
    },
    {
      "originId": "https://www.data.jma.go.jp/developer/xml/data/20260404144141_0_VPWW53_140000.xml",
      "title": "気象特別警報・警報・注意報",
      "content": "【神奈川県気象警報・注意報】東部では、５日昼前まで高波に警戒してください。",
      "observedAt": "2026-04-04T14:41:40.000Z",
      "placeCountry": "日本",
      "placePref": "神奈川県",
      "placeCity": null,
      "latitude": 35.4342935,
      "longitude": 139.374753
    },
    {
      "originId": "https://www.data.jma.go.jp/developer/xml/data/20260404142024_0_VPWW53_160000.xml",
      "title": "気象特別警報・警報・注意報",
      "content": "【富山県気象警報・注意報】富山県では、強風や融雪による土砂災害に注意してください。東部では、なだれに注意してください。",
      "observedAt": "2026-04-04T14:20:23.000Z",
      "placeCountry": "日本",
      "placePref": "富山県",
      "placeCity": null,
      "latitude": 36.6468015,
      "longitude": 137.2183531
    },
    {
      "originId": "https://www.data.jma.go.jp/developer/xml/data/20260404141643_0_VPWW53_200000.xml",
      "title": "気象特別警報・警報・注意報",
      "content": "【長野県気象警報・注意報】長野県では、急な強い雨や落雷に注意してください。北部、中部では、融雪による土砂災害やなだれに注意してください。",
      "observedAt": "2026-04-04T14:16:42.000Z",
      "placeCountry": "日本",
      "placePref": "長野県",
      "placeCity": null,
      "latitude": 36.1143945,
      "longitude": 138.0319015
    },
    {
      "originId": "https://www.data.jma.go.jp/developer/xml/data/20260404134833_0_VPWW53_300000.xml",
      "title": "気象特別警報・警報・注意報",
      "content": "【和歌山県気象警報・注意報】南部では、５日明け方まで強風に注意してください。北部では５日明け方まで、南部では５日昼前まで、高波に注意してください。",
      "observedAt": "2026-04-04T13:48:33.000Z",
      "placeCountry": "日本",
      "placePref": "和歌山県",
      "placeCity": null,
      "latitude": 33.8070292,
      "longitude": 135.5930743
    },
    {
      "originId": "https://www.data.jma.go.jp/developer/xml/data/20260404133706_0_VPWW53_270000.xml",
      "title": "気象特別警報・警報・注意報",
      "content": "【大阪府気象警報・注意報】注意報を解除します。",
      "observedAt": "2026-04-04T13:37:05.000Z",
      "placeCountry": "日本",
      "placePref": "大阪府",
      "placeCity": null,
      "latitude": 34.6198813,
      "longitude": 135.490357
    },
    {
      "originId": "https://www.data.jma.go.jp/developer/xml/data/20260404133509_0_VPWW53_290000.xml",
      "title": "気象特別警報・警報・注意報",
      "content": "【奈良県気象警報・注意報】注意報を解除します。",
      "observedAt": "2026-04-04T13:35:09.000Z",
      "placeCountry": "日本",
      "placePref": "奈良県",
      "placeCity": null,
      "latitude": 34.2963089,
      "longitude": 135.8816819
    },
    {
      "originId": "https://www.data.jma.go.jp/developer/xml/data/20260404133318_0_VPWW53_030000.xml",
      "title": "気象特別警報・警報・注意報",
      "content": "【岩手県気象警報・注意報】岩手県の海上では、５日明け方まで暴風に警戒してください。",
      "observedAt": "2026-04-04T13:33:17.000Z",
      "placeCountry": "日本",
      "placePref": "岩手県",
      "placeCity": null,
      "latitude": 39.5713763,
      "longitude": 141.4253574
    },
    {
      "originId": "https://www.data.jma.go.jp/developer/xml/data/20260404132307_0_VPWW53_220000.xml",
      "title": "気象特別警報・警報・注意報",
      "content": "【静岡県気象警報・注意報】静岡県では土砂災害や強風、高波、落雷に、中部、西部では低い土地の浸水に、中部では河川の増水に、東部ではなだれに注意してください。",
      "observedAt": "2026-04-04T13:23:07.000Z",
      "placeCountry": "日本",
      "placePref": "静岡県",
      "placeCity": null,
      "latitude": 34.9332488,
      "longitude": 138.0955398
    },
    {
      "originId": "https://www.data.jma.go.jp/developer/xml/data/20260404131128_0_VPWW53_250000.xml",
      "title": "気象特別警報・警報・注意報",
      "content": "【滋賀県気象警報・注意報】注意報を解除します。",
      "observedAt": "2026-04-04T13:11:28.000Z",
      "placeCountry": "日本",
      "placePref": "滋賀県",
      "placeCity": null,
      "latitude": 35.247154,
      "longitude": 136.109385
    },
    {
      "originId": "https://www.data.jma.go.jp/developer/xml/data/20260404131127_0_VPWW53_260000.xml",
      "title": "気象特別警報・警報・注意報",
      "content": "【京都府気象警報・注意報】北部では、５日明け方まで強風に注意してください。",
      "observedAt": "2026-04-04T13:11:27.000Z",
      "placeCountry": "日本",
      "placePref": "京都府",
      "placeCity": null,
      "latitude": 35.242552,
      "longitude": 135.454601
    },
    {
      "originId": "https://www.data.jma.go.jp/developer/xml/data/20260404125537_0_VPWW53_130000.xml",
      "title": "気象特別警報・警報・注意報",
      "content": "【東京都気象警報・注意報】東京地方、伊豆諸島北部、伊豆諸島南部では、強風や高波に注意してください。伊豆諸島北部、伊豆諸島南部では、急な強い雨や落雷に注意してください。",
      "observedAt": "2026-04-04T12:55:36.000Z",
      "placeCountry": "日本",
      "placePref": "東京都",
      "placeCity": null,
      "latitude": 35.6828387,
      "longitude": 139.7594549
    },
    {
      "originId": "https://www.data.jma.go.jp/developer/xml/data/20260404125038_0_VPWW53_280000.xml",
      "title": "気象特別警報・警報・注意報",
      "content": "【兵庫県気象警報・注意報】北部では、５日明け方まで強風に注意してください。南部では、５日夜遅くまで高波に注意してください。",
      "observedAt": "2026-04-04T12:50:37.000Z",
      "placeCountry": "日本",
      "placePref": "兵庫県",
      "placeCity": null,
      "latitude": 34.914934,
      "longitude": 134.860666
    },
    {
      "originId": "https://www.data.jma.go.jp/developer/xml/data/20260404124917_0_VPWW53_410000.xml",
      "title": "気象特別警報・警報・注意報",
      "content": "【佐賀県気象警報・注意報】北部では、５日夜のはじめ頃まで強風に注意してください。",
      "observedAt": "2026-04-04T12:49:17.000Z",
      "placeCountry": "日本",
      "placePref": "佐賀県",
      "placeCity": null,
      "latitude": 33.2185408,
      "longitude": 130.1296585
    },
    {
      "originId": "https://www.data.jma.go.jp/developer/xml/data/20260404124916_0_VPWW53_420000.xml",
      "title": "気象特別警報・警報・注意報",
      "content": "【長崎県気象警報・注意報】北部、五島では、５日明け方まで強風に注意してください。北部、壱岐・対馬、五島では、５日明け方まで高波に注意してください。",
      "observedAt": "2026-04-04T12:49:15.000Z",
      "placeCountry": "日本",
      "placePref": "長崎県",
      "placeCity": null,
      "latitude": 33.1154683,
      "longitude": 129.7874339
    },
    {
      "originId": "https://www.data.jma.go.jp/developer/xml/data/20260404124453_0_VPWW53_430000.xml",
      "title": "気象特別警報・警報・注意報",
      "content": "【熊本県気象警報・注意報】注意報を解除します。",
      "observedAt": "2026-04-04T12:44:52.000Z",
      "placeCountry": "日本",
      "placePref": "熊本県",
      "placeCity": null,
      "latitude": 32.6450475,
      "longitude": 130.6341345
    },
    {
      "originId": "https://www.data.jma.go.jp/developer/xml/data/20260404123712_0_VPWW53_220000.xml",
      "title": "気象特別警報・警報・注意報",
      "content": "【静岡県気象警報・注意報】静岡県では、土砂災害や強風、高波、落雷に注意してください。中部、西部では、低い土地の浸水に注意してください。東部では、なだれに注意してください。",
      "observedAt": "2026-04-04T12:37:11.000Z",
      "placeCountry": "日本",
      "placePref": "静岡県",
      "placeCity": null,
      "latitude": 34.9332488,
      "longitude": 138.0955398
    },
    {
      "originId": "https://www.data.jma.go.jp/developer/xml/data/20260404123138_0_VPWW53_460040.xml",
      "title": "気象特別警報・警報・注意報",
      "content": "【奄美地方（鹿児島県）気象警報・注意報】奄美地方では、５日明け方まで高波に注意してください。",
      "observedAt": "2026-04-04T12:31:38.000Z",
      "placeCountry": "日本",
      "placePref": "鹿児島県",
      "placeCity": null,
      "latitude": 31.521587,
      "longitude": 130.5474077
    },
    {
      "originId": "https://www.data.jma.go.jp/developer/xml/data/20260404121332_0_VPWW53_330000.xml",
      "title": "気象特別警報・警報・注意報",
      "content": "【岡山県気象警報・注意報】岡山県では、５日昼前まで濃霧による視程障害に注意してください。",
      "observedAt": "2026-04-04T12:13:31.000Z",
      "placeCountry": "日本",
      "placePref": "岡山県",
      "placeCity": null,
      "latitude": 34.8581334,
      "longitude": 133.7759256
    },
    {
      "originId": "https://www.data.jma.go.jp/developer/xml/data/20260404114652_0_VPWW53_210000.xml",
      "title": "気象特別警報・警報・注意報",
      "content": "【岐阜県気象警報・注意報】美濃地方では、５日明け方まで土砂災害に、５日未明まで低い土地の浸水や河川の増水に注意してください。岐阜県では、５日未明まで落雷に注意してください。",
      "observedAt": "2026-04-04T11:46:51.000Z",
      "placeCountry": "日本",
      "placePref": "岐阜県",
      "placeCity": null,
      "latitude": 35.7867449,
      "longitude": 137.0460777
    },
    {
      "originId": "https://www.data.jma.go.jp/developer/xml/data/20260404114334_0_VPWW53_390000.xml",
      "title": "気象特別警報・警報・注意報",
      "content": "【高知県気象警報・注意報】高知県では、４日夜遅くまで強風に注意してください。中部、西部では５日明け方まで、東部では５日昼前まで、高波に注意してください。",
      "observedAt": "2026-04-04T11:43:33.000Z",
      "placeCountry": "日本",
      "placePref": "高知県",
      "placeCity": null,
      "latitude": 33.6569018,
      "longitude": 133.5606241
    },
    {
      "originId": "https://www.data.jma.go.jp/developer/xml/data/20260404114309_0_VPWW53_250000.xml",
      "title": "気象特別警報・警報・注意報",
      "content": "【滋賀県気象警報・注意報】滋賀県では、４日夜遅くまで急な強い雨や落雷に注意してください。",
      "observedAt": "2026-04-04T11:43:08.000Z",
      "placeCountry": "日本",
      "placePref": "滋賀県",
      "placeCity": null,
      "latitude": 35.247154,
      "longitude": 136.109385
    },
    {
      "originId": "https://www.data.jma.go.jp/developer/xml/data/20260404114232_0_VPWW53_350000.xml",
      "title": "気象特別警報・警報・注意報",
      "content": "【山口県気象警報・注意報】山口県では、強風に注意してください。",
      "observedAt": "2026-04-04T11:42:31.000Z",
      "placeCountry": "日本",
      "placePref": "山口県",
      "placeCity": null,
      "latitude": 34.2379614,
      "longitude": 131.5873845
    },
    {
      "originId": "https://www.data.jma.go.jp/developer/xml/data/20260404114226_0_VPWW53_400000.xml",
      "title": "気象特別警報・警報・注意報",
      "content": "【福岡県気象警報・注意報】福岡、北九州地方では、５日未明まで強風や高波に注意してください。",
      "observedAt": "2026-04-04T11:42:26.000Z",
      "placeCountry": "日本",
      "placePref": "福岡県",
      "placeCity": null,
      "latitude": 33.6251241,
      "longitude": 130.6180016
    },
    {
      "originId": "https://www.data.jma.go.jp/developer/xml/data/20260404114027_0_VPWW53_320000.xml",
      "title": "気象特別警報・警報・注意報",
      "content": "【島根県気象警報・注意報】島根県では、４日夜遅くまで強風や高波に注意してください。",
      "observedAt": "2026-04-04T11:40:26.000Z",
      "placeCountry": "日本",
      "placePref": "島根県",
      "placeCity": null,
      "latitude": 34.9418212,
      "longitude": 132.537439
    },
    {
      "originId": "https://www.data.jma.go.jp/developer/xml/data/20260404113923_0_VPWW53_380000.xml",
      "title": "気象特別警報・警報・注意報",
      "content": "【愛媛県気象警報・注意報】南予では、５日明け方まで高波に注意してください。",
      "observedAt": "2026-04-04T11:39:23.000Z",
      "placeCountry": "日本",
      "placePref": "愛媛県",
      "placeCity": null,
      "latitude": 33.6013646,
      "longitude": 132.8185275
    },
    {
      "originId": "https://www.data.jma.go.jp/developer/xml/data/20260404113911_0_VPWW53_370000.xml",
      "title": "気象特別警報・警報・注意報",
      "content": "【香川県気象警報・注意報】注意報を解除します。",
      "observedAt": "2026-04-04T11:39:10.000Z",
      "placeCountry": "日本",
      "placePref": "香川県",
      "placeCity": null,
      "latitude": 34.2480104,
      "longitude": 134.0586579
    },
    {
      "originId": "https://www.data.jma.go.jp/developer/xml/data/20260404113748_0_VPWW53_070000.xml",
      "title": "気象特別警報・警報・注意報",
      "content": "【福島県気象警報・注意報】福島県の海上では、５日未明まで暴風に警戒してください。",
      "observedAt": "2026-04-04T11:37:47.000Z",
      "placeCountry": "日本",
      "placePref": "福島県",
      "placeCity": null,
      "latitude": 37.3662591,
      "longitude": 140.2511854
    },
    {
      "originId": "https://www.data.jma.go.jp/developer/xml/data/20260404113746_0_VPWW53_040000.xml",
      "title": "気象特別警報・警報・注意報",
      "content": "【宮城県気象警報・注意報】宮城県の海上では、５日未明まで暴風に警戒してください。",
      "observedAt": "2026-04-04T11:37:45.000Z",
      "placeCountry": "日本",
      "placePref": "宮城県",
      "placeCity": null,
      "latitude": 38.3880155,
      "longitude": 140.9761025
    },
    {
      "originId": "https://www.data.jma.go.jp/developer/xml/data/20260404113051_0_VPWW53_310000.xml",
      "title": "気象特別警報・警報・注意報",
      "content": "【鳥取県気象警報・注意報】注意報を解除します。",
      "observedAt": "2026-04-04T11:30:50.000Z",
      "placeCountry": "日本",
      "placePref": "鳥取県",
      "placeCity": null,
      "latitude": 35.3555075,
      "longitude": 133.8678525
    },
    {
      "originId": "https://www.data.jma.go.jp/developer/xml/data/20260404112409_0_VPWW53_450000.xml",
      "title": "気象特別警報・警報・注意報",
      "content": "【宮崎県気象警報・注意報】南部平野部、北部平野部では、５日明け方まで高波に注意してください。",
      "observedAt": "2026-04-04T11:24:08.000Z",
      "placeCountry": "日本",
      "placePref": "宮崎県",
      "placeCity": null,
      "latitude": 32.097681,
      "longitude": 131.294542
    },
    {
      "originId": "https://www.data.jma.go.jp/developer/xml/data/20260404111348_0_VPWW53_140000.xml",
      "title": "気象特別警報・警報・注意報",
      "content": "【神奈川県気象警報・注意報】東部では、４日夜遅くから５日昼前まで高波に警戒してください。",
      "observedAt": "2026-04-04T11:13:47.000Z",
      "placeCountry": "日本",
      "placePref": "神奈川県",
      "placeCity": null,
      "latitude": 35.4342935,
      "longitude": 139.374753
    },
    {
      "originId": "https://www.data.jma.go.jp/developer/xml/data/20260404111249_0_VPWW53_170000.xml",
      "title": "気象特別警報・警報・注意報",
      "content": "【石川県気象警報・注意報】加賀では４日夜遅くまで、能登では５日明け方まで、強風や高波に注意してください。",
      "observedAt": "2026-04-04T11:12:48.000Z",
      "placeCountry": "日本",
      "placePref": "石川県",
      "placeCity": null,
      "latitude": 36.9888678,
      "longitude": 136.8163563
    },
    {
      "originId": "https://www.data.jma.go.jp/developer/xml/data/20260404111241_0_VPWW53_210000.xml",
      "title": "気象特別警報・警報・注意報",
      "content": "【岐阜県気象警報・注意報】美濃地方では、５日明け方まで土砂災害に、５日未明まで低い土地の浸水や河川の増水に注意してください。岐阜県では、５日未明まで落雷に注意してください。",
      "observedAt": "2026-04-04T11:12:40.000Z",
      "placeCountry": "日本",
      "placePref": "岐阜県",
      "placeCity": null,
      "latitude": 35.7867449,
      "longitude": 137.0460777
    },
    {
      "originId": "https://www.data.jma.go.jp/developer/xml/data/20260404110847_0_VPWW53_430000.xml",
      "title": "気象特別警報・警報・注意報",
      "content": "【熊本県気象警報・注意報】阿蘇、天草・芦北地方では、４日夜遅くまで強風に注意してください。天草・芦北地方では、４日夜遅くまで高波に注意してください。",
      "observedAt": "2026-04-04T11:08:46.000Z",
      "placeCountry": "日本",
      "placePref": "熊本県",
      "placeCity": null,
      "latitude": 32.6450475,
      "longitude": 130.6341345
    },
    {
      "originId": "https://www.data.jma.go.jp/developer/xml/data/20260404110807_0_VPWW53_340000.xml",
      "title": "気象特別警報・警報・注意報",
      "content": "【広島県気象警報・注意報】北部では、５日未明から５日昼前まで濃霧による視程障害に注意してください。",
      "observedAt": "2026-04-04T11:08:06.000Z",
      "placeCountry": "日本",
      "placePref": "広島県",
      "placeCity": null,
      "latitude": 34.5666725,
      "longitude": 132.753565
    },
    {
      "originId": "https://www.data.jma.go.jp/developer/xml/data/20260404110734_0_VPWW53_410000.xml",
      "title": "気象特別警報・警報・注意報",
      "content": "【佐賀県気象警報・注意報】北部では、５日夜のはじめ頃まで強風に、４日夜遅くまで高波に注意してください。",
      "observedAt": "2026-04-04T11:07:33.000Z",
      "placeCountry": "日本",
      "placePref": "佐賀県",
      "placeCity": null,
      "latitude": 33.2185408,
      "longitude": 130.1296585
    },
    {
      "originId": "https://www.data.jma.go.jp/developer/xml/data/20260404110732_0_VPWW53_420000.xml",
      "title": "気象特別警報・警報・注意報",
      "content": "【長崎県気象警報・注意報】長崎県では、４日夜遅くまで強風に、５日明け方まで高波に注意してください。",
      "observedAt": "2026-04-04T11:07:32.000Z",
      "placeCountry": "日本",
      "placePref": "長崎県",
      "placeCity": null,
      "latitude": 33.1154683,
      "longitude": 129.7874339
    },
    {
      "originId": "https://www.data.jma.go.jp/developer/xml/data/20260404102621_0_VPWW53_360000.xml",
      "title": "気象特別警報・警報・注意報",
      "content": "【徳島県気象警報・注意報】徳島県では、４日夜遅くまで強風に注意してください。北部では５日明け方まで、南部では５日昼前まで、高波に注意してください。",
      "observedAt": "2026-04-04T10:26:20.000Z",
      "placeCountry": "日本",
      "placePref": "徳島県",
      "placeCity": null,
      "latitude": 33.9196418,
      "longitude": 134.2509634
    },
    {
      "originId": "https://www.data.jma.go.jp/developer/xml/data/20260404102240_0_VPWW53_280000.xml",
      "title": "気象特別警報・警報・注意報",
      "content": "【兵庫県気象警報・注意報】南部では、４日夜遅くまで高波に警戒してください。",
      "observedAt": "2026-04-04T10:22:39.000Z",
      "placeCountry": "日本",
      "placePref": "兵庫県",
      "placeCity": null,
      "latitude": 34.914934,
      "longitude": 134.860666
    },
    {
      "originId": "https://www.data.jma.go.jp/developer/xml/data/20260404102212_0_VPWW53_210000.xml",
      "title": "気象特別警報・警報・注意報",
      "content": "【岐阜県気象警報・注意報】美濃地方では、５日明け方まで土砂災害に、５日未明まで河川の増水に注意してください。岐阜県では、５日未明まで落雷に注意してください。",
      "observedAt": "2026-04-04T10:22:11.000Z",
      "placeCountry": "日本",
      "placePref": "岐阜県",
      "placeCity": null,
      "latitude": 35.7867449,
      "longitude": 137.0460777
    },
    {
      "originId": "https://www.data.jma.go.jp/developer/xml/data/20260404101342_0_VPWW53_180000.xml",
      "title": "気象特別警報・警報・注意報",
      "content": "【福井県気象警報・注意報】福井県では、４日夜遅くまで強風に注意してください。",
      "observedAt": "2026-04-04T10:13:41.000Z",
      "placeCountry": "日本",
      "placePref": "福井県",
      "placeCity": null,
      "latitude": 35.9263502,
      "longitude": 136.6068127
    },
    {
      "originId": "https://www.data.jma.go.jp/developer/xml/data/20260404101012_0_VPWW53_220000.xml",
      "title": "気象特別警報・警報・注意報",
      "content": "【静岡県気象警報・注意報】静岡県では、土砂災害や強風、高波、落雷に注意してください。東部では、なだれに注意してください。",
      "observedAt": "2026-04-04T10:10:11.000Z",
      "placeCountry": "日本",
      "placePref": "静岡県",
      "placeCity": null,
      "latitude": 34.9332488,
      "longitude": 138.0955398
    },
    {
      "originId": "https://www.data.jma.go.jp/developer/xml/data/20260404094715_0_VPWW53_210000.xml",
      "title": "気象特別警報・警報・注意報",
      "content": "【岐阜県気象警報・注意報】美濃地方では、５日明け方まで土砂災害に、５日未明まで河川の増水に注意してください。岐阜県では、５日未明まで落雷に注意してください。",
      "observedAt": "2026-04-04T09:47:14.000Z",
      "placeCountry": "日本",
      "placePref": "岐阜県",
      "placeCity": null,
      "latitude": 35.7867449,
      "longitude": 137.0460777
    },
    {
      "originId": "https://www.data.jma.go.jp/developer/xml/data/20260404093933_0_VPWW53_390000.xml",
      "title": "気象特別警報・警報・注意報",
      "content": "【高知県気象警報・注意報】高知県では、４日夜遅くまで強風に注意してください。中部、西部では５日明け方まで、東部では５日昼前まで、高波に注意してください。東部では、４日夜のはじめ頃まで高潮に注意してください。",
      "observedAt": "2026-04-04T09:39:32.000Z",
      "placeCountry": "日本",
      "placePref": "高知県",
      "placeCity": null,
      "latitude": 33.6569018,
      "longitude": 133.5606241
    },
    {
      "originId": "https://www.data.jma.go.jp/developer/xml/data/20260404093445_0_VPWW53_440000.xml",
      "title": "気象特別警報・警報・注意報",
      "content": "【大分県気象警報・注意報】中部、南部では、５日朝まで高波に注意してください。",
      "observedAt": "2026-04-04T09:34:45.000Z",
      "placeCountry": "日本",
      "placePref": "大分県",
      "placeCity": null,
      "latitude": 33.1819875,
      "longitude": 131.4270217
    },
    {
      "originId": "https://www.data.jma.go.jp/developer/xml/data/20260404085005_0_VPWW53_330000.xml",
      "title": "気象特別警報・警報・注意報",
      "content": "【岡山県気象警報・注意報】注意報を解除します。",
      "observedAt": "2026-04-04T08:50:04.000Z",
      "placeCountry": "日本",
      "placePref": "岡山県",
      "placeCity": null,
      "latitude": 34.8581334,
      "longitude": 133.7759256
    },
    {
      "originId": "https://www.data.jma.go.jp/developer/xml/data/20260404084951_0_VPWW53_340000.xml",
      "title": "気象特別警報・警報・注意報",
      "content": "【広島県気象警報・注意報】注意報を解除します。",
      "observedAt": "2026-04-04T08:49:51.000Z",
      "placeCountry": "日本",
      "placePref": "広島県",
      "placeCity": null,
      "latitude": 34.5666725,
      "longitude": 132.753565
    },
    {
      "originId": "https://www.data.jma.go.jp/developer/xml/data/20260404084912_0_VPWW53_390000.xml",
      "title": "気象特別警報・警報・注意報",
      "content": "【高知県気象警報・注意報】中部では、土砂災害や低い土地の浸水、河川の増水に注意してください。高知県では、強風や高波、竜巻などの激しい突風、落雷に注意してください。東部では、高潮に注意してください。",
      "observedAt": "2026-04-04T08:49:11.000Z",
      "placeCountry": "日本",
      "placePref": "高知県",
      "placeCity": null,
      "latitude": 33.6569018,
      "longitude": 133.5606241
    },
    {
      "originId": "https://www.data.jma.go.jp/developer/xml/data/20260404081213_0_VPWW53_160000.xml",
      "title": "気象特別警報・警報・注意報",
      "content": "【富山県気象警報・注意報】富山県では、強風や融雪による土砂災害に注意してください。東部では、なだれに注意してください。",
      "observedAt": "2026-04-04T08:12:12.000Z",
      "placeCountry": "日本",
      "placePref": "富山県",
      "placeCity": null,
      "latitude": 36.6468015,
      "longitude": 137.2183531
    },
    {
      "originId": "https://www.data.jma.go.jp/developer/xml/data/20260404074817_0_VPWW53_280000.xml",
      "title": "気象特別警報・警報・注意報",
      "content": "【兵庫県気象警報・注意報】南部では、４日夜遅くまで高波に警戒してください。",
      "observedAt": "2026-04-04T07:48:16.000Z",
      "placeCountry": "日本",
      "placePref": "兵庫県",
      "placeCity": null,
      "latitude": 34.914934,
      "longitude": 134.860666
    },
    {
      "originId": "https://www.data.jma.go.jp/developer/xml/data/20260404074632_0_VPWW53_350000.xml",
      "title": "気象特別警報・警報・注意報",
      "content": "【山口県気象警報・注意報】山口県では、強風に注意してください。中部、東部では、高波に注意してください。",
      "observedAt": "2026-04-04T07:46:31.000Z",
      "placeCountry": "日本",
      "placePref": "山口県",
      "placeCity": null,
      "latitude": 34.2379614,
      "longitude": 131.5873845
    },
    {
      "originId": "https://www.data.jma.go.jp/developer/xml/data/20260404072916_0_VPWW53_220000.xml",
      "title": "気象特別警報・警報・注意報",
      "content": "【静岡県気象警報・注意報】中部、伊豆、西部では、土砂災害に注意してください。静岡県では、強風や高波、落雷に注意してください。東部では、なだれに注意してください。",
      "observedAt": "2026-04-04T07:29:15.000Z",
      "placeCountry": "日本",
      "placePref": "静岡県",
      "placeCity": null,
      "latitude": 34.9332488,
      "longitude": 138.0955398
    },
    {
      "originId": "https://www.data.jma.go.jp/developer/xml/data/20260404072608_0_VPWW53_380000.xml",
      "title": "気象特別警報・警報・注意報",
      "content": "【愛媛県気象警報・注意報】南予では、４日夜のはじめ頃まで強風に、５日明け方まで高波に注意してください。愛媛県では、４日夜のはじめ頃まで竜巻などの激しい突風や急な強い雨、落雷に注意してください。",
      "observedAt": "2026-04-04T07:26:08.000Z",
      "placeCountry": "日本",
      "placePref": "愛媛県",
      "placeCity": null,
      "latitude": 33.6013646,
      "longitude": 132.8185275
    },
    {
      "originId": "https://www.data.jma.go.jp/developer/xml/data/20260404071648_0_VPWW53_430000.xml",
      "title": "気象特別警報・警報・注意報",
      "content": "【熊本県気象警報・注意報】熊本地方では４日夜のはじめ頃まで、阿蘇、天草・芦北地方では４日夜遅くまで、強風に注意してください。天草・芦北地方では、４日夜遅くまで高波に注意してください。",
      "observedAt": "2026-04-04T07:16:47.000Z",
      "placeCountry": "日本",
      "placePref": "熊本県",
      "placeCity": null,
      "latitude": 32.6450475,
      "longitude": 130.6341345
    },
    {
      "originId": "https://www.data.jma.go.jp/developer/xml/data/20260404071315_0_VPWW53_230000.xml",
      "title": "気象特別警報・警報・注意報",
      "content": "【愛知県気象警報・注意報】愛知県では、４日夜遅くまで強風に、５日昼前まで高波に、５日未明まで急な強い雨や落雷に注意してください。",
      "observedAt": "2026-04-04T07:13:14.000Z",
      "placeCountry": "日本",
      "placePref": "愛知県",
      "placeCity": null,
      "latitude": 34.9991645,
      "longitude": 137.254574
    },
    {
      "originId": "https://www.data.jma.go.jp/developer/xml/data/20260404071209_0_VPWW53_310000.xml",
      "title": "気象特別警報・警報・注意報",
      "content": "【鳥取県気象警報・注意報】鳥取県では、４日夜遅くまで強風に、４日夜のはじめ頃まで急な強い雨や落雷に注意してください。",
      "observedAt": "2026-04-04T07:12:08.000Z",
      "placeCountry": "日本",
      "placePref": "鳥取県",
      "placeCity": null,
      "latitude": 35.3555075,
      "longitude": 133.8678525
    },
    {
      "originId": "https://www.data.jma.go.jp/developer/xml/data/20260404071016_0_VPWW53_080000.xml",
      "title": "気象特別警報・警報・注意報",
      "content": "【茨城県気象警報・注意報】茨城県では、強風や高波に注意してください。",
      "observedAt": "2026-04-04T07:10:15.000Z",
      "placeCountry": "日本",
      "placePref": "茨城県",
      "placeCity": null,
      "latitude": 36.2869536,
      "longitude": 140.4703384
    },
    {
      "originId": "https://www.data.jma.go.jp/developer/xml/data/20260404071009_0_VPWW53_450000.xml",
      "title": "気象特別警報・警報・注意報",
      "content": "【宮崎県気象警報・注意報】南部平野部では、４日夜のはじめ頃まで強風に注意してください。南部平野部、北部平野部では、５日明け方まで高波に注意してください。",
      "observedAt": "2026-04-04T07:10:09.000Z",
      "placeCountry": "日本",
      "placePref": "宮崎県",
      "placeCity": null,
      "latitude": 32.097681,
      "longitude": 131.294542
    },
    {
      "originId": "https://www.data.jma.go.jp/developer/xml/data/20260404070912_0_VPWW53_120000.xml",
      "title": "気象特別警報・警報・注意報",
      "content": "【千葉県気象警報・注意報】南部では、４日夜遅くから５日未明まで暴風に警戒してください。",
      "observedAt": "2026-04-04T07:09:11.000Z",
      "placeCountry": "日本",
      "placePref": "千葉県",
      "placeCity": null,
      "latitude": 35.549399,
      "longitude": 140.2647303
    },
    {
      "originId": "https://www.data.jma.go.jp/developer/xml/data/20260404070903_0_VPWW53_410000.xml",
      "title": "気象特別警報・警報・注意報",
      "content": "【佐賀県気象警報・注意報】佐賀県では、強風に注意してください。北部では、高波に注意してください。",
      "observedAt": "2026-04-04T07:09:02.000Z",
      "placeCountry": "日本",
      "placePref": "佐賀県",
      "placeCity": null,
      "latitude": 33.2185408,
      "longitude": 130.1296585
    },
    {
      "originId": "https://www.data.jma.go.jp/developer/xml/data/20260404070611_0_VPWW53_390000.xml",
      "title": "気象特別警報・警報・注意報",
      "content": "【高知県気象警報・注意報】中部では、４日夜のはじめ頃まで低い土地の浸水に警戒してください。",
      "observedAt": "2026-04-04T07:06:10.000Z",
      "placeCountry": "日本",
      "placePref": "高知県",
      "placeCity": null,
      "latitude": 33.6569018,
      "longitude": 133.5606241
    },
    {
      "originId": "https://www.data.jma.go.jp/developer/xml/data/20260404070541_0_VPWW53_130000.xml",
      "title": "気象特別警報・警報・注意報",
      "content": "【東京都気象警報・注意報】東京地方、伊豆諸島北部、伊豆諸島南部では、強風や高波に注意してください。伊豆諸島北部、伊豆諸島南部では、急な強い雨や落雷に注意してください。",
      "observedAt": "2026-04-04T07:05:40.000Z",
      "placeCountry": "日本",
      "placePref": "東京都",
      "placeCity": null,
      "latitude": 35.6828387,
      "longitude": 139.7594549
    },
    {
      "originId": "https://www.data.jma.go.jp/developer/xml/data/20260404070540_0_VPWW53_190000.xml",
      "title": "気象特別警報・警報・注意報",
      "content": "【山梨県気象警報・注意報】山梨県では、４日夜のはじめ頃から５日明け方まで急な強い雨や落雷に注意してください。東部・富士五湖では、５日までなだれに注意してください。",
      "observedAt": "2026-04-04T07:05:39.000Z",
      "placeCountry": "日本",
      "placePref": "山梨県",
      "placeCity": null,
      "latitude": 35.6399328,
      "longitude": 138.6380495
    },
    {
      "originId": "https://www.data.jma.go.jp/developer/xml/data/20260404070516_0_VPWW53_240000.xml",
      "title": "気象特別警報・警報・注意報",
      "content": "【三重県気象警報・注意報】南部では、土砂災害に注意してください。三重県では、強風や高波、落雷に注意してください。",
      "observedAt": "2026-04-04T07:05:15.000Z",
      "placeCountry": "日本",
      "placePref": "三重県",
      "placeCity": null,
      "latitude": 34.7339685,
      "longitude": 136.5154489
    },
    {
      "originId": "https://www.data.jma.go.jp/developer/xml/data/20260404070427_0_VPWW53_160000.xml",
      "title": "気象特別警報・警報・注意報",
      "content": "【富山県気象警報・注意報】富山県では、強風や融雪による土砂災害に注意してください。東部では、なだれに注意してください。",
      "observedAt": "2026-04-04T07:04:27.000Z",
      "placeCountry": "日本",
      "placePref": "富山県",
      "placeCity": null,
      "latitude": 36.6468015,
      "longitude": 137.2183531
    },
    {
      "originId": "https://www.data.jma.go.jp/developer/xml/data/20260404070421_0_VPWW53_350000.xml",
      "title": "気象特別警報・警報・注意報",
      "content": "【山口県気象警報・注意報】山口県では、強風に注意してください。中部、東部では、高波に注意してください。",
      "observedAt": "2026-04-04T07:04:20.000Z",
      "placeCountry": "日本",
      "placePref": "山口県",
      "placeCity": null,
      "latitude": 34.2379614,
      "longitude": 131.5873845
    },
    {
      "originId": "https://www.data.jma.go.jp/developer/xml/data/20260404070334_0_VPWW53_050000.xml",
      "title": "気象特別警報・警報・注意報",
      "content": "【秋田県気象警報・注意報】沿岸では、５日未明から５日朝まで強風に注意してください。秋田県では、ここしばらくなだれに注意してください。",
      "observedAt": "2026-04-04T07:03:33.000Z",
      "placeCountry": "日本",
      "placePref": "秋田県",
      "placeCity": null,
      "latitude": 39.6898802,
      "longitude": 140.342608
    },
    {
      "originId": "https://www.data.jma.go.jp/developer/xml/data/20260404070311_0_VPWW53_140000.xml",
      "title": "気象特別警報・警報・注意報",
      "content": "【神奈川県気象警報・注意報】東部では、４日夜遅くから５日昼前まで高波に警戒してください。",
      "observedAt": "2026-04-04T07:03:10.000Z",
      "placeCountry": "日本",
      "placePref": "神奈川県",
      "placeCity": null,
      "latitude": 35.4342935,
      "longitude": 139.374753
    },
    {
      "originId": "https://www.data.jma.go.jp/developer/xml/data/20260404070308_0_VPWW53_150000.xml",
      "title": "気象特別警報・警報・注意報",
      "content": "【新潟県気象警報・注意報】新潟県では、強風に注意してください。下越、佐渡では、高波に注意してください。下越、中越、上越では、融雪による土砂災害やなだれに注意してください。",
      "observedAt": "2026-04-04T07:03:07.000Z",
      "placeCountry": "日本",
      "placePref": "新潟県",
      "placeCity": null,
      "latitude": 37.6452283,
      "longitude": 138.7669125
    },
    {
      "originId": "https://www.data.jma.go.jp/developer/xml/data/20260404070249_0_VPWW53_090000.xml",
      "title": "気象特別警報・警報・注意報",
      "content": "【栃木県気象警報・注意報】栃木県では、５日昼前まで濃霧による視程障害に注意してください。",
      "observedAt": "2026-04-04T07:02:48.000Z",
      "placeCountry": "日本",
      "placePref": "栃木県",
      "placeCity": null,
      "latitude": 36.6782167,
      "longitude": 139.8096549
    },
    {
      "originId": "https://www.data.jma.go.jp/developer/xml/data/20260404070213_0_VPWW53_420000.xml",
      "title": "気象特別警報・警報・注意報",
      "content": "【長崎県気象警報・注意報】長崎県では、４日夜遅くまで強風に、５日明け方まで高波に注意してください。",
      "observedAt": "2026-04-04T07:02:12.000Z",
      "placeCountry": "日本",
      "placePref": "長崎県",
      "placeCity": null,
      "latitude": 33.1154683,
      "longitude": 129.7874339
    },
    {
      "originId": "https://www.data.jma.go.jp/developer/xml/data/20260404070149_0_VPWW53_110000.xml",
      "title": "気象特別警報・警報・注意報",
      "content": "【埼玉県気象警報・注意報】南部では、４日夜遅くから５日明け方まで土砂災害に注意してください。秩父地方では、５日昼前まで濃霧による視程障害に注意してください。",
      "observedAt": "2026-04-04T07:01:48.000Z",
      "placeCountry": "日本",
      "placePref": "埼玉県",
      "placeCity": null,
      "latitude": 35.9754168,
      "longitude": 139.4160114
    },
    {
      "originId": "https://www.data.jma.go.jp/developer/xml/data/20260404070142_0_VPWW53_100000.xml",
      "title": "気象特別警報・警報・注意報",
      "content": "【群馬県気象警報・注意報】群馬県では、５日昼前まで濃霧による視程障害に注意してください。北部では、６日までなだれに注意してください。",
      "observedAt": "2026-04-04T07:01:41.000Z",
      "placeCountry": "日本",
      "placePref": "群馬県",
      "placeCity": null,
      "latitude": 36.52198,
      "longitude": 139.033483
    },
    {
      "originId": "https://www.data.jma.go.jp/developer/xml/data/20260404065907_0_VPWW53_070000.xml",
      "title": "気象特別警報・警報・注意報",
      "content": "【福島県気象警報・注意報】福島県の海上では、４日夜のはじめ頃から５日未明まで暴風に警戒してください。",
      "observedAt": "2026-04-04T06:59:06.000Z",
      "placeCountry": "日本",
      "placePref": "福島県",
      "placeCity": null,
      "latitude": 37.3662591,
      "longitude": 140.2511854
    },
    {
      "originId": "https://www.data.jma.go.jp/developer/xml/data/20260404065614_0_VPWW53_400000.xml",
      "title": "気象特別警報・警報・注意報",
      "content": "【福岡県気象警報・注意報】筑後地方では４日夜のはじめ頃まで、福岡、北九州地方では５日未明まで、強風に注意してください。福岡、北九州地方では、５日未明まで高波に注意してください。",
      "observedAt": "2026-04-04T06:56:13.000Z",
      "placeCountry": "日本",
      "placePref": "福岡県",
      "placeCity": null,
      "latitude": 33.6251241,
      "longitude": 130.6180016
    },
    {
      "originId": "https://www.data.jma.go.jp/developer/xml/data/20260404065539_0_VPWW53_460040.xml",
      "title": "気象特別警報・警報・注意報",
      "content": "【奄美地方（鹿児島県）気象警報・注意報】奄美地方では、５日明け方まで高波に、４日夜遅くまで竜巻などの激しい突風や急な強い雨、落雷に注意してください。",
      "observedAt": "2026-04-04T06:55:38.000Z",
      "placeCountry": "日本",
      "placePref": "鹿児島県",
      "placeCity": null,
      "latitude": 31.521587,
      "longitude": 130.5474077
    },
    {
      "originId": "https://www.data.jma.go.jp/developer/xml/data/20260404065412_0_VPWW53_390000.xml",
      "title": "気象特別警報・警報・注意報",
      "content": "【高知県気象警報・注意報】中部では、４日夜のはじめ頃まで低い土地の浸水に警戒してください。",
      "observedAt": "2026-04-04T06:54:11.000Z",
      "placeCountry": "日本",
      "placePref": "高知県",
      "placeCity": null,
      "latitude": 33.6569018,
      "longitude": 133.5606241
    },
    {
      "originId": "https://www.data.jma.go.jp/developer/xml/data/20260404065049_0_VPWW53_040000.xml",
      "title": "気象特別警報・警報・注意報",
      "content": "【宮城県気象警報・注意報】宮城県の海上では、４日夜のはじめ頃から５日未明まで暴風に警戒してください。",
      "observedAt": "2026-04-04T06:50:49.000Z",
      "placeCountry": "日本",
      "placePref": "宮城県",
      "placeCity": null,
      "latitude": 38.3880155,
      "longitude": 140.9761025
    },
    {
      "originId": "https://www.data.jma.go.jp/developer/xml/data/20260404064815_0_VPWW53_360000.xml",
      "title": "気象特別警報・警報・注意報",
      "content": "【徳島県気象警報・注意報】徳島県では、土砂災害や河川の増水、強風、高波、竜巻などの激しい突風、落雷に注意してください。",
      "observedAt": "2026-04-04T06:48:15.000Z",
      "placeCountry": "日本",
      "placePref": "徳島県",
      "placeCity": null,
      "latitude": 33.9196418,
      "longitude": 134.2509634
    },
    {
      "originId": "https://www.data.jma.go.jp/developer/xml/data/20260404064604_0_VPWW53_260000.xml",
      "title": "気象特別警報・警報・注意報",
      "content": "【京都府気象警報・注意報】北部では、５日明け方まで強風に注意してください。京都府では、４日夜遅くまで急な強い雨や落雷に注意してください。",
      "observedAt": "2026-04-04T06:46:04.000Z",
      "placeCountry": "日本",
      "placePref": "京都府",
      "placeCity": null,
      "latitude": 35.242552,
      "longitude": 135.454601
    },
    {
      "originId": "https://www.data.jma.go.jp/developer/xml/data/20260404064542_0_VPWW53_460100.xml",
      "title": "気象特別警報・警報・注意報",
      "content": "【鹿児島県（奄美地方を除く）気象警報・注意報】薩摩、大隅、種子島・屋久島地方では、５日明け方まで高波に注意してください。",
      "observedAt": "2026-04-04T06:45:41.000Z",
      "placeCountry": "日本",
      "placePref": "鹿児島県",
      "placeCity": null,
      "latitude": 31.521587,
      "longitude": 130.5474077
    },
    {
      "originId": "https://www.data.jma.go.jp/developer/xml/data/20260404064144_0_VPWW53_280000.xml",
      "title": "気象特別警報・警報・注意報",
      "content": "【兵庫県気象警報・注意報】南部では、４日夜遅くまで高波に警戒してください。",
      "observedAt": "2026-04-04T06:41:42.000Z",
      "placeCountry": "日本",
      "placePref": "兵庫県",
      "placeCity": null,
      "latitude": 34.914934,
      "longitude": 134.860666
    },
    {
      "originId": "https://www.data.jma.go.jp/developer/xml/data/20260404062804_0_VPWW53_390000.xml",
      "title": "気象特別警報・警報・注意報",
      "content": "【高知県気象警報・注意報】中部では、４日夜のはじめ頃まで低い土地の浸水に警戒してください。",
      "observedAt": "2026-04-04T06:28:03.000Z",
      "placeCountry": "日本",
      "placePref": "高知県",
      "placeCity": null,
      "latitude": 33.6569018,
      "longitude": 133.5606241
    },
    {
      "originId": "https://www.data.jma.go.jp/developer/xml/data/20260404062249_0_VPWW53_200000.xml",
      "title": "気象特別警報・警報・注意報",
      "content": "【長野県気象警報・注意報】北部、中部では、強風や融雪による土砂災害、なだれに注意してください。",
      "observedAt": "2026-04-04T06:22:48.000Z",
      "placeCountry": "日本",
      "placePref": "長野県",
      "placeCity": null,
      "latitude": 36.1143945,
      "longitude": 138.0319015
    },
    {
      "originId": "https://www.data.jma.go.jp/developer/xml/data/20260404061837_0_VPWW53_360000.xml",
      "title": "気象特別警報・警報・注意報",
      "content": "【徳島県気象警報・注意報】徳島県では、土砂災害や河川の増水、強風、高波、竜巻などの激しい突風、落雷に注意してください。",
      "observedAt": "2026-04-04T06:18:36.000Z",
      "placeCountry": "日本",
      "placePref": "徳島県",
      "placeCity": null,
      "latitude": 33.9196418,
      "longitude": 134.2509634
    }
  ]
}