{
  "generatedAt": "2026-03-19T20:16:41.736Z",
  "timeZone": "Asia/Tokyo",
  "hourPath": "2026/03/20/05",
  "source": "http://www.data.jma.go.jp/developer/xml/feed/extra.xml",
  "totalItems": 44,
  "items": [
    {
      "originId": "https://www.data.jma.go.jp/developer/xml/data/20260319201229_0_VPWW53_280000.xml",
      "title": "気象特別警報・警報・注意報",
      "content": "【兵庫県気象警報・注意報】兵庫県では濃霧による視程障害や霜に対する農作物の管理に、南部では空気の乾燥した状態が続くため、火の取り扱いに、北部ではなだれに注意してください。",
      "observedAt": "2026-03-19T20:12:28.000Z",
      "placeCountry": "日本",
      "placePref": "兵庫県",
      "placeCity": null,
      "latitude": 34.914934,
      "longitude": 134.860666
    },
    {
      "originId": "https://www.data.jma.go.jp/developer/xml/data/20260319200624_0_VPWW53_320000.xml",
      "title": "気象特別警報・警報・注意報",
      "content": "【島根県気象警報・注意報】東部では、２０日昼前まで濃霧による視程障害に注意してください。島根県では、２０日朝は霜に対する農作物の管理に注意してください。",
      "observedAt": "2026-03-19T20:06:23.000Z",
      "placeCountry": "日本",
      "placePref": "島根県",
      "placeCity": null,
      "latitude": 34.9418212,
      "longitude": 132.537439
    },
    {
      "originId": "https://www.data.jma.go.jp/developer/xml/data/20260319200622_0_VPWW53_310000.xml",
      "title": "気象特別警報・警報・注意報",
      "content": "【鳥取県気象警報・注意報】中・西部では、２０日昼前まで濃霧による視程障害に注意してください。鳥取県では、２１日までなだれに注意してください。",
      "observedAt": "2026-03-19T20:06:21.000Z",
      "placeCountry": "日本",
      "placePref": "鳥取県",
      "placeCity": null,
      "latitude": 35.3555075,
      "longitude": 133.8678525
    },
    {
      "originId": "https://www.data.jma.go.jp/developer/xml/data/20260319192131_0_VPWW53_300000.xml",
      "title": "気象特別警報・警報・注意報",
      "content": "【和歌山県気象警報・注意報】和歌山県では、２１日まで空気の乾燥した状態が続くため、火の取り扱いに、２０日朝は霜に対する農作物の管理に注意してください。",
      "observedAt": "2026-03-19T19:21:30.000Z",
      "placeCountry": "日本",
      "placePref": "和歌山県",
      "placeCity": null,
      "latitude": 33.8070292,
      "longitude": 135.5930743
    },
    {
      "originId": "https://www.data.jma.go.jp/developer/xml/data/20260319192118_0_VPWW53_290000.xml",
      "title": "気象特別警報・警報・注意報",
      "content": "【奈良県気象警報・注意報】奈良県では、２０日昼前まで濃霧による視程障害に、２０日朝は霜に対する農作物の管理に注意してください。",
      "observedAt": "2026-03-19T19:21:17.000Z",
      "placeCountry": "日本",
      "placePref": "奈良県",
      "placeCity": null,
      "latitude": 34.2963089,
      "longitude": 135.8816819
    },
    {
      "originId": "https://www.data.jma.go.jp/developer/xml/data/20260319191636_0_VPWW53_420000.xml",
      "title": "気象特別警報・警報・注意報",
      "content": "【長崎県気象警報・注意報】南部、壱岐・対馬では、高潮に注意してください。南部、北部では、空気の乾燥した状態が続くため、火の取り扱いに注意してください。長崎県では、霜に対する農作物の管理に注意してください。",
      "observedAt": "2026-03-19T19:16:35.000Z",
      "placeCountry": "日本",
      "placePref": "長崎県",
      "placeCity": null,
      "latitude": 33.1154683,
      "longitude": 129.7874339
    },
    {
      "originId": "https://www.data.jma.go.jp/developer/xml/data/20260319191634_0_VPWW53_410000.xml",
      "title": "気象特別警報・警報・注意報",
      "content": "【佐賀県気象警報・注意報】北部では、濃霧による視程障害に注意してください。佐賀県では、乾燥や霜に対する農作物の管理に注意してください。",
      "observedAt": "2026-03-19T19:16:34.000Z",
      "placeCountry": "日本",
      "placePref": "佐賀県",
      "placeCity": null,
      "latitude": 33.2185408,
      "longitude": 130.1296585
    },
    {
      "originId": "https://www.data.jma.go.jp/developer/xml/data/20260319191622_0_VPWW53_030000.xml",
      "title": "気象特別警報・警報・注意報",
      "content": "【岩手県気象警報・注意報】内陸、沿岸南部では、２０日まで空気の乾燥した状態が続くため、火の取り扱いに注意してください。",
      "observedAt": "2026-03-19T19:16:21.000Z",
      "placeCountry": "日本",
      "placePref": "岩手県",
      "placeCity": null,
      "latitude": 39.5713763,
      "longitude": 141.4253574
    },
    {
      "originId": "https://www.data.jma.go.jp/developer/xml/data/20260319191619_0_VPWW53_020000.xml",
      "title": "気象特別警報・警報・注意報",
      "content": "【青森県気象警報・注意報】青森県では、２０日まで空気の乾燥した状態が続くため、火の取り扱いに、ここしばらくなだれに注意してください。",
      "observedAt": "2026-03-19T19:16:18.000Z",
      "placeCountry": "日本",
      "placePref": "青森県",
      "placeCity": null,
      "latitude": 40.886943,
      "longitude": 140.590121
    },
    {
      "originId": "https://www.data.jma.go.jp/developer/xml/data/20260319191129_0_VPWW53_440000.xml",
      "title": "気象特別警報・警報・注意報",
      "content": "【大分県気象警報・注意報】大分県では、２０日昼前まで濃霧による視程障害に、２１日まで空気の乾燥した状態が続くため、火の取り扱いに、２０日朝は霜に対する農作物の管理に注意してください。",
      "observedAt": "2026-03-19T19:11:28.000Z",
      "placeCountry": "日本",
      "placePref": "大分県",
      "placeCity": null,
      "latitude": 33.1819875,
      "longitude": 131.4270217
    },
    {
      "originId": "https://www.data.jma.go.jp/developer/xml/data/20260319191127_0_VPWW53_430000.xml",
      "title": "気象特別警報・警報・注意報",
      "content": "【熊本県気象警報・注意報】熊本県では、２０日まで高潮に、２０日昼前まで濃霧による視程障害に、２１日まで空気の乾燥した状態が続くため、火の取り扱いに、２０日朝は霜に対する農作物の管理に注意してください。",
      "observedAt": "2026-03-19T19:11:26.000Z",
      "placeCountry": "日本",
      "placePref": "熊本県",
      "placeCity": null,
      "latitude": 32.6450475,
      "longitude": 130.6341345
    },
    {
      "originId": "https://www.data.jma.go.jp/developer/xml/data/20260319191043_0_VPWW53_360000.xml",
      "title": "気象特別警報・警報・注意報",
      "content": "【徳島県気象警報・注意報】徳島県では、２１日まで空気の乾燥した状態が続くため、火の取り扱いに、２０日朝は霜に対する農作物の管理に注意してください。",
      "observedAt": "2026-03-19T19:10:42.000Z",
      "placeCountry": "日本",
      "placePref": "徳島県",
      "placeCity": null,
      "latitude": 33.9196418,
      "longitude": 134.2509634
    },
    {
      "originId": "https://www.data.jma.go.jp/developer/xml/data/20260319191026_0_VPWW53_390000.xml",
      "title": "気象特別警報・警報・注意報",
      "content": "【高知県気象警報・注意報】中部、西部では、２１日まで空気の乾燥した状態が続くため、火の取り扱いに、２０日朝は霜に対する農作物の管理に注意してください。",
      "observedAt": "2026-03-19T19:10:26.000Z",
      "placeCountry": "日本",
      "placePref": "高知県",
      "placeCity": null,
      "latitude": 33.6569018,
      "longitude": 133.5606241
    },
    {
      "originId": "https://www.data.jma.go.jp/developer/xml/data/20260319190932_0_VPWW53_200000.xml",
      "title": "気象特別警報・警報・注意報",
      "content": "【長野県気象警報・注意報】長野県では、濃霧による視程障害に注意してください。中部、南部では、空気の乾燥した状態が続くため、火の取り扱いに注意してください。北部、中部では、なだれに注意してください。",
      "observedAt": "2026-03-19T19:09:31.000Z",
      "placeCountry": "日本",
      "placePref": "長野県",
      "placeCity": null,
      "latitude": 36.1143945,
      "longitude": 138.0319015
    },
    {
      "originId": "https://www.data.jma.go.jp/developer/xml/data/20260319190913_0_VPWW53_260000.xml",
      "title": "気象特別警報・警報・注意報",
      "content": "【京都府気象警報・注意報】京都府では、濃霧による視程障害や霜に対する農作物の管理に注意してください。南部では、空気の乾燥した状態が続くため、火の取り扱いに注意してください。",
      "observedAt": "2026-03-19T19:09:12.000Z",
      "placeCountry": "日本",
      "placePref": "京都府",
      "placeCity": null,
      "latitude": 35.242552,
      "longitude": 135.454601
    },
    {
      "originId": "https://www.data.jma.go.jp/developer/xml/data/20260319190816_0_VPWW53_280000.xml",
      "title": "気象特別警報・警報・注意報",
      "content": "【兵庫県気象警報・注意報】兵庫県では濃霧による視程障害や霜に対する農作物の管理に、南部では空気の乾燥した状態が続くため、火の取り扱いに、北部ではなだれに注意してください。",
      "observedAt": "2026-03-19T19:08:15.000Z",
      "placeCountry": "日本",
      "placePref": "兵庫県",
      "placeCity": null,
      "latitude": 34.914934,
      "longitude": 134.860666
    },
    {
      "originId": "https://www.data.jma.go.jp/developer/xml/data/20260319190729_0_VPWW53_210000.xml",
      "title": "気象特別警報・警報・注意報",
      "content": "【岐阜県気象警報・注意報】美濃地方では、２２日まで空気の乾燥した状態が続くため、火の取り扱いに注意してください。岐阜県では、２０日朝は霜に対する農作物の管理に注意してください。",
      "observedAt": "2026-03-19T19:07:28.000Z",
      "placeCountry": "日本",
      "placePref": "岐阜県",
      "placeCity": null,
      "latitude": 35.7867449,
      "longitude": 137.0460777
    },
    {
      "originId": "https://www.data.jma.go.jp/developer/xml/data/20260319190722_0_VPWW53_220000.xml",
      "title": "気象特別警報・警報・注意報",
      "content": "【静岡県気象警報・注意報】中部、西部では、２０日朝は霜に対する農作物の管理に注意してください。",
      "observedAt": "2026-03-19T19:07:22.000Z",
      "placeCountry": "日本",
      "placePref": "静岡県",
      "placeCity": null,
      "latitude": 34.9332488,
      "longitude": 138.0955398
    },
    {
      "originId": "https://www.data.jma.go.jp/developer/xml/data/20260319190630_0_VPWW53_240000.xml",
      "title": "気象特別警報・警報・注意報",
      "content": "【三重県気象警報・注意報】三重県では、２２日まで空気の乾燥した状態が続くため、火の取り扱いに、２０日朝は霜に対する農作物の管理に注意してください。",
      "observedAt": "2026-03-19T19:06:29.000Z",
      "placeCountry": "日本",
      "placePref": "三重県",
      "placeCity": null,
      "latitude": 34.7339685,
      "longitude": 136.5154489
    },
    {
      "originId": "https://www.data.jma.go.jp/developer/xml/data/20260319190613_0_VPWW53_230000.xml",
      "title": "気象特別警報・警報・注意報",
      "content": "【愛知県気象警報・注意報】愛知県では、２２日まで空気の乾燥した状態が続くため、火の取り扱いに、２０日朝は霜に対する農作物の管理に注意してください。",
      "observedAt": "2026-03-19T19:06:13.000Z",
      "placeCountry": "日本",
      "placePref": "愛知県",
      "placeCity": null,
      "latitude": 34.9991645,
      "longitude": 137.254574
    },
    {
      "originId": "https://www.data.jma.go.jp/developer/xml/data/20260319190521_0_VPWW53_120000.xml",
      "title": "気象特別警報・警報・注意報",
      "content": "【千葉県気象警報・注意報】北東部、南部では、２０日夕方まで高波に注意してください。",
      "observedAt": "2026-03-19T19:05:20.000Z",
      "placeCountry": "日本",
      "placePref": "千葉県",
      "placeCity": null,
      "latitude": 35.549399,
      "longitude": 140.2647303
    },
    {
      "originId": "https://www.data.jma.go.jp/developer/xml/data/20260319190513_0_VPWW53_060000.xml",
      "title": "気象特別警報・警報・注意報",
      "content": "【山形県気象警報・注意報】村山、庄内では、２０日まで空気の乾燥した状態が続くため、火の取り扱いに注意してください。山形県では、ここしばらくなだれに、２０日朝は霜に対する農作物の管理に注意してください。",
      "observedAt": "2026-03-19T19:05:12.000Z",
      "placeCountry": "日本",
      "placePref": "山形県",
      "placeCity": null,
      "latitude": 38.4746705,
      "longitude": 140.083237
    },
    {
      "originId": "https://www.data.jma.go.jp/developer/xml/data/20260319190438_0_VPWW53_080000.xml",
      "title": "気象特別警報・警報・注意報",
      "content": "【茨城県気象警報・注意報】北部では２０日昼前まで、南部では２０日夕方まで、高波に注意してください。",
      "observedAt": "2026-03-19T19:04:37.000Z",
      "placeCountry": "日本",
      "placePref": "茨城県",
      "placeCity": null,
      "latitude": 36.2869536,
      "longitude": 140.4703384
    },
    {
      "originId": "https://www.data.jma.go.jp/developer/xml/data/20260319190412_0_VPWW53_100000.xml",
      "title": "気象特別警報・警報・注意報",
      "content": "【群馬県気象警報・注意報】群馬県では、２２日まで空気の乾燥した状態が続くため、火の取り扱いに注意してください。",
      "observedAt": "2026-03-19T19:04:12.000Z",
      "placeCountry": "日本",
      "placePref": "群馬県",
      "placeCity": null,
      "latitude": 36.52198,
      "longitude": 139.033483
    },
    {
      "originId": "https://www.data.jma.go.jp/developer/xml/data/20260319190223_0_VPWW53_130000.xml",
      "title": "気象特別警報・警報・注意報",
      "content": "【東京都気象警報・注意報】伊豆諸島北部、伊豆諸島南部では、２１日明け方まで高波に注意してください。",
      "observedAt": "2026-03-19T19:02:23.000Z",
      "placeCountry": "日本",
      "placePref": "東京都",
      "placeCity": null,
      "latitude": 35.6828387,
      "longitude": 139.7594549
    },
    {
      "originId": "https://www.data.jma.go.jp/developer/xml/data/20260319185021_0_VPWW53_330000.xml",
      "title": "気象特別警報・警報・注意報",
      "content": "【岡山県気象警報・注意報】岡山県では、２０日昼前まで濃霧による視程障害に、２０日朝は霜に対する農作物の管理に注意してください。",
      "observedAt": "2026-03-19T18:50:20.000Z",
      "placeCountry": "日本",
      "placePref": "岡山県",
      "placeCity": null,
      "latitude": 34.8581334,
      "longitude": 133.7759256
    },
    {
      "originId": "https://www.data.jma.go.jp/developer/xml/data/20260319172516_0_VPWW53_260000.xml",
      "title": "気象特別警報・警報・注意報",
      "content": "【京都府気象警報・注意報】京都府では、２０日昼前まで濃霧による視程障害に、２０日朝は霜に対する農作物の管理に注意してください。",
      "observedAt": "2026-03-19T17:25:16.000Z",
      "placeCountry": "日本",
      "placePref": "京都府",
      "placeCity": null,
      "latitude": 35.242552,
      "longitude": 135.454601
    },
    {
      "originId": "https://www.data.jma.go.jp/developer/xml/data/20260319162638_0_VPWW53_460100.xml",
      "title": "気象特別警報・警報・注意報",
      "content": "【鹿児島県（奄美地方を除く）気象警報・注意報】薩摩地方では、２０日昼前まで濃霧による視程障害に注意してください。薩摩、大隅地方では、２０日朝は霜に対する農作物の管理に注意してください。",
      "observedAt": "2026-03-19T16:26:37.000Z",
      "placeCountry": "日本",
      "placePref": "鹿児島県",
      "placeCity": null,
      "latitude": 31.521587,
      "longitude": 130.5474077
    },
    {
      "originId": "https://www.data.jma.go.jp/developer/xml/data/20260319155549_0_VPWW53_130000.xml",
      "title": "気象特別警報・警報・注意報",
      "content": "【東京都気象警報・注意報】伊豆諸島南部では２０日明け方まで、伊豆諸島北部では２０日昼前まで、高波に注意してください。",
      "observedAt": "2026-03-19T15:55:48.000Z",
      "placeCountry": "日本",
      "placePref": "東京都",
      "placeCity": null,
      "latitude": 35.6828387,
      "longitude": 139.7594549
    },
    {
      "originId": "https://www.data.jma.go.jp/developer/xml/data/20260319135052_0_VPWW53_230000.xml",
      "title": "気象特別警報・警報・注意報",
      "content": "【愛知県気象警報・注意報】東部では、２０日明け方まで強風に注意してください。愛知県では、２０日朝は霜に対する農作物の管理に注意してください。",
      "observedAt": "2026-03-19T13:50:51.000Z",
      "placeCountry": "日本",
      "placePref": "愛知県",
      "placeCity": null,
      "latitude": 34.9991645,
      "longitude": 137.254574
    },
    {
      "originId": "https://www.data.jma.go.jp/developer/xml/data/20260319134930_0_VPWW53_220000.xml",
      "title": "気象特別警報・警報・注意報",
      "content": "【静岡県気象警報・注意報】西部では、２０日明け方まで強風や高波に注意してください。中部、西部では、２０日朝は霜に対する農作物の管理に注意してください。",
      "observedAt": "2026-03-19T13:49:29.000Z",
      "placeCountry": "日本",
      "placePref": "静岡県",
      "placeCity": null,
      "latitude": 34.9332488,
      "longitude": 138.0955398
    },
    {
      "originId": "https://www.data.jma.go.jp/developer/xml/data/20260319134620_0_VPWW53_240000.xml",
      "title": "気象特別警報・警報・注意報",
      "content": "【三重県気象警報・注意報】南部では、２０日明け方まで強風に注意してください。三重県では、２０日朝は霜に対する農作物の管理に注意してください。",
      "observedAt": "2026-03-19T13:46:20.000Z",
      "placeCountry": "日本",
      "placePref": "三重県",
      "placeCity": null,
      "latitude": 34.7339685,
      "longitude": 136.5154489
    },
    {
      "originId": "https://www.data.jma.go.jp/developer/xml/data/20260319123811_0_VPWW53_350000.xml",
      "title": "気象特別警報・警報・注意報",
      "content": "【山口県気象警報・注意報】山口県では、２０日朝は霜に対する農作物の管理に注意してください。",
      "observedAt": "2026-03-19T12:38:10.000Z",
      "placeCountry": "日本",
      "placePref": "山口県",
      "placeCity": null,
      "latitude": 34.2379614,
      "longitude": 131.5873845
    },
    {
      "originId": "https://www.data.jma.go.jp/developer/xml/data/20260319123610_0_VPWW53_440000.xml",
      "title": "気象特別警報・警報・注意報",
      "content": "【大分県気象警報・注意報】大分県では、２０日未明から２０日昼前まで濃霧による視程障害に、２０日朝は霜に対する農作物の管理に注意してください。",
      "observedAt": "2026-03-19T12:36:09.000Z",
      "placeCountry": "日本",
      "placePref": "大分県",
      "placeCity": null,
      "latitude": 33.1819875,
      "longitude": 131.4270217
    },
    {
      "originId": "https://www.data.jma.go.jp/developer/xml/data/20260319121107_0_VPWW53_040000.xml",
      "title": "気象特別警報・警報・注意報",
      "content": "【宮城県気象警報・注意報】宮城県では、２１日まで空気の乾燥した状態が続くため、火の取り扱いに、２０日朝は霜に対する農作物の管理に注意してください。西部では、ここしばらくなだれに注意してください。",
      "observedAt": "2026-03-19T12:11:06.000Z",
      "placeCountry": "日本",
      "placePref": "宮城県",
      "placeCity": null,
      "latitude": 38.3880155,
      "longitude": 140.9761025
    },
    {
      "originId": "https://www.data.jma.go.jp/developer/xml/data/20260319114019_0_VPWW53_230000.xml",
      "title": "気象特別警報・警報・注意報",
      "content": "【愛知県気象警報・注意報】東部では、１９日夜遅くまで強風に注意してください。愛知県では、２０日朝は霜に対する農作物の管理に注意してください。",
      "observedAt": "2026-03-19T11:40:18.000Z",
      "placeCountry": "日本",
      "placePref": "愛知県",
      "placeCity": null,
      "latitude": 34.9991645,
      "longitude": 137.254574
    },
    {
      "originId": "https://www.data.jma.go.jp/developer/xml/data/20260319113901_0_VPWW53_220000.xml",
      "title": "気象特別警報・警報・注意報",
      "content": "【静岡県気象警報・注意報】中部、西部では、１９日夜遅くまで強風や高波に、２０日朝は霜に対する農作物の管理に注意してください。",
      "observedAt": "2026-03-19T11:39:00.000Z",
      "placeCountry": "日本",
      "placePref": "静岡県",
      "placeCity": null,
      "latitude": 34.9332488,
      "longitude": 138.0955398
    },
    {
      "originId": "https://www.data.jma.go.jp/developer/xml/data/20260319113548_0_VPWW53_100000.xml",
      "title": "気象特別警報・警報・注意報",
      "content": "【群馬県気象警報・注意報】注意報を解除します。",
      "observedAt": "2026-03-19T11:35:48.000Z",
      "placeCountry": "日本",
      "placePref": "群馬県",
      "placeCity": null,
      "latitude": 36.52198,
      "longitude": 139.033483
    },
    {
      "originId": "https://www.data.jma.go.jp/developer/xml/data/20260319113537_0_VPWW53_240000.xml",
      "title": "気象特別警報・警報・注意報",
      "content": "【三重県気象警報・注意報】南部では、１９日夜遅くまで強風に注意してください。三重県では、２０日朝は霜に対する農作物の管理に注意してください。",
      "observedAt": "2026-03-19T11:35:37.000Z",
      "placeCountry": "日本",
      "placePref": "三重県",
      "placeCity": null,
      "latitude": 34.7339685,
      "longitude": 136.5154489
    },
    {
      "originId": "https://www.data.jma.go.jp/developer/xml/data/20260319113448_0_VPWW53_090000.xml",
      "title": "気象特別警報・警報・注意報",
      "content": "【栃木県気象警報・注意報】栃木県では、２１日まで空気の乾燥した状態が続くため、火の取り扱いに、２０日朝は霜に対する農作物の管理に注意してください。",
      "observedAt": "2026-03-19T11:34:47.000Z",
      "placeCountry": "日本",
      "placePref": "栃木県",
      "placeCity": null,
      "latitude": 36.6782167,
      "longitude": 139.8096549
    },
    {
      "originId": "https://www.data.jma.go.jp/developer/xml/data/20260319111922_0_VPWW53_250000.xml",
      "title": "気象特別警報・警報・注意報",
      "content": "【滋賀県気象警報・注意報】滋賀県では、２０日朝は霜に対する農作物の管理に注意してください。",
      "observedAt": "2026-03-19T11:19:21.000Z",
      "placeCountry": "日本",
      "placePref": "滋賀県",
      "placeCity": null,
      "latitude": 35.247154,
      "longitude": 136.109385
    },
    {
      "originId": "https://www.data.jma.go.jp/developer/xml/data/20260319111920_0_VPWW53_260000.xml",
      "title": "気象特別警報・警報・注意報",
      "content": "【京都府気象警報・注意報】京都府では、２０日未明から２０日昼前まで濃霧による視程障害に、２０日朝は霜に対する農作物の管理に注意してください。",
      "observedAt": "2026-03-19T11:19:19.000Z",
      "placeCountry": "日本",
      "placePref": "京都府",
      "placeCity": null,
      "latitude": 35.242552,
      "longitude": 135.454601
    },
    {
      "originId": "https://www.data.jma.go.jp/developer/xml/data/20260319110739_0_VPWW53_280000.xml",
      "title": "気象特別警報・警報・注意報",
      "content": "【兵庫県気象警報・注意報】兵庫県では濃霧による視程障害や霜に対する農作物の管理に、南部では空気の乾燥した状態が続くため、火の取り扱いに、北部ではなだれに注意してください。",
      "observedAt": "2026-03-19T11:07:38.000Z",
      "placeCountry": "日本",
      "placePref": "兵庫県",
      "placeCity": null,
      "latitude": 34.914934,
      "longitude": 134.860666
    },
    {
      "originId": "https://www.data.jma.go.jp/developer/xml/data/20260319110242_0_VPWW53_340000.xml",
      "title": "気象特別警報・警報・注意報",
      "content": "【広島県気象警報・注意報】北部では、濃霧による視程障害に注意してください。南部では、空気の乾燥した状態が続くため、火の取り扱いに注意してください。広島県では、霜に対する農作物の管理に注意してください。",
      "observedAt": "2026-03-19T11:02:41.000Z",
      "placeCountry": "日本",
      "placePref": "広島県",
      "placeCity": null,
      "latitude": 34.5666725,
      "longitude": 132.753565
    }
  ]
}