{
  "generatedAt": "2026-06-10T05:40:51.819Z",
  "timeZone": "Asia/Tokyo",
  "hourPath": "2026/06/10/14",
  "source": "http://www.data.jma.go.jp/developer/xml/feed/extra.xml",
  "totalItems": 39,
  "items": [
    {
      "originId": "https://www.data.jma.go.jp/developer/xml/data/20260610015801_0_VPWW53_460040.xml",
      "title": "気象特別警報・警報・注意報",
      "content": "【奄美地方（鹿児島県）気象警報・注意報】奄美地方では、土砂災害や高波、竜巻などの激しい突風、落雷に注意してください。",
      "observedAt": "2026-06-10T01:58:00.000Z",
      "placeCountry": "日本",
      "placePref": "鹿児島県",
      "placeCity": null,
      "latitude": 31.521587,
      "longitude": 130.5474077
    },
    {
      "originId": "https://www.data.jma.go.jp/developer/xml/data/20260610015758_0_VPWW53_460100.xml",
      "title": "気象特別警報・警報・注意報",
      "content": "【鹿児島県（奄美地方を除く）気象警報・注意報】種子島・屋久島地方では、高波に注意してください。",
      "observedAt": "2026-06-10T01:57:57.000Z",
      "placeCountry": "日本",
      "placePref": "鹿児島県",
      "placeCity": null,
      "latitude": 31.521587,
      "longitude": 130.5474077
    },
    {
      "originId": "https://www.data.jma.go.jp/developer/xml/data/20260610015751_0_VPWW53_250000.xml",
      "title": "気象特別警報・警報・注意報",
      "content": "【滋賀県気象警報・注意報】滋賀県では、強風に注意してください。",
      "observedAt": "2026-06-10T01:57:51.000Z",
      "placeCountry": "日本",
      "placePref": "滋賀県",
      "placeCity": null,
      "latitude": 35.247154,
      "longitude": 136.109385
    },
    {
      "originId": "https://www.data.jma.go.jp/developer/xml/data/20260610015749_0_VPWW53_130000.xml",
      "title": "気象特別警報・警報・注意報",
      "content": "【東京都気象警報・注意報】伊豆諸島南部では、土砂災害や高波、落雷、濃霧による視程障害に注意してください。",
      "observedAt": "2026-06-10T01:57:48.000Z",
      "placeCountry": "日本",
      "placePref": "東京都",
      "placeCity": null,
      "latitude": 35.6828387,
      "longitude": 139.7594549
    },
    {
      "originId": "https://www.data.jma.go.jp/developer/xml/data/20260610015743_0_VPWW53_090000.xml",
      "title": "気象特別警報・警報・注意報",
      "content": "【栃木県気象警報・注意報】栃木県では、濃霧による視程障害に注意してください。",
      "observedAt": "2026-06-10T01:57:42.000Z",
      "placeCountry": "日本",
      "placePref": "栃木県",
      "placeCity": null,
      "latitude": 36.6782167,
      "longitude": 139.8096549
    },
    {
      "originId": "https://www.data.jma.go.jp/developer/xml/data/20260610014437_0_VPWW53_090000.xml",
      "title": "気象特別警報・警報・注意報",
      "content": "【栃木県気象警報・注意報】栃木県では、濃霧による視程障害に注意してください。",
      "observedAt": "2026-06-10T01:44:37.000Z",
      "placeCountry": "日本",
      "placePref": "栃木県",
      "placeCity": null,
      "latitude": 36.6782167,
      "longitude": 139.8096549
    },
    {
      "originId": "https://www.data.jma.go.jp/developer/xml/data/20260610002542_0_VPWW53_200000.xml",
      "title": "気象特別警報・警報・注意報",
      "content": "【長野県気象警報・注意報】注意報を解除します。",
      "observedAt": "2026-06-10T00:25:40.000Z",
      "placeCountry": "日本",
      "placePref": "長野県",
      "placeCity": null,
      "latitude": 36.1143945,
      "longitude": 138.0319015
    },
    {
      "originId": "https://www.data.jma.go.jp/developer/xml/data/20260610001427_0_VPWW53_250000.xml",
      "title": "気象特別警報・警報・注意報",
      "content": "【滋賀県気象警報・注意報】滋賀県では、強風に注意してください。",
      "observedAt": "2026-06-10T00:14:26.000Z",
      "placeCountry": "日本",
      "placePref": "滋賀県",
      "placeCity": null,
      "latitude": 35.247154,
      "longitude": 136.109385
    },
    {
      "originId": "https://www.data.jma.go.jp/developer/xml/data/20260609232642_0_VPWW53_430000.xml",
      "title": "気象特別警報・警報・注意報",
      "content": "【熊本県気象警報・注意報】注意報を解除します。",
      "observedAt": "2026-06-09T23:26:40.000Z",
      "placeCountry": "日本",
      "placePref": "熊本県",
      "placeCity": null,
      "latitude": 32.6450475,
      "longitude": 130.6341345
    },
    {
      "originId": "https://www.data.jma.go.jp/developer/xml/data/20260609224603_0_VPWW53_400000.xml",
      "title": "気象特別警報・警報・注意報",
      "content": "【福岡県気象警報・注意報】注意報を解除します。",
      "observedAt": "2026-06-09T22:46:01.000Z",
      "placeCountry": "日本",
      "placePref": "福岡県",
      "placeCity": null,
      "latitude": 33.6251241,
      "longitude": 130.6180016
    },
    {
      "originId": "https://www.data.jma.go.jp/developer/xml/data/20260609224229_0_VPWW53_280000.xml",
      "title": "気象特別警報・警報・注意報",
      "content": "【兵庫県気象警報・注意報】注意報を解除します。",
      "observedAt": "2026-06-09T22:42:28.000Z",
      "placeCountry": "日本",
      "placePref": "兵庫県",
      "placeCity": null,
      "latitude": 34.914934,
      "longitude": 134.860666
    },
    {
      "originId": "https://www.data.jma.go.jp/developer/xml/data/20260609224112_0_VPWW53_260000.xml",
      "title": "気象特別警報・警報・注意報",
      "content": "【京都府気象警報・注意報】注意報を解除します。",
      "observedAt": "2026-06-09T22:41:11.000Z",
      "placeCountry": "日本",
      "placePref": "京都府",
      "placeCity": null,
      "latitude": 35.242552,
      "longitude": 135.454601
    },
    {
      "originId": "https://www.data.jma.go.jp/developer/xml/data/20260609223323_0_VPWW53_420000.xml",
      "title": "気象特別警報・警報・注意報",
      "content": "【長崎県気象警報・注意報】注意報を解除します。",
      "observedAt": "2026-06-09T22:33:22.000Z",
      "placeCountry": "日本",
      "placePref": "長崎県",
      "placeCity": null,
      "latitude": 33.1154683,
      "longitude": 129.7874339
    },
    {
      "originId": "https://www.data.jma.go.jp/developer/xml/data/20260609223322_0_VPWW53_410000.xml",
      "title": "気象特別警報・警報・注意報",
      "content": "【佐賀県気象警報・注意報】注意報を解除します。",
      "observedAt": "2026-06-09T22:33:21.000Z",
      "placeCountry": "日本",
      "placePref": "佐賀県",
      "placeCity": null,
      "latitude": 33.2185408,
      "longitude": 130.1296585
    },
    {
      "originId": "https://www.data.jma.go.jp/developer/xml/data/20260609214729_0_VPWW53_460040.xml",
      "title": "気象特別警報・警報・注意報",
      "content": "【奄美地方（鹿児島県）気象警報・注意報】奄美地方では、土砂災害や高波、竜巻などの激しい突風、落雷に注意してください。",
      "observedAt": "2026-06-09T21:47:28.000Z",
      "placeCountry": "日本",
      "placePref": "鹿児島県",
      "placeCity": null,
      "latitude": 31.521587,
      "longitude": 130.5474077
    },
    {
      "originId": "https://www.data.jma.go.jp/developer/xml/data/20260609214237_0_VPWW53_150000.xml",
      "title": "気象特別警報・警報・注意報",
      "content": "【新潟県気象警報・注意報】注意報を解除します。",
      "observedAt": "2026-06-09T21:42:36.000Z",
      "placeCountry": "日本",
      "placePref": "新潟県",
      "placeCity": null,
      "latitude": 37.6452283,
      "longitude": 138.7669125
    },
    {
      "originId": "https://www.data.jma.go.jp/developer/xml/data/20260609214209_0_VPWW53_460040.xml",
      "title": "気象特別警報・警報・注意報",
      "content": "【奄美地方（鹿児島県）気象警報・注意報】奄美地方では、土砂災害や強風、高波、竜巻などの激しい突風、落雷に注意してください。",
      "observedAt": "2026-06-09T21:42:07.000Z",
      "placeCountry": "日本",
      "placePref": "鹿児島県",
      "placeCity": null,
      "latitude": 31.521587,
      "longitude": 130.5474077
    },
    {
      "originId": "https://www.data.jma.go.jp/developer/xml/data/20260609195824_0_VPWW53_460040.xml",
      "title": "気象特別警報・警報・注意報",
      "content": "【奄美地方（鹿児島県）気象警報・注意報】奄美地方では、土砂災害や強風、高波、竜巻などの激しい突風、落雷に注意してください。",
      "observedAt": "2026-06-09T19:58:23.000Z",
      "placeCountry": "日本",
      "placePref": "鹿児島県",
      "placeCity": null,
      "latitude": 31.521587,
      "longitude": 130.5474077
    },
    {
      "originId": "https://www.data.jma.go.jp/developer/xml/data/20260609195822_0_VPWW53_460100.xml",
      "title": "気象特別警報・警報・注意報",
      "content": "【鹿児島県（奄美地方を除く）気象警報・注意報】種子島・屋久島地方では、高波に注意してください。",
      "observedAt": "2026-06-09T19:58:20.000Z",
      "placeCountry": "日本",
      "placePref": "鹿児島県",
      "placeCity": null,
      "latitude": 31.521587,
      "longitude": 130.5474077
    },
    {
      "originId": "https://www.data.jma.go.jp/developer/xml/data/20260609195820_0_VPWW53_430000.xml",
      "title": "気象特別警報・警報・注意報",
      "content": "【熊本県気象警報・注意報】熊本県では、濃霧による視程障害に注意してください。",
      "observedAt": "2026-06-09T19:58:19.000Z",
      "placeCountry": "日本",
      "placePref": "熊本県",
      "placeCity": null,
      "latitude": 32.6450475,
      "longitude": 130.6341345
    },
    {
      "originId": "https://www.data.jma.go.jp/developer/xml/data/20260609195819_0_VPWW53_420000.xml",
      "title": "気象特別警報・警報・注意報",
      "content": "【長崎県気象警報・注意報】南部、北部では、濃霧による視程障害に注意してください。",
      "observedAt": "2026-06-09T19:58:18.000Z",
      "placeCountry": "日本",
      "placePref": "長崎県",
      "placeCity": null,
      "latitude": 33.1154683,
      "longitude": 129.7874339
    },
    {
      "originId": "https://www.data.jma.go.jp/developer/xml/data/20260609195818_0_VPWW53_410000.xml",
      "title": "気象特別警報・警報・注意報",
      "content": "【佐賀県気象警報・注意報】佐賀県では、濃霧による視程障害に注意してください。",
      "observedAt": "2026-06-09T19:58:16.000Z",
      "placeCountry": "日本",
      "placePref": "佐賀県",
      "placeCity": null,
      "latitude": 33.2185408,
      "longitude": 130.1296585
    },
    {
      "originId": "https://www.data.jma.go.jp/developer/xml/data/20260609195816_0_VPWW53_400000.xml",
      "title": "気象特別警報・警報・注意報",
      "content": "【福岡県気象警報・注意報】北九州、筑豊地方では、濃霧による視程障害に注意してください。",
      "observedAt": "2026-06-09T19:58:15.000Z",
      "placeCountry": "日本",
      "placePref": "福岡県",
      "placeCity": null,
      "latitude": 33.6251241,
      "longitude": 130.6180016
    },
    {
      "originId": "https://www.data.jma.go.jp/developer/xml/data/20260609195812_0_VPWW53_280000.xml",
      "title": "気象特別警報・警報・注意報",
      "content": "【兵庫県気象警報・注意報】兵庫県では、濃霧による視程障害に注意してください。",
      "observedAt": "2026-06-09T19:58:11.000Z",
      "placeCountry": "日本",
      "placePref": "兵庫県",
      "placeCity": null,
      "latitude": 34.914934,
      "longitude": 134.860666
    },
    {
      "originId": "https://www.data.jma.go.jp/developer/xml/data/20260609195811_0_VPWW53_340000.xml",
      "title": "気象特別警報・警報・注意報",
      "content": "【広島県気象警報・注意報】南部では、空気の乾燥した状態が続くため、火の取り扱いに注意してください。",
      "observedAt": "2026-06-09T19:58:09.000Z",
      "placeCountry": "日本",
      "placePref": "広島県",
      "placeCity": null,
      "latitude": 34.5666725,
      "longitude": 132.753565
    },
    {
      "originId": "https://www.data.jma.go.jp/developer/xml/data/20260609195809_0_VPWW53_260000.xml",
      "title": "気象特別警報・警報・注意報",
      "content": "【京都府気象警報・注意報】京都府では、濃霧による視程障害に注意してください。",
      "observedAt": "2026-06-09T19:58:08.000Z",
      "placeCountry": "日本",
      "placePref": "京都府",
      "placeCity": null,
      "latitude": 35.242552,
      "longitude": 135.454601
    },
    {
      "originId": "https://www.data.jma.go.jp/developer/xml/data/20260609195806_0_VPWW53_130000.xml",
      "title": "気象特別警報・警報・注意報",
      "content": "【東京都気象警報・注意報】伊豆諸島南部では、土砂災害や高波、落雷、濃霧による視程障害に注意してください。",
      "observedAt": "2026-06-09T19:58:05.000Z",
      "placeCountry": "日本",
      "placePref": "東京都",
      "placeCity": null,
      "latitude": 35.6828387,
      "longitude": 139.7594549
    },
    {
      "originId": "https://www.data.jma.go.jp/developer/xml/data/20260609195759_0_VPWW53_200000.xml",
      "title": "気象特別警報・警報・注意報",
      "content": "【長野県気象警報・注意報】長野県では、濃霧による視程障害に注意してください。",
      "observedAt": "2026-06-09T19:57:57.000Z",
      "placeCountry": "日本",
      "placePref": "長野県",
      "placeCity": null,
      "latitude": 36.1143945,
      "longitude": 138.0319015
    },
    {
      "originId": "https://www.data.jma.go.jp/developer/xml/data/20260609195757_0_VPWW53_150000.xml",
      "title": "気象特別警報・警報・注意報",
      "content": "【新潟県気象警報・注意報】上越では、濃霧による視程障害に注意してください。",
      "observedAt": "2026-06-09T19:57:55.000Z",
      "placeCountry": "日本",
      "placePref": "新潟県",
      "placeCity": null,
      "latitude": 37.6452283,
      "longitude": 138.7669125
    },
    {
      "originId": "https://www.data.jma.go.jp/developer/xml/data/20260609194555_0_VPWW53_260000.xml",
      "title": "気象特別警報・警報・注意報",
      "content": "【京都府気象警報・注意報】京都府では、濃霧による視程障害に注意してください。",
      "observedAt": "2026-06-09T19:45:54.000Z",
      "placeCountry": "日本",
      "placePref": "京都府",
      "placeCity": null,
      "latitude": 35.242552,
      "longitude": 135.454601
    },
    {
      "originId": "https://www.data.jma.go.jp/developer/xml/data/20260609193352_0_VPWW53_460040.xml",
      "title": "気象特別警報・警報・注意報",
      "content": "【奄美地方（鹿児島県）気象警報・注意報】奄美地方では、土砂災害や強風、高波、竜巻などの激しい突風、落雷に注意してください。",
      "observedAt": "2026-06-09T19:33:51.000Z",
      "placeCountry": "日本",
      "placePref": "鹿児島県",
      "placeCity": null,
      "latitude": 31.521587,
      "longitude": 130.5474077
    },
    {
      "originId": "https://www.data.jma.go.jp/developer/xml/data/20260609193143_0_VPWW53_280000.xml",
      "title": "気象特別警報・警報・注意報",
      "content": "【兵庫県気象警報・注意報】兵庫県では、濃霧による視程障害に注意してください。",
      "observedAt": "2026-06-09T19:31:41.000Z",
      "placeCountry": "日本",
      "placePref": "兵庫県",
      "placeCity": null,
      "latitude": 34.914934,
      "longitude": 134.860666
    },
    {
      "originId": "https://www.data.jma.go.jp/developer/xml/data/20260609193112_0_VPWW53_460100.xml",
      "title": "気象特別警報・警報・注意報",
      "content": "【鹿児島県（奄美地方を除く）気象警報・注意報】種子島・屋久島地方では、高波に注意してください。",
      "observedAt": "2026-06-09T19:31:10.000Z",
      "placeCountry": "日本",
      "placePref": "鹿児島県",
      "placeCity": null,
      "latitude": 31.521587,
      "longitude": 130.5474077
    },
    {
      "originId": "https://www.data.jma.go.jp/developer/xml/data/20260609191546_0_VPWW53_460040.xml",
      "title": "気象特別警報・警報・注意報",
      "content": "【奄美地方（鹿児島県）気象警報・注意報】奄美地方では、土砂災害や強風、高波、竜巻などの激しい突風、落雷に注意してください。",
      "observedAt": "2026-06-09T19:15:45.000Z",
      "placeCountry": "日本",
      "placePref": "鹿児島県",
      "placeCity": null,
      "latitude": 31.521587,
      "longitude": 130.5474077
    },
    {
      "originId": "https://www.data.jma.go.jp/developer/xml/data/20260609191153_0_VPWW53_260000.xml",
      "title": "気象特別警報・警報・注意報",
      "content": "【京都府気象警報・注意報】京都府では、濃霧による視程障害に注意してください。",
      "observedAt": "2026-06-09T19:11:52.000Z",
      "placeCountry": "日本",
      "placePref": "京都府",
      "placeCity": null,
      "latitude": 35.242552,
      "longitude": 135.454601
    },
    {
      "originId": "https://www.data.jma.go.jp/developer/xml/data/20260609190932_0_VPWW53_130000.xml",
      "title": "気象特別警報・警報・注意報",
      "content": "【東京都気象警報・注意報】伊豆諸島南部では、土砂災害や高波、落雷、濃霧による視程障害に注意してください。",
      "observedAt": "2026-06-09T19:09:30.000Z",
      "placeCountry": "日本",
      "placePref": "東京都",
      "placeCity": null,
      "latitude": 35.6828387,
      "longitude": 139.7594549
    },
    {
      "originId": "https://www.data.jma.go.jp/developer/xml/data/20260609190736_0_VPWW53_340000.xml",
      "title": "気象特別警報・警報・注意報",
      "content": "【広島県気象警報・注意報】南部では、空気の乾燥した状態が続くため、火の取り扱いに注意してください。",
      "observedAt": "2026-06-09T19:07:35.000Z",
      "placeCountry": "日本",
      "placePref": "広島県",
      "placeCity": null,
      "latitude": 34.5666725,
      "longitude": 132.753565
    },
    {
      "originId": "https://www.data.jma.go.jp/developer/xml/data/20260609190618_0_VPWW53_140000.xml",
      "title": "気象特別警報・警報・注意報",
      "content": "【神奈川県気象警報・注意報】注意報を解除します。",
      "observedAt": "2026-06-09T19:06:17.000Z",
      "placeCountry": "日本",
      "placePref": "神奈川県",
      "placeCity": null,
      "latitude": 35.4342935,
      "longitude": 139.374753
    },
    {
      "originId": "https://www.data.jma.go.jp/developer/xml/data/20260609183248_0_VPWW53_430000.xml",
      "title": "気象特別警報・警報・注意報",
      "content": "【熊本県気象警報・注意報】熊本県では、濃霧による視程障害に注意してください。",
      "observedAt": "2026-06-09T18:32:47.000Z",
      "placeCountry": "日本",
      "placePref": "熊本県",
      "placeCity": null,
      "latitude": 32.6450475,
      "longitude": 130.6341345
    }
  ]
}